{
"type": "FeatureCollection",
"name": "P0152-compressor-stations",
"crs": { "type": "name", "properties": { "name": "urn:ogc:def:crs:OGC:1.3:CRS84" } },
"features": [
{ "type": "Feature", "properties": { "OP_COMP_HR": "8270", "LATITUDE": "43.925683587000002", "VAL_METHOD": "IMAGERY/OTHER", "OBJECTID": "1198", "EXP_OTHER": "973469", "CITY": "REED CITY", "NAME": "LOREED (REED CITY)", "EXP_POWER": "0", "WEBSITE": "https://www.anrpl.com/company_info/", "COUNTRY": "USA", "ADDRESS": "7677 230TH AVENUE", "COUNTY": "OSCEOLA", "GCOMPID": "GCOMP849", "LONGITUDE": "-85.544564412", "STATUS": "IN SERVICE", "OP_DATE_PE": "Sun, 23 Sep 2012 00:00:00 GMT", "COUNTYFIPS": "26133", "COMPID": "48", "PIPECO": "ANR PIPELINE COMPANY", "POSREL": "WITHIN 40 FEET", "VAL_DATE": "Fri, 17 Jun 2022 00:00:00 GMT", "STATE": "MI", "CERT_HP": "17920", "ZIP4": "NOT AVAILABLE", "SOURCE": "EPA ENVIROFACTS, FERC FORM 2, CORPORATE WEBSITE", "ZIP": "49677", "OP_NUM_COM": "3", "GAS_COMPRE": "110005", "PLANT_COST": "7698173", "OPERATOR": "ANR PIPELINE COMPANY", "NAICS_DESC": "BOOSTER PUMPING STATION, NATURAL GAS TRANSPORTATION", "NUM_UNITS": "9", "ELEC_COMPR": "0", "TYPE": "NATURAL GAS COMPRESSOR STATION", "NAICS_CODE": "486210", "EXP_FUEL": "287738", "SOURCEDATE": "Wed, 15 Jul 2020 00:00:00 GMT" }, "geometry": { "type": "Point", "coordinates": [ -85.544564412, 43.925683587 ] } },
{ "type": "Feature", "properties": { "OP_COMP_HR": "46460", "LATITUDE": "40.90281098", "VAL_METHOD": "IMAGERY/OTHER", "OBJECTID": "756", "EXP_OTHER": "2410401", "CITY": "BIRMINGHAM", "NAME": "BIRMINGHAM", "EXP_POWER": "0", "WEBSITE": "https://www.anrpl.com/company_info/", "COUNTRY": "USA", "ADDRESS": "2795 LOCUST AVENUE", "COUNTY": "JEFFERSON", "GCOMPID": "GCOMP449", "LONGITUDE": "-91.965241914999993", "STATUS": "IN SERVICE", "OP_DATE_PE": "Fri, 24 Apr 2020 00:00:00 GMT", "COUNTYFIPS": "19101", "COMPID": "48", "PIPECO": "ANR PIPELINE COMPANY", "POSREL": "WITHIN 166 FEET", "VAL_DATE": "Fri, 17 Jun 2022 00:00:00 GMT", "STATE": "IA", "CERT_HP": "13100", "ZIP4": "NOT AVAILABLE", "SOURCE": "EPA ENVIROFACTS, FERC FORM 2, CORPORATE WEBSITE", "ZIP": "52535", "OP_NUM_COM": "8", "GAS_COMPRE": "574494", "PLANT_COST": "38893229", "OPERATOR": "ANR PIPELINE COMPANY", "NAICS_DESC": "BOOSTER PUMPING STATION, NATURAL GAS TRANSPORTATION", "NUM_UNITS": "8", "ELEC_COMPR": "0", "TYPE": "NATURAL GAS COMPRESSOR STATION", "NAICS_CODE": "486210", "EXP_FUEL": "1055177", "SOURCEDATE": "Wed, 15 Jul 2020 00:00:00 GMT" }, "geometry": { "type": "Point", "coordinates": [ -91.965241915, 40.90281098 ] } },
{ "type": "Feature", "properties": { "OP_COMP_HR": "9046", "LATITUDE": "43.941011553000003", "VAL_METHOD": "IMAGERY/OTHER", "OBJECTID": "895", "EXP_OTHER": "0", "CITY": "LAKE GEORGE", "NAME": "LINCOLN", "EXP_POWER": "0", "WEBSITE": "https://www.anrpl.com/company_info/", "COUNTRY": "USA", "ADDRESS": "3991 HICKORY ROAD", "COUNTY": "CLARE", "GCOMPID": "GCOMP575", "LONGITUDE": "-84.940942144000005", "STATUS": "IN SERVICE", "OP_DATE_PE": "Wed, 22 Feb 2012 00:00:00 GMT", "COUNTYFIPS": "26035", "COMPID": "48", "PIPECO": "ANR PIPELINE COMPANY", "POSREL": "WITHIN 40 FEET", "VAL_DATE": "Fri, 17 Jun 2022 00:00:00 GMT", "STATE": "MI", "CERT_HP": "45400", "ZIP4": "NOT AVAILABLE", "SOURCE": "EPA ENVIROFACTS, FERC FORM 2, CORPORATE WEBSITE", "ZIP": "48633", "OP_NUM_COM": "0", "GAS_COMPRE": "778108", "PLANT_COST": "127350667", "OPERATOR": "ANR PIPELINE COMPANY", "NAICS_DESC": "BOOSTER PUMPING STATION, NATURAL GAS TRANSPORTATION", "NUM_UNITS": "4", "ELEC_COMPR": "0", "TYPE": "NATURAL GAS COMPRESSOR STATION", "NAICS_CODE": "486210", "EXP_FUEL": "1802108", "SOURCEDATE": "Wed, 15 Jul 2020 00:00:00 GMT" }, "geometry": { "type": "Point", "coordinates": [ -84.940942144, 43.941011553 ] } },
{ "type": "Feature", "properties": { "OP_COMP_HR": "0", "LATITUDE": "28.398129432000001", "VAL_METHOD": "IMAGERY/OTHER", "OBJECTID": "250", "EXP_OTHER": "878089", "CITY": "NOT APPLICABLE", "NAME": "TRANS: BLOCK 188 - E.I. -- OFFSHORE CS", "EXP_POWER": "0", "WEBSITE": "https://www.anrpl.com/company_info/", "COUNTRY": "USA", "ADDRESS": "OFFSHORE CS", "COUNTY": "NOT APPLICABLE", "GCOMPID": "GCOMP1223", "LONGITUDE": "-92.259692303999998", "STATUS": "IN SERVICE", "OP_DATE_PE": "Wed, 15 Jul 2020 00:00:00 GMT", "COUNTYFIPS": "NOT APPLICABLE", "COMPID": "48", "PIPECO": "ANR PIPELINE COMPANY", "POSREL": "THIRD PARTY", "VAL_DATE": "Fri, 17 Jun 2022 00:00:00 GMT", "STATE": "NOT APPLICABLE", "CERT_HP": "50400", "ZIP4": "NOT APPLICABLE", "SOURCE": "FERC FORM 2", "ZIP": "NOT APPLICABLE", "OP_NUM_COM": "0", "GAS_COMPRE": "47036", "PLANT_COST": "-999", "OPERATOR": "ANR PIPELINE COMPANY", "NAICS_DESC": "BOOSTER PUMPING STATION, NATURAL GAS TRANSPORTATION", "NUM_UNITS": "3", "ELEC_COMPR": "0", "TYPE": "NATURAL GAS COMPRESSOR STATION", "NAICS_CODE": "486210", "EXP_FUEL": "122056", "SOURCEDATE": "Wed, 15 Jul 2020 00:00:00 GMT" }, "geometry": { "type": "Point", "coordinates": [ -92.259692304, 28.398129432 ] } },
{ "type": "Feature", "properties": { "OP_COMP_HR": "35672", "LATITUDE": "38.225499", "VAL_METHOD": "IMAGERY/OTHER", "OBJECTID": "636", "EXP_OTHER": "1852429", "CITY": "ALDEN", "NAME": "ALDEN", "EXP_POWER": "0", "WEBSITE": "https://www.anrpl.com/company_info/", "COUNTRY": "USA", "ADDRESS": "2135 11TH ROAD", "COUNTY": "RICE", "GCOMPID": "GCOMP340", "LONGITUDE": "-98.290914", "STATUS": "IN SERVICE", "OP_DATE_PE": "Tue, 21 Apr 2020 00:00:00 GMT", "COUNTYFIPS": "20159", "COMPID": "48", "PIPECO": "ANR PIPELINE COMPANY", "POSREL": "WITHIN 40 FEET", "VAL_DATE": "Fri, 17 Jun 2022 00:00:00 GMT", "STATE": "KS", "CERT_HP": "13410", "ZIP4": "NOT AVAILABLE", "SOURCE": "EPA ENVIROFACTS, FERC FORM 2, CORPORATE WEBSITE", "ZIP": "67512", "OP_NUM_COM": "8", "GAS_COMPRE": "429298", "PLANT_COST": "18984933", "OPERATOR": "ANR PIPELINE COMPANY", "NAICS_DESC": "BOOSTER PUMPING STATION, NATURAL GAS TRANSPORTATION", "NUM_UNITS": "9", "ELEC_COMPR": "0", "TYPE": "NATURAL GAS COMPRESSOR STATION", "NAICS_CODE": "486210", "EXP_FUEL": "772462", "SOURCEDATE": "Wed, 15 Jul 2020 00:00:00 GMT" }, "geometry": { "type": "Point", "coordinates": [ -98.290914, 38.225499 ] } },
{ "type": "Feature", "properties": { "OP_COMP_HR": "2109", "LATITUDE": "43.62765", "VAL_METHOD": "IMAGERY/OTHER", "OBJECTID": "1135", "EXP_OTHER": "96456", "CITY": "WHITE CLOUD", "NAME": "GOODWELL", "EXP_POWER": "0", "WEBSITE": "https://www.anrpl.com/company_info/", "COUNTRY": "USA", "ADDRESS": "6759 E 5 MILE ROAD", "COUNTY": "NEWAYGO", "GCOMPID": "GCOMP792", "LONGITUDE": "-85.63165", "STATUS": "IN SERVICE", "OP_DATE_PE": "Wed, 29 Feb 2012 00:00:00 GMT", "COUNTYFIPS": "26123", "COMPID": "48", "PIPECO": "ANR PIPELINE COMPANY", "POSREL": "WITHIN 40 FEET", "VAL_DATE": "Fri, 17 Jun 2022 00:00:00 GMT", "STATE": "MI", "CERT_HP": "15000", "ZIP4": "NOT AVAILABLE", "SOURCE": "EPA ENVIROFACTS, FERC FORM 2, CORPORATE WEBSITE", "ZIP": "49349", "OP_NUM_COM": "2", "GAS_COMPRE": "144190", "PLANT_COST": "26881615", "OPERATOR": "ANR PIPELINE COMPANY", "NAICS_DESC": "BOOSTER PUMPING STATION, NATURAL GAS TRANSPORTATION", "NUM_UNITS": "2", "ELEC_COMPR": "0", "TYPE": "NATURAL GAS COMPRESSOR STATION", "NAICS_CODE": "486210", "EXP_FUEL": "347512", "SOURCEDATE": "Wed, 15 Jul 2020 00:00:00 GMT" }, "geometry": { "type": "Point", "coordinates": [ -85.63165, 43.62765 ] } },
{ "type": "Feature", "properties": { "OP_COMP_HR": "5029", "LATITUDE": "39.49168034", "VAL_METHOD": "IMAGERY/OTHER", "OBJECTID": "594", "EXP_OTHER": "844018", "CITY": "HAVENSVILLE", "NAME": "HAVENSVILLE", "EXP_POWER": "0", "WEBSITE": "https://www.anrpl.com/company_info/", "COUNTRY": "USA", "ADDRESS": "19955 ENGLISH RIDGE ROAD", "COUNTY": "POTTAWATOMIE", "GCOMPID": "GCOMP302", "LONGITUDE": "-96.044086227999998", "STATUS": "IN SERVICE", "OP_DATE_PE": "Sat, 25 Jan 2020 00:00:00 GMT", "COUNTYFIPS": "20149", "COMPID": "48", "PIPECO": "ANR PIPELINE COMPANY", "POSREL": "WITHIN 40 FEET", "VAL_DATE": "Fri, 17 Jun 2022 00:00:00 GMT", "STATE": "KS", "CERT_HP": "14700", "ZIP4": "NOT AVAILABLE", "SOURCE": "EPA ENVIROFACTS, FERC FORM 2, CORPORATE WEBSITE", "ZIP": "66432", "OP_NUM_COM": "2", "GAS_COMPRE": "279617", "PLANT_COST": "25965465", "OPERATOR": "ANR PIPELINE COMPANY", "NAICS_DESC": "BOOSTER PUMPING STATION, NATURAL GAS TRANSPORTATION", "NUM_UNITS": "2", "ELEC_COMPR": "0", "TYPE": "NATURAL GAS COMPRESSOR STATION", "NAICS_CODE": "486210", "EXP_FUEL": "490834", "SOURCEDATE": "Wed, 15 Jul 2020 00:00:00 GMT" }, "geometry": { "type": "Point", "coordinates": [ -96.044086228, 39.49168034 ] } },
{ "type": "Feature", "properties": { "OP_COMP_HR": "7818", "LATITUDE": "35.64803135", "VAL_METHOD": "IMAGERY/OTHER", "OBJECTID": "203", "EXP_OTHER": "0", "CITY": "CUSTER CITY", "NAME": "TRANSOK", "EXP_POWER": "0", "WEBSITE": "https://www.anrpl.com/company_info/", "COUNTRY": "USA", "ADDRESS": "N2300 ROAD; 2 MILES E OFF HIGHWAY 33", "COUNTY": "CUSTER", "GCOMPID": "GCOMP1181", "LONGITUDE": "-98.897126127000007", "STATUS": "IN SERVICE", "OP_DATE_PE": "Wed, 01 Jan 2020 00:00:00 GMT", "COUNTYFIPS": "40039", "COMPID": "48", "PIPECO": "ANR PIPELINE COMPANY", "POSREL": "WITHIN 40 FEET", "VAL_DATE": "Fri, 17 Jun 2022 00:00:00 GMT", "STATE": "OK", "CERT_HP": "720", "ZIP4": "NOT AVAILABLE", "SOURCE": "EPA ENVIROFACTS, FERC FORM 2, CORPORATE WEBSITE", "ZIP": "73639", "OP_NUM_COM": "1", "GAS_COMPRE": "35661", "PLANT_COST": "36698", "OPERATOR": "ANR PIPELINE COMPANY", "NAICS_DESC": "BOOSTER PUMPING STATION, NATURAL GAS TRANSPORTATION", "NUM_UNITS": "1", "ELEC_COMPR": "0", "TYPE": "NATURAL GAS COMPRESSOR STATION", "NAICS_CODE": "486210", "EXP_FUEL": "94772", "SOURCEDATE": "Wed, 15 Jul 2020 00:00:00 GMT" }, "geometry": { "type": "Point", "coordinates": [ -98.897126127, 35.64803135 ] } },
{ "type": "Feature", "properties": { "OP_COMP_HR": "8082", "LATITUDE": "34.424955255", "VAL_METHOD": "IMAGERY/OTHER", "OBJECTID": "823", "EXP_OTHER": "931939", "CITY": "SARDIS", "NAME": "SARDIS", "EXP_POWER": "0", "WEBSITE": "https://www.anrpl.com/company_info/", "COUNTRY": "USA", "ADDRESS": "327 HOLLY GROVE ROAD", "COUNTY": "PANOLA", "GCOMPID": "GCOMP509", "LONGITUDE": "-90.125665764000004", "STATUS": "IN SERVICE", "OP_DATE_PE": "Tue, 25 Aug 2020 00:00:00 GMT", "COUNTYFIPS": "28107", "COMPID": "48", "PIPECO": "ANR PIPELINE COMPANY", "POSREL": "WITHIN 40 FEET", "VAL_DATE": "Fri, 17 Jun 2022 00:00:00 GMT", "STATE": "MS", "CERT_HP": "20320", "ZIP4": "2703", "SOURCE": "EPA ENVIROFACTS, FERC FORM 2, CORPORATE WEBSITE", "ZIP": "38666", "OP_NUM_COM": "4", "GAS_COMPRE": "482295", "PLANT_COST": "54966298", "OPERATOR": "ANR PIPELINE COMPANY", "NAICS_DESC": "BOOSTER PUMPING STATION, NATURAL GAS TRANSPORTATION", "NUM_UNITS": "5", "ELEC_COMPR": "0", "TYPE": "NATURAL GAS COMPRESSOR STATION", "NAICS_CODE": "486210", "EXP_FUEL": "903834", "SOURCEDATE": "Wed, 15 Jul 2020 00:00:00 GMT" }, "geometry": { "type": "Point", "coordinates": [ -90.125665764, 34.424955255 ] } },
{ "type": "Feature", "properties": { "OP_COMP_HR": "36086", "LATITUDE": "38.378623", "VAL_METHOD": "IMAGERY/OTHER", "OBJECTID": "454", "EXP_OTHER": "2152355", "CITY": "CELESTINE", "NAME": "CELESTINE", "EXP_POWER": "0", "WEBSITE": "https://www.anrpl.com/company_info/", "COUNTRY": "USA", "ADDRESS": "146 S CELESTINE ROAD S", "COUNTY": "DUBOIS", "GCOMPID": "GCOMP177", "LONGITUDE": "-86.776802", "STATUS": "IN SERVICE", "OP_DATE_PE": "Tue, 11 Aug 2020 00:00:00 GMT", "COUNTYFIPS": "18037", "COMPID": "48", "PIPECO": "ANR PIPELINE COMPANY", "POSREL": "WITHIN 40 FEET", "VAL_DATE": "Fri, 17 Jun 2022 00:00:00 GMT", "STATE": "IN", "CERT_HP": "30687", "ZIP4": "NOT AVAILABLE", "SOURCE": "EPA ENVIROFACTS, FERC FORM 2, CORPORATE WEBSITE", "ZIP": "47521", "OP_NUM_COM": "7", "GAS_COMPRE": "811612", "PLANT_COST": "73507006", "OPERATOR": "ANR PIPELINE COMPANY", "NAICS_DESC": "BOOSTER PUMPING STATION, NATURAL GAS TRANSPORTATION", "NUM_UNITS": "8", "ELEC_COMPR": "0", "TYPE": "NATURAL GAS COMPRESSOR STATION", "NAICS_CODE": "486210", "EXP_FUEL": "1497977", "SOURCEDATE": "Wed, 15 Jul 2020 00:00:00 GMT" }, "geometry": { "type": "Point", "coordinates": [ -86.776802, 38.378623 ] } },
{ "type": "Feature", "properties": { "OP_COMP_HR": "0", "LATITUDE": "43.038641114000001", "VAL_METHOD": "IMAGERY/OTHER", "OBJECTID": "975", "EXP_OTHER": "0", "CITY": "CAPAC", "NAME": "CAPAC", "EXP_POWER": "0", "WEBSITE": "https://www.anrpl.com/company_info/", "COUNTRY": "USA", "ADDRESS": "4876 KETTLEHUT ROAD", "COUNTY": "SAINT CLAIR", "GCOMPID": "GCOMP648", "LONGITUDE": "-82.946176062999996", "STATUS": "IN SERVICE", "OP_DATE_PE": "Wed, 15 Jul 2020 00:00:00 GMT", "COUNTYFIPS": "26147", "COMPID": "48", "PIPECO": "ANR PIPELINE COMPANY", "POSREL": "WITHIN 40 FEET", "VAL_DATE": "Fri, 17 Jun 2022 00:00:00 GMT", "STATE": "MI", "CERT_HP": "9660", "ZIP4": "NOT AVAILABLE", "SOURCE": "EPA ENVIROFACTS, FERC FORM 2, CORPORATE WEBSITE", "ZIP": "48014", "OP_NUM_COM": "0", "GAS_COMPRE": "0", "PLANT_COST": "-999", "OPERATOR": "ANR PIPELINE COMPANY", "NAICS_DESC": "BOOSTER PUMPING STATION, NATURAL GAS TRANSPORTATION", "NUM_UNITS": "2", "ELEC_COMPR": "0", "TYPE": "NATURAL GAS COMPRESSOR STATION", "NAICS_CODE": "486210", "EXP_FUEL": "0", "SOURCEDATE": "Wed, 15 Jul 2020 00:00:00 GMT" }, "geometry": { "type": "Point", "coordinates": [ -82.946176063, 43.038641114 ] } },
{ "type": "Feature", "properties": { "OP_COMP_HR": "28756", "LATITUDE": "33.372207369000002", "VAL_METHOD": "IMAGERY/OTHER", "OBJECTID": "431", "EXP_OTHER": "1879959", "CITY": "GREENVILLE", "NAME": "GREENVILLE", "EXP_POWER": "0", "WEBSITE": "https://www.anrpl.com/company_info/", "COUNTRY": "USA", "ADDRESS": "1387 SOUTH RACEWAY ROAD", "COUNTY": "WASHINGTON", "GCOMPID": "GCOMP156", "LONGITUDE": "-91.003774992000004", "STATUS": "IN SERVICE", "OP_DATE_PE": "Sat, 08 Aug 2020 00:00:00 GMT", "COUNTYFIPS": "28151", "COMPID": "48", "PIPECO": "ANR PIPELINE COMPANY", "POSREL": "WITHIN 40 FEET", "VAL_DATE": "Fri, 17 Jun 2022 00:00:00 GMT", "STATE": "MS", "CERT_HP": "30830", "ZIP4": "NOT AVAILABLE", "SOURCE": "EPA ENVIROFACTS, FERC FORM 2, CORPORATE WEBSITE", "ZIP": "38703", "OP_NUM_COM": "5", "GAS_COMPRE": "712176", "PLANT_COST": "62732479", "OPERATOR": "ANR PIPELINE COMPANY", "NAICS_DESC": "BOOSTER PUMPING STATION, NATURAL GAS TRANSPORTATION", "NUM_UNITS": "8", "ELEC_COMPR": "0", "TYPE": "NATURAL GAS COMPRESSOR STATION", "NAICS_CODE": "486210", "EXP_FUEL": "1321201", "SOURCEDATE": "Wed, 15 Jul 2020 00:00:00 GMT" }, "geometry": { "type": "Point", "coordinates": [ -91.003774992, 33.372207369 ] } },
{ "type": "Feature", "properties": { "OP_COMP_HR": "32616", "LATITUDE": "36.388914", "VAL_METHOD": "IMAGERY/OTHER", "OBJECTID": "1204", "EXP_OTHER": "2271210", "CITY": "COTTAGE GROVE", "NAME": "COTTAGE GROVE", "EXP_POWER": "0", "WEBSITE": "https://www.anrpl.com/company_info/", "COUNTRY": "USA", "ADDRESS": "7845 HIGHWAY 140 NORTH", "COUNTY": "HENRY", "GCOMPID": "GCOMP854", "LONGITUDE": "-88.482295", "STATUS": "IN SERVICE", "OP_DATE_PE": "Wed, 19 Feb 2020 00:00:00 GMT", "COUNTYFIPS": "47079", "COMPID": "48", "PIPECO": "ANR PIPELINE COMPANY", "POSREL": "WITHIN 40 FEET", "VAL_DATE": "Fri, 17 Jun 2022 00:00:00 GMT", "STATE": "TN", "CERT_HP": "21000", "ZIP4": "2117", "SOURCE": "EPA ENVIROFACTS, FERC FORM 2, CORPORATE WEBSITE", "ZIP": "38224", "OP_NUM_COM": "6", "GAS_COMPRE": "747304", "PLANT_COST": "59039030", "OPERATOR": "ANR PIPELINE COMPANY", "NAICS_DESC": "BOOSTER PUMPING STATION, NATURAL GAS TRANSPORTATION", "NUM_UNITS": "6", "ELEC_COMPR": "0", "TYPE": "NATURAL GAS COMPRESSOR STATION", "NAICS_CODE": "486210", "EXP_FUEL": "1389214", "SOURCEDATE": "Wed, 15 Jul 2020 00:00:00 GMT" }, "geometry": { "type": "Point", "coordinates": [ -88.482295, 36.388914 ] } },
{ "type": "Feature", "properties": { "OP_COMP_HR": "19771", "LATITUDE": "37.074148", "VAL_METHOD": "IMAGERY/OTHER", "OBJECTID": "760", "EXP_OTHER": "1350541", "CITY": "MEADE", "NAME": "MEADE", "EXP_POWER": "0", "WEBSITE": "https://www.anrpl.com/company_info/", "COUNTRY": "USA", "ADDRESS": "28111 11 ROAD", "COUNTY": "MEADE", "GCOMPID": "GCOMP452", "LONGITUDE": "-100.472115", "STATUS": "IN SERVICE", "OP_DATE_PE": "Thu, 28 May 2020 00:00:00 GMT", "COUNTYFIPS": "20119", "COMPID": "48", "PIPECO": "ANR PIPELINE COMPANY", "POSREL": "WITHIN 40 FEET", "VAL_DATE": "Fri, 17 Jun 2022 00:00:00 GMT", "STATE": "KS", "CERT_HP": "13240", "ZIP4": "NOT AVAILABLE", "SOURCE": "EPA ENVIROFACTS, FERC FORM 2, CORPORATE WEBSITE", "ZIP": "67864", "OP_NUM_COM": "6", "GAS_COMPRE": "187190", "PLANT_COST": "21043375", "OPERATOR": "ANR PIPELINE COMPANY", "NAICS_DESC": "BOOSTER PUMPING STATION, NATURAL GAS TRANSPORTATION", "NUM_UNITS": "9", "ELEC_COMPR": "0", "TYPE": "NATURAL GAS COMPRESSOR STATION", "NAICS_CODE": "486210", "EXP_FUEL": "324029", "SOURCEDATE": "Wed, 15 Jul 2020 00:00:00 GMT" }, "geometry": { "type": "Point", "coordinates": [ -100.472115, 37.074148 ] } },
{ "type": "Feature", "properties": { "OP_COMP_HR": "9046", "LATITUDE": "35.63721", "VAL_METHOD": "IMAGERY/OTHER", "OBJECTID": "901", "EXP_OTHER": "0", "CITY": "CUSTER CITY", "NAME": "CUSTER", "EXP_POWER": "0", "WEBSITE": "https://www.anrpl.com/company_info/", "COUNTRY": "USA", "ADDRESS": "4 MILES W OF HIGHWAY 33/183; OK-33", "COUNTY": "CUSTER", "GCOMPID": "GCOMP580", "LONGITUDE": "-99.02329", "STATUS": "IN SERVICE", "OP_DATE_PE": "Tue, 29 Sep 2020 00:00:00 GMT", "COUNTYFIPS": "40039", "COMPID": "48", "PIPECO": "ANR PIPELINE COMPANY", "POSREL": "WITHIN 40 FEET", "VAL_DATE": "Fri, 17 Jun 2022 00:00:00 GMT", "STATE": "OK", "CERT_HP": "45400", "ZIP4": "NOT AVAILABLE", "SOURCE": "EPA ENVIROFACTS, FERC FORM 2, CORPORATE WEBSITE", "ZIP": "73620", "OP_NUM_COM": "0", "GAS_COMPRE": "778108", "PLANT_COST": "127350667", "OPERATOR": "ANR PIPELINE COMPANY", "NAICS_DESC": "BOOSTER PUMPING STATION, NATURAL GAS TRANSPORTATION", "NUM_UNITS": "4", "ELEC_COMPR": "0", "TYPE": "NATURAL GAS COMPRESSOR STATION", "NAICS_CODE": "486210", "EXP_FUEL": "1802108", "SOURCEDATE": "Wed, 15 Jul 2020 00:00:00 GMT" }, "geometry": { "type": "Point", "coordinates": [ -99.02329, 35.63721 ] } },
{ "type": "Feature", "properties": { "OP_COMP_HR": "0", "LATITUDE": "37.031656218999998", "VAL_METHOD": "IMAGERY/OTHER", "OBJECTID": "314", "EXP_OTHER": "0", "CITY": "COLDWATER", "NAME": "BUTTERMILK", "EXP_POWER": "0", "WEBSITE": "https://www.anrpl.com/company_info/", "COUNTRY": "USA", "ADDRESS": "RURAL ROUTE 1", "COUNTY": "COMANCHE", "GCOMPID": "GCOMP1281", "LONGITUDE": "-99.382530868000003", "STATUS": "IN SERVICE", "OP_DATE_PE": "Wed, 15 Jul 2020 00:00:00 GMT", "COUNTYFIPS": "20033", "COMPID": "48", "PIPECO": "ANR PIPELINE COMPANY", "POSREL": "WITHIN 40 FEET", "VAL_DATE": "Fri, 17 Jun 2022 00:00:00 GMT", "STATE": "KS", "CERT_HP": "6000", "ZIP4": "NOT AVAILABLE", "SOURCE": "EPA ENVIROFACTS, FERC FORM 2, CORPORATE WEBSITE", "ZIP": "67029", "OP_NUM_COM": "0", "GAS_COMPRE": "0", "PLANT_COST": "-999", "OPERATOR": "ANR PIPELINE COMPANY", "NAICS_DESC": "BOOSTER PUMPING STATION, NATURAL GAS TRANSPORTATION", "NUM_UNITS": "2", "ELEC_COMPR": "0", "TYPE": "NATURAL GAS COMPRESSOR STATION", "NAICS_CODE": "486210", "EXP_FUEL": "0", "SOURCEDATE": "Wed, 28 Oct 2015 00:00:00 GMT" }, "geometry": { "type": "Point", "coordinates": [ -99.382530868, 37.031656219 ] } },
{ "type": "Feature", "properties": { "OP_COMP_HR": "13604", "LATITUDE": "29.692824", "VAL_METHOD": "IMAGERY/OTHER", "OBJECTID": "861", "EXP_OTHER": "1350831", "CITY": "PATTERSON", "NAME": "PATTERSON", "EXP_POWER": "0", "WEBSITE": "https://www.tcenergy.com/operations/natural-gas/anr-pipeline/", "COUNTRY": "USA", "ADDRESS": "3609 US-90 W; 1.5 MILES WEST OF PATTERSON, LA", "COUNTY": "SAINT MARY PARISH", "GCOMPID": "GCOMP543", "LONGITUDE": "-91.342529", "STATUS": "IN SERVICE", "OP_DATE_PE": "Wed, 01 Jan 2020 00:00:00 GMT", "COUNTYFIPS": "22101", "COMPID": "48", "PIPECO": "ANR PIPELINE COMPANY", "POSREL": "WITHIN 40 FEET", "VAL_DATE": "Fri, 17 Jun 2022 00:00:00 GMT", "STATE": "LA", "CERT_HP": "25490", "ZIP4": "NOT AVAILABLE", "SOURCE": "EPA ENVIROFACTS, FERC FORM 2, CORPORATE WEBSITE", "ZIP": "70392", "OP_NUM_COM": "2", "GAS_COMPRE": "630333", "PLANT_COST": "39316913", "OPERATOR": "ANR PIPELINE COMPANY", "NAICS_DESC": "BOOSTER PUMPING STATION, NATURAL GAS TRANSPORTATION", "NUM_UNITS": "5", "ELEC_COMPR": "0", "TYPE": "NATURAL GAS COMPRESSOR STATION", "NAICS_CODE": "486210", "EXP_FUEL": "1155764", "SOURCEDATE": "Wed, 15 Jul 2020 00:00:00 GMT" }, "geometry": { "type": "Point", "coordinates": [ -91.342529, 29.692824 ] } },
{ "type": "Feature", "properties": { "OP_COMP_HR": "1243", "LATITUDE": "44.9119", "VAL_METHOD": "IMAGERY/OTHER", "OBJECTID": "1097", "EXP_OTHER": "973593", "CITY": "JOHANNESBURG", "NAME": "SOUTH CHESTER", "EXP_POWER": "0", "WEBSITE": "https://www.anrpl.com/company_info/", "COUNTRY": "USA", "ADDRESS": "6327 OLD STATE ROAD", "COUNTY": "OTSEGO", "GCOMPID": "GCOMP758", "LONGITUDE": "-84.5404", "STATUS": "IN SERVICE", "OP_DATE_PE": "Sat, 14 Apr 2012 00:00:00 GMT", "COUNTYFIPS": "26137", "COMPID": "48", "PIPECO": "ANR PIPELINE COMPANY", "POSREL": "WITHIN 40 FEET", "VAL_DATE": "Fri, 17 Jun 2022 00:00:00 GMT", "STATE": "MI", "CERT_HP": "7200", "ZIP4": "9564", "SOURCE": "EPA ENVIROFACTS, FERC FORM 2, CORPORATE WEBSITE", "ZIP": "49751", "OP_NUM_COM": "2", "GAS_COMPRE": "48344", "PLANT_COST": "20557294", "OPERATOR": "ANR PIPELINE COMPANY", "NAICS_DESC": "BOOSTER PUMPING STATION, NATURAL GAS TRANSPORTATION", "NUM_UNITS": "2", "ELEC_COMPR": "0", "TYPE": "NATURAL GAS COMPRESSOR STATION", "NAICS_CODE": "486210", "EXP_FUEL": "99194", "SOURCEDATE": "Wed, 15 Jul 2020 00:00:00 GMT" }, "geometry": { "type": "Point", "coordinates": [ -84.5404, 44.9119 ] } },
{ "type": "Feature", "properties": { "OP_COMP_HR": "17506", "LATITUDE": "32.467302", "VAL_METHOD": "IMAGERY/OTHER", "OBJECTID": "565", "EXP_OTHER": "1741118", "CITY": "DELHI", "NAME": "DELHI", "EXP_POWER": "0", "WEBSITE": "https://www.anrpl.com/company_info/", "COUNTRY": "USA", "ADDRESS": "1894 HIGHWAY 80 WEST", "COUNTY": "RICHLAND PARISH", "GCOMPID": "GCOMP277", "LONGITUDE": "-91.597063", "STATUS": "IN SERVICE", "OP_DATE_PE": "Mon, 23 Mar 2020 00:00:00 GMT", "COUNTYFIPS": "22083", "COMPID": "48", "PIPECO": "ANR PIPELINE COMPANY", "POSREL": "WITHIN 40 FEET", "VAL_DATE": "Fri, 17 Jun 2022 00:00:00 GMT", "STATE": "LA", "CERT_HP": "22800", "ZIP4": "6619", "SOURCE": "EPA ENVIROFACTS, FERC FORM 2, CORPORATE WEBSITE", "ZIP": "71232", "OP_NUM_COM": "6", "GAS_COMPRE": "826447", "PLANT_COST": "56807841", "OPERATOR": "ANR PIPELINE COMPANY", "NAICS_DESC": "BOOSTER PUMPING STATION, NATURAL GAS TRANSPORTATION", "NUM_UNITS": "7", "ELEC_COMPR": "0", "TYPE": "NATURAL GAS COMPRESSOR STATION", "NAICS_CODE": "486210", "EXP_FUEL": "1536815", "SOURCEDATE": "Wed, 15 Jul 2020 00:00:00 GMT" }, "geometry": { "type": "Point", "coordinates": [ -91.597063, 32.467302 ] } },
{ "type": "Feature", "properties": { "OP_COMP_HR": "19595", "LATITUDE": "42.28834", "VAL_METHOD": "IMAGERY/OTHER", "OBJECTID": "475", "EXP_OTHER": "1057283", "CITY": "WOODSTOCK", "NAME": "WOODSTOCK", "EXP_POWER": "0", "WEBSITE": "https://www.anrpl.com/company_info/", "COUNTRY": "USA", "ADDRESS": "15313 WEST SOUTH STREET; ON S. ROSE FARM ROAD", "COUNTY": "MCHENRY", "GCOMPID": "GCOMP196", "LONGITUDE": "-88.49539", "STATUS": "IN SERVICE", "OP_DATE_PE": "Wed, 08 Jan 2020 00:00:00 GMT", "COUNTYFIPS": "17111", "COMPID": "48", "PIPECO": "ANR PIPELINE COMPANY", "POSREL": "WITHIN 40 FEET", "VAL_DATE": "Fri, 17 Jun 2022 00:00:00 GMT", "STATE": "IL", "CERT_HP": "38546", "ZIP4": "8994", "SOURCE": "EPA ENVIROFACTS, FERC FORM 2, CORPORATE WEBSITE", "ZIP": "60098", "OP_NUM_COM": "5", "GAS_COMPRE": "641241", "PLANT_COST": "50522051", "OPERATOR": "ANR PIPELINE COMPANY", "NAICS_DESC": "BOOSTER PUMPING STATION, NATURAL GAS TRANSPORTATION", "NUM_UNITS": "7", "ELEC_COMPR": "0", "TYPE": "NATURAL GAS COMPRESSOR STATION", "NAICS_CODE": "486210", "EXP_FUEL": "1194542", "SOURCEDATE": "Wed, 15 Jul 2020 00:00:00 GMT" }, "geometry": { "type": "Point", "coordinates": [ -88.49539, 42.28834 ] } },
{ "type": "Feature", "properties": { "OP_COMP_HR": "52451", "LATITUDE": "37.614245", "VAL_METHOD": "IMAGERY/OTHER", "OBJECTID": "139", "EXP_OTHER": "2442410", "CITY": "GREENSBURG", "NAME": "GREENSBURG", "EXP_POWER": "0", "WEBSITE": "https://www.anrpl.com/company_info/", "COUNTRY": "USA", "ADDRESS": "INTERSECTION OF US 183 AND US 54", "COUNTY": "KIOWA", "GCOMPID": "GCOMP1123", "LONGITUDE": "-99.322987", "STATUS": "IN SERVICE", "OP_DATE_PE": "Sat, 22 Feb 2020 00:00:00 GMT", "COUNTYFIPS": "20097", "COMPID": "48", "PIPECO": "ANR PIPELINE COMPANY", "POSREL": "WITHIN 166 FEET", "VAL_DATE": "Fri, 17 Jun 2022 00:00:00 GMT", "STATE": "KS", "CERT_HP": "13750", "ZIP4": "NOT AVAILABLE", "SOURCE": "EPA ENVIROFACTS, FERC FORM 2, CORPORATE WEBSITE, IMAGERY", "ZIP": "67054", "OP_NUM_COM": "9", "GAS_COMPRE": "591099", "PLANT_COST": "25917980", "OPERATOR": "ANR PIPELINE COMPANY", "NAICS_DESC": "BOOSTER PUMPING STATION, NATURAL GAS TRANSPORTATION", "NUM_UNITS": "9", "ELEC_COMPR": "0", "TYPE": "NATURAL GAS COMPRESSOR STATION", "NAICS_CODE": "486210", "EXP_FUEL": "1086941", "SOURCEDATE": "Wed, 15 Jul 2020 00:00:00 GMT" }, "geometry": { "type": "Point", "coordinates": [ -99.322987, 37.614245 ] } },
{ "type": "Feature", "properties": { "OP_COMP_HR": "1892", "LATITUDE": "41.431616407999996", "VAL_METHOD": "IMAGERY/OTHER", "OBJECTID": "824", "EXP_OTHER": "1153374", "CITY": "SAINT JOHN", "NAME": "SAINT JOHN", "EXP_POWER": "0", "WEBSITE": "https://www.anrpl.com/company_info/", "COUNTRY": "USA", "ADDRESS": "10313 WHITE OAK AVENUE", "COUNTY": "LAKE", "GCOMPID": "GCOMP51", "LONGITUDE": "-87.486027805000006", "STATUS": "IN SERVICE", "OP_DATE_PE": "Thu, 17 Dec 2020 00:00:00 GMT", "COUNTYFIPS": "18089", "COMPID": "48", "PIPECO": "ANR PIPELINE COMPANY", "POSREL": "WITHIN 40 FEET", "VAL_DATE": "Fri, 17 Jun 2022 00:00:00 GMT", "STATE": "IN", "CERT_HP": "32200", "ZIP4": "9043", "SOURCE": "EPA ENVIROFACTS, FERC FORM 2, CORPORATE WEBSITE", "ZIP": "46373", "OP_NUM_COM": "4", "GAS_COMPRE": "67379", "PLANT_COST": "54336113", "OPERATOR": "ANR PIPELINE COMPANY", "NAICS_DESC": "BOOSTER PUMPING STATION, NATURAL GAS TRANSPORTATION", "NUM_UNITS": "7", "ELEC_COMPR": "0", "TYPE": "NATURAL GAS COMPRESSOR STATION", "NAICS_CODE": "486210", "EXP_FUEL": "128460", "SOURCEDATE": "Wed, 15 Jul 2020 00:00:00 GMT" }, "geometry": { "type": "Point", "coordinates": [ -87.486027805, 41.431616408 ] } },
{ "type": "Feature", "properties": { "OP_COMP_HR": "0", "LATITUDE": "35.512868", "VAL_METHOD": "IMAGERY/OTHER", "OBJECTID": "463", "EXP_OTHER": "44450", "CITY": "MOBEETIE", "NAME": "GAGEBY CREEK", "EXP_POWER": "0", "WEBSITE": "https://www.anrpl.com/company_info/", "COUNTRY": "USA", "ADDRESS": "14838 TX-152", "COUNTY": "WHEELER", "GCOMPID": "GCOMP185", "LONGITUDE": "-100.426965", "STATUS": "IN SERVICE", "OP_DATE_PE": "Fri, 31 Jan 2020 00:00:00 GMT", "COUNTYFIPS": "48483", "COMPID": "48", "PIPECO": "ANR PIPELINE COMPANY", "POSREL": "WITHIN 40 FEET", "VAL_DATE": "Fri, 17 Jun 2022 00:00:00 GMT", "STATE": "TX", "CERT_HP": "7012", "ZIP4": "NOT AVAILABLE", "SOURCE": "EPA ENVIROFACTS, FERC FORM 2, CORPORATE WEBSITE", "ZIP": "79061", "OP_NUM_COM": "0", "GAS_COMPRE": "87", "PLANT_COST": "6721629", "OPERATOR": "ANR PIPELINE COMPANY", "NAICS_DESC": "BOOSTER PUMPING STATION, NATURAL GAS TRANSPORTATION", "NUM_UNITS": "2", "ELEC_COMPR": "0", "TYPE": "NATURAL GAS COMPRESSOR STATION", "NAICS_CODE": "486210", "EXP_FUEL": "203", "SOURCEDATE": "Wed, 15 Jul 2020 00:00:00 GMT" }, "geometry": { "type": "Point", "coordinates": [ -100.426965, 35.512868 ] } },
{ "type": "Feature", "properties": { "OP_COMP_HR": "0", "LATITUDE": "30.017240384000001", "VAL_METHOD": "IMAGERY/OTHER", "OBJECTID": "1020", "EXP_OTHER": "0", "CITY": "LOWRY", "NAME": "LAKE ARTHUR", "EXP_POWER": "0", "WEBSITE": "https://www.anrpl.com/company_info/", "COUNTRY": "USA", "ADDRESS": "541 LOWRY HIGHWAY 3056", "COUNTY": "CAMERON PARISH", "GCOMPID": "GCOMP689", "LONGITUDE": "-92.783428681000004", "STATUS": "IN SERVICE", "OP_DATE_PE": "Wed, 01 Jan 2020 00:00:00 GMT", "COUNTYFIPS": "22023", "COMPID": "48", "PIPECO": "ANR PIPELINE COMPANY", "POSREL": "WITHIN 40 FEET", "VAL_DATE": "Fri, 17 Jun 2022 00:00:00 GMT", "STATE": "LA", "CERT_HP": "2300", "ZIP4": "NOT AVAILABLE", "SOURCE": "FERC FORM 2, IMAGERY", "ZIP": "70631", "OP_NUM_COM": "0", "GAS_COMPRE": "0", "PLANT_COST": "2439942", "OPERATOR": "ANR PIPELINE COMPANY", "NAICS_DESC": "BOOSTER PUMPING STATION, NATURAL GAS TRANSPORTATION", "NUM_UNITS": "2", "ELEC_COMPR": "0", "TYPE": "NATURAL GAS COMPRESSOR STATION", "NAICS_CODE": "486210", "EXP_FUEL": "0", "SOURCEDATE": "Wed, 15 Jul 2020 00:00:00 GMT" }, "geometry": { "type": "Point", "coordinates": [ -92.783428681, 30.017240384 ] } },
{ "type": "Feature", "properties": { "OP_COMP_HR": "722", "LATITUDE": "45.014177343999997", "VAL_METHOD": "IMAGERY/OTHER", "OBJECTID": "450", "EXP_OTHER": "25399", "CITY": "JOHANNESBURG", "NAME": "CENTRAL CHARLTON", "EXP_POWER": "0", "WEBSITE": "https://www.anrpl.com/company_info/", "COUNTRY": "USA", "ADDRESS": "14490 BECKETT ROAD", "COUNTY": "OTSEGO", "GCOMPID": "GCOMP173", "LONGITUDE": "-84.381829721000003", "STATUS": "IN SERVICE", "OP_DATE_PE": "Sat, 14 Apr 2012 00:00:00 GMT", "COUNTYFIPS": "26137", "COMPID": "48", "PIPECO": "ANR PIPELINE COMPANY", "POSREL": "WITHIN 40 FEET", "VAL_DATE": "Fri, 17 Jun 2022 00:00:00 GMT", "STATE": "MI", "CERT_HP": "8000", "ZIP4": "NOT AVAILABLE", "SOURCE": "EPA ENVIROFACTS, FERC FORM 2, CORPORATE WEBSITE", "ZIP": "49751", "OP_NUM_COM": "1", "GAS_COMPRE": "38142", "PLANT_COST": "27667875", "OPERATOR": "ANR PIPELINE COMPANY", "NAICS_DESC": "BOOSTER PUMPING STATION, NATURAL GAS TRANSPORTATION", "NUM_UNITS": "2", "ELEC_COMPR": "0", "TYPE": "NATURAL GAS COMPRESSOR STATION", "NAICS_CODE": "486210", "EXP_FUEL": "85920", "SOURCEDATE": "Wed, 15 Jul 2020 00:00:00 GMT" }, "geometry": { "type": "Point", "coordinates": [ -84.381829721, 45.014177344 ] } },
{ "type": "Feature", "properties": { "OP_COMP_HR": "3892", "LATITUDE": "45.113078248000001", "VAL_METHOD": "IMAGERY/OTHER", "OBJECTID": "1166", "EXP_OTHER": "385781", "CITY": "SURING", "NAME": "MOUNTAIN", "EXP_POWER": "0", "WEBSITE": "https://www.anrpl.com/company_info/", "COUNTRY": "USA", "ADDRESS": "11345 HIGHWAY 64 EAST", "COUNTY": "OCONTO", "GCOMPID": "GCOMP82", "LONGITUDE": "-88.341600794000001", "STATUS": "IN SERVICE", "OP_DATE_PE": "Thu, 16 Jan 2020 00:00:00 GMT", "COUNTYFIPS": "55083", "COMPID": "48", "PIPECO": "ANR PIPELINE COMPANY", "POSREL": "WITHIN 40 FEET", "VAL_DATE": "Fri, 17 Jun 2022 00:00:00 GMT", "STATE": "WI", "CERT_HP": "22100", "ZIP4": "NOT AVAILABLE", "SOURCE": "EPA ENVIROFACTS, FERC FORM 2, CORPORATE WEBSITE", "ZIP": "54174", "OP_NUM_COM": "2", "GAS_COMPRE": "334038", "PLANT_COST": "20675157", "OPERATOR": "ANR PIPELINE COMPANY", "NAICS_DESC": "BOOSTER PUMPING STATION, NATURAL GAS TRANSPORTATION", "NUM_UNITS": "2", "ELEC_COMPR": "0", "TYPE": "NATURAL GAS COMPRESSOR STATION", "NAICS_CODE": "486210", "EXP_FUEL": "628425", "SOURCEDATE": "Wed, 15 Jul 2020 00:00:00 GMT" }, "geometry": { "type": "Point", "coordinates": [ -88.341600794, 45.113078248 ] } },
{ "type": "Feature", "properties": { "OP_COMP_HR": "6681", "LATITUDE": "43.4386", "VAL_METHOD": "IMAGERY/OTHER", "OBJECTID": "638", "EXP_OTHER": "209851", "CITY": "HOWARD CITY", "NAME": "WINFIELD", "EXP_POWER": "0", "WEBSITE": "https://www.anrpl.com/company_info/", "COUNTRY": "USA", "ADDRESS": "21453 WEST TAMARACK ROAD", "COUNTY": "MONTCALM", "GCOMPID": "GCOMP342", "LONGITUDE": "-85.5141", "STATUS": "IN SERVICE", "OP_DATE_PE": "Mon, 23 Jan 2012 00:00:00 GMT", "COUNTYFIPS": "26117", "COMPID": "48", "PIPECO": "ANR PIPELINE COMPANY", "POSREL": "WITHIN 40 FEET", "VAL_DATE": "Fri, 17 Jun 2022 00:00:00 GMT", "STATE": "MI", "CERT_HP": "4500", "ZIP4": "8710", "SOURCE": "EPA ENVIROFACTS, FERC FORM 2, CORPORATE WEBSITE", "ZIP": "49329", "OP_NUM_COM": "3", "GAS_COMPRE": "54233", "PLANT_COST": "4177733", "OPERATOR": "ANR PIPELINE COMPANY", "NAICS_DESC": "BOOSTER PUMPING STATION, NATURAL GAS TRANSPORTATION", "NUM_UNITS": "3", "ELEC_COMPR": "0", "TYPE": "NATURAL GAS COMPRESSOR STATION", "NAICS_CODE": "486210", "EXP_FUEL": "141897", "SOURCEDATE": "Wed, 15 Jul 2020 00:00:00 GMT" }, "geometry": { "type": "Point", "coordinates": [ -85.5141, 43.4386 ] } },
{ "type": "Feature", "properties": { "OP_COMP_HR": "2926", "LATITUDE": "42.772807068", "VAL_METHOD": "IMAGERY/OTHER", "OBJECTID": "1145", "EXP_OTHER": "466345", "CITY": "JANESVILLE", "NAME": "JANESVILLE", "EXP_POWER": "0", "WEBSITE": "https://www.anrpl.com/company_info/", "COUNTRY": "USA", "ADDRESS": "6827 CONSOLIDATED SCHOOL ROAD", "COUNTY": "ROCK", "GCOMPID": "GCOMP800", "LONGITUDE": "-89.054239077000005", "STATUS": "IN SERVICE", "OP_DATE_PE": "Thu, 16 Jan 2020 00:00:00 GMT", "COUNTYFIPS": "55105", "COMPID": "48", "PIPECO": "ANR PIPELINE COMPANY", "POSREL": "WITHIN 166 FEET", "VAL_DATE": "Fri, 17 Jun 2022 00:00:00 GMT", "STATE": "WI", "CERT_HP": "5370", "ZIP4": "NOT AVAILABLE", "SOURCE": "EPA ENVIROFACTS, FERC FORM 2, CORPORATE WEBSITE", "ZIP": "53545", "OP_NUM_COM": "2", "GAS_COMPRE": "33587", "PLANT_COST": "14143943", "OPERATOR": "ANR PIPELINE COMPANY", "NAICS_DESC": "BOOSTER PUMPING STATION, NATURAL GAS TRANSPORTATION", "NUM_UNITS": "3", "ELEC_COMPR": "0", "TYPE": "NATURAL GAS COMPRESSOR STATION", "NAICS_CODE": "486210", "EXP_FUEL": "61812", "SOURCEDATE": "Wed, 15 Jul 2020 00:00:00 GMT" }, "geometry": { "type": "Point", "coordinates": [ -89.054239077, 42.772807068 ] } },
{ "type": "Feature", "properties": { "OP_COMP_HR": "0", "LATITUDE": "27.866556", "VAL_METHOD": "IMAGERY/OTHER", "OBJECTID": "248", "EXP_OTHER": "0", "CITY": "NOT APPLICABLE", "NAME": "FIELD: BLOCK 595D - H.I. (SEE FOOTNOTE)", "EXP_POWER": "0", "WEBSITE": "https://www.anrpl.com/company_info/", "COUNTRY": "USA", "ADDRESS": "OFFSHORE CS", "COUNTY": "NOT APPLICABLE", "GCOMPID": "GCOMP1221", "LONGITUDE": "-93.991107", "STATUS": "IN SERVICE", "OP_DATE_PE": "Wed, 15 Jul 2020 00:00:00 GMT", "COUNTYFIPS": "NOT APPLICABLE", "COMPID": "48", "PIPECO": "ANR PIPELINE COMPANY", "POSREL": "THIRD PARTY", "VAL_DATE": "Fri, 17 Jun 2022 00:00:00 GMT", "STATE": "NOT APPLICABLE", "CERT_HP": "133", "ZIP4": "NOT APPLICABLE", "SOURCE": "FERC FORM 2", "ZIP": "NOT APPLICABLE", "OP_NUM_COM": "0", "GAS_COMPRE": "0", "PLANT_COST": "-999", "OPERATOR": "ANR PIPELINE COMPANY", "NAICS_DESC": "BOOSTER PUMPING STATION, NATURAL GAS TRANSPORTATION", "NUM_UNITS": "1", "ELEC_COMPR": "0", "TYPE": "NATURAL GAS COMPRESSOR STATION", "NAICS_CODE": "486210", "EXP_FUEL": "0", "SOURCEDATE": "Wed, 15 Jul 2020 00:00:00 GMT" }, "geometry": { "type": "Point", "coordinates": [ -93.991107, 27.866556 ] } },
{ "type": "Feature", "properties": { "OP_COMP_HR": "0", "LATITUDE": "28.1323242190001", "VAL_METHOD": "IMAGERY/OTHER", "OBJECTID": "245", "EXP_OTHER": "0", "CITY": "NOT APPLICABLE", "NAME": "FIELD: BLOCK 334B - H.I. (SEE FOOTNOTE)", "EXP_POWER": "0", "WEBSITE": "https://www.anrpl.com/company_info/", "COUNTRY": "USA", "ADDRESS": "OFFSHORE CS", "COUNTY": "NOT APPLICABLE", "GCOMPID": "GCOMP1219", "LONGITUDE": "-93.67590332", "STATUS": "IN SERVICE", "OP_DATE_PE": "Wed, 15 Jul 2020 00:00:00 GMT", "COUNTYFIPS": "NOT APPLICABLE", "COMPID": "48", "PIPECO": "ANR PIPELINE COMPANY", "POSREL": "THIRD PARTY", "VAL_DATE": "Fri, 17 Jun 2022 00:00:00 GMT", "STATE": "NOT APPLICABLE", "CERT_HP": "156", "ZIP4": "NOT APPLICABLE", "SOURCE": "FERC FORM 2, CORPORATE WEBSITE", "ZIP": "NOT APPLICABLE", "OP_NUM_COM": "0", "GAS_COMPRE": "0", "PLANT_COST": "-999", "OPERATOR": "ANR PIPELINE COMPANY", "NAICS_DESC": "BOOSTER PUMPING STATION, NATURAL GAS TRANSPORTATION", "NUM_UNITS": "1", "ELEC_COMPR": "0", "TYPE": "NATURAL GAS COMPRESSOR STATION", "NAICS_CODE": "486210", "EXP_FUEL": "0", "SOURCEDATE": "Wed, 15 Jul 2020 00:00:00 GMT" }, "geometry": { "type": "Point", "coordinates": [ -93.67590332, 28.132324219 ] } },
{ "type": "Feature", "properties": { "OP_COMP_HR": "14380", "LATITUDE": "42.7697", "VAL_METHOD": "IMAGERY/OTHER", "OBJECTID": "863", "EXP_OTHER": "0", "CITY": "LENOX", "NAME": "MUTTONVILLE", "EXP_POWER": "0", "WEBSITE": "https://www.anrpl.com/company_info/", "COUNTRY": "USA", "ADDRESS": "36555 29 MILE ROAD", "COUNTY": "MACOMB", "GCOMPID": "GCOMP545", "LONGITUDE": "-82.7456", "STATUS": "IN SERVICE", "OP_DATE_PE": "Thu, 03 May 2012 00:00:00 GMT", "COUNTYFIPS": "26099", "COMPID": "48", "PIPECO": "ANR PIPELINE COMPANY", "POSREL": "WITHIN 40 FEET", "VAL_DATE": "Fri, 17 Jun 2022 00:00:00 GMT", "STATE": "MI", "CERT_HP": "37300", "ZIP4": "NOT AVAILABLE", "SOURCE": "EPA ENVIROFACTS, FERC FORM 2, CORPORATE WEBSITE", "ZIP": "48050", "OP_NUM_COM": "0", "GAS_COMPRE": "1195819", "PLANT_COST": "210518724", "OPERATOR": "ANR PIPELINE COMPANY", "NAICS_DESC": "BOOSTER PUMPING STATION, NATURAL GAS TRANSPORTATION", "NUM_UNITS": "5", "ELEC_COMPR": "0", "TYPE": "NATURAL GAS COMPRESSOR STATION", "NAICS_CODE": "486210", "EXP_FUEL": "2509688", "SOURCEDATE": "Wed, 15 Jul 2020 00:00:00 GMT" }, "geometry": { "type": "Point", "coordinates": [ -82.7456, 42.7697 ] } },
{ "type": "Feature", "properties": { "OP_COMP_HR": "61", "LATITUDE": "41.349885", "VAL_METHOD": "IMAGERY/OTHER", "OBJECTID": "1098", "EXP_OTHER": "1047156", "CITY": "DEFIANCE", "NAME": "DEFIANCE", "EXP_POWER": "0", "WEBSITE": "https://www.anrpl.com/company_info/", "COUNTRY": "USA", "ADDRESS": "6357 STATE ROUTE 66", "COUNTY": "DEFIANCE", "GCOMPID": "GCOMP759", "LONGITUDE": "-84.359487", "STATUS": "IN SERVICE", "OP_DATE_PE": "Wed, 15 Apr 2020 00:00:00 GMT", "COUNTYFIPS": "39039", "COMPID": "48", "PIPECO": "ANR PIPELINE COMPANY", "POSREL": "WITHIN 40 FEET", "VAL_DATE": "Fri, 17 Jun 2022 00:00:00 GMT", "STATE": "OH", "CERT_HP": "36963", "ZIP4": "6714", "SOURCE": "EPA ENVIROFACTS, FERC FORM 2, CORPORATE WEBSITE", "ZIP": "43512", "OP_NUM_COM": "1", "GAS_COMPRE": "2243", "PLANT_COST": "72712800", "OPERATOR": "ANR PIPELINE COMPANY", "NAICS_DESC": "BOOSTER PUMPING STATION, NATURAL GAS TRANSPORTATION", "NUM_UNITS": "10", "ELEC_COMPR": "0", "TYPE": "NATURAL GAS COMPRESSOR STATION", "NAICS_CODE": "486210", "EXP_FUEL": "4098", "SOURCEDATE": "Wed, 15 Jul 2020 00:00:00 GMT" }, "geometry": { "type": "Point", "coordinates": [ -84.359487, 41.349885 ] } },
{ "type": "Feature", "properties": { "OP_COMP_HR": "8611", "LATITUDE": "36.438009346999998", "VAL_METHOD": "IMAGERY/OTHER", "OBJECTID": "568", "EXP_OTHER": "881811", "CITY": "MOORELAND", "NAME": "MOORELAND", "EXP_POWER": "0", "WEBSITE": "https://www.anrpl.com/company_info/", "COUNTRY": "USA", "ADDRESS": "1/4 MILE E OF MOORELAND (ON HIGHWAY 412); N2160 ROAD", "COUNTY": "WOODWARD", "GCOMPID": "GCOMP28", "LONGITUDE": "-99.158535603000004", "STATUS": "IN SERVICE", "OP_DATE_PE": "Wed, 01 Jan 2020 00:00:00 GMT", "COUNTYFIPS": "40153", "COMPID": "48", "PIPECO": "ANR PIPELINE COMPANY", "POSREL": "WITHIN 40 FEET", "VAL_DATE": "Fri, 17 Jun 2022 00:00:00 GMT", "STATE": "OK", "CERT_HP": "17226", "ZIP4": "NOT AVAILABLE", "SOURCE": "EPA ENVIROFACTS, FERC FORM 2, CORPORATE WEBSITE", "ZIP": "73852", "OP_NUM_COM": "2", "GAS_COMPRE": "451343", "PLANT_COST": "11246096", "OPERATOR": "ANR PIPELINE COMPANY", "NAICS_DESC": "BOOSTER PUMPING STATION, NATURAL GAS TRANSPORTATION", "NUM_UNITS": "2", "ELEC_COMPR": "0", "TYPE": "NATURAL GAS COMPRESSOR STATION", "NAICS_CODE": "486210", "EXP_FUEL": "1210867", "SOURCEDATE": "Wed, 15 Jul 2020 00:00:00 GMT" }, "geometry": { "type": "Point", "coordinates": [ -99.158535603, 36.438009347 ] } },
{ "type": "Feature", "properties": { "OP_COMP_HR": "8170", "LATITUDE": "44.335614287", "VAL_METHOD": "IMAGERY/OTHER", "OBJECTID": "38", "EXP_OTHER": "449106", "CITY": "WEYAUWEGA", "NAME": "WEYAUWEGA", "EXP_POWER": "554429", "WEBSITE": "https://www.anrpl.com/company_info/", "COUNTRY": "USA", "ADDRESS": "E6135 COUNTY ROAD-X", "COUNTY": "WAUPACA", "GCOMPID": "GCOMP1031", "LONGITUDE": "-88.918954078", "STATUS": "IN SERVICE", "OP_DATE_PE": "Fri, 13 Nov 2020 00:00:00 GMT", "COUNTYFIPS": "55135", "COMPID": "48", "PIPECO": "ANR PIPELINE COMPANY", "POSREL": "WITHIN 40 FEET", "VAL_DATE": "Fri, 17 Jun 2022 00:00:00 GMT", "STATE": "WI", "CERT_HP": "2580", "ZIP4": "NOT AVAILABLE", "SOURCE": "EPA ENVIROFACTS, FERC FORM 2, CORPORATE WEBSITE", "ZIP": "54983", "OP_NUM_COM": "1", "GAS_COMPRE": "106530", "PLANT_COST": "5813884", "OPERATOR": "ANR PIPELINE COMPANY", "NAICS_DESC": "BOOSTER PUMPING STATION, NATURAL GAS TRANSPORTATION", "NUM_UNITS": "2", "ELEC_COMPR": "3463501", "TYPE": "NATURAL GAS COMPRESSOR STATION", "NAICS_CODE": "486210", "EXP_FUEL": "192188", "SOURCEDATE": "Wed, 15 Jul 2020 00:00:00 GMT" }, "geometry": { "type": "Point", "coordinates": [ -88.918954078, 44.335614287 ] } },
{ "type": "Feature", "properties": { "OP_COMP_HR": "12682", "LATITUDE": "31.52750643", "VAL_METHOD": "IMAGERY/OTHER", "OBJECTID": "156", "EXP_OTHER": "1108805", "CITY": "JENA", "NAME": "JENA", "EXP_POWER": "0", "WEBSITE": "https://www.anrpl.com/company_info/", "COUNTRY": "USA", "ADDRESS": "LA-127", "COUNTY": "LA SALLE PARISH", "GCOMPID": "GCOMP1139", "LONGITUDE": "-92.21219226", "STATUS": "IN SERVICE", "OP_DATE_PE": "Wed, 01 Jan 2020 00:00:00 GMT", "COUNTYFIPS": "22059", "COMPID": "48", "PIPECO": "ANR PIPELINE COMPANY", "POSREL": "WITHIN 40 FEET", "VAL_DATE": "Fri, 17 Jun 2022 00:00:00 GMT", "STATE": "LA", "CERT_HP": "34830", "ZIP4": "NOT AVAILABLE", "SOURCE": "EPA ENVIROFACTS, FERC FORM 2, CORPORATE WEBSITE", "ZIP": "71342", "OP_NUM_COM": "2", "GAS_COMPRE": "1172732", "PLANT_COST": "73855285", "OPERATOR": "ANR PIPELINE COMPANY", "NAICS_DESC": "BOOSTER PUMPING STATION, NATURAL GAS TRANSPORTATION", "NUM_UNITS": "7", "ELEC_COMPR": "0", "TYPE": "NATURAL GAS COMPRESSOR STATION", "NAICS_CODE": "486210", "EXP_FUEL": "2172654", "SOURCEDATE": "Wed, 15 Jul 2020 00:00:00 GMT" }, "geometry": { "type": "Point", "coordinates": [ -92.21219226, 31.52750643 ] } },
{ "type": "Feature", "properties": { "OP_COMP_HR": "3523", "LATITUDE": "44.6187", "VAL_METHOD": "IMAGERY/OTHER", "OBJECTID": "790", "EXP_OTHER": "562142", "CITY": "MARSHFIELD", "NAME": "MARSHFIELD", "EXP_POWER": "0", "WEBSITE": "https://www.anrpl.com/company_info/", "COUNTRY": "USA", "ADDRESS": "10255 WASHINGTON AVENUE S", "COUNTY": "WOOD", "GCOMPID": "GCOMP48", "LONGITUDE": "-90.1622", "STATUS": "IN SERVICE", "OP_DATE_PE": "Fri, 05 Jun 2020 00:00:00 GMT", "COUNTYFIPS": "55141", "COMPID": "48", "PIPECO": "ANR PIPELINE COMPANY", "POSREL": "WITHIN 40 FEET", "VAL_DATE": "Fri, 17 Jun 2022 00:00:00 GMT", "STATE": "WI", "CERT_HP": "12480", "ZIP4": "9687", "SOURCE": "EPA ENVIROFACTS, FERC FORM 2, CORPORATE WEBSITE", "ZIP": "54449", "OP_NUM_COM": "2", "GAS_COMPRE": "29110", "PLANT_COST": "13005890", "OPERATOR": "ANR PIPELINE COMPANY", "NAICS_DESC": "BOOSTER PUMPING STATION, NATURAL GAS TRANSPORTATION", "NUM_UNITS": "6", "ELEC_COMPR": "0", "TYPE": "NATURAL GAS COMPRESSOR STATION", "NAICS_CODE": "486210", "EXP_FUEL": "53348", "SOURCEDATE": "Wed, 15 Jul 2020 00:00:00 GMT" }, "geometry": { "type": "Point", "coordinates": [ -90.1622, 44.6187 ] } },
{ "type": "Feature", "properties": { "OP_COMP_HR": "38323", "LATITUDE": "40.630044", "VAL_METHOD": "IMAGERY/OTHER", "OBJECTID": "764", "EXP_OTHER": "1948868", "CITY": "LINEVILLE", "NAME": "LINEVILLE", "EXP_POWER": "0", "WEBSITE": "https://www.anrpl.com/company_info/", "COUNTRY": "USA", "ADDRESS": "2868 15TH STREET", "COUNTY": "WAYNE", "GCOMPID": "GCOMP456", "LONGITUDE": "-93.540108", "STATUS": "IN SERVICE", "OP_DATE_PE": "Sat, 08 Feb 2020 00:00:00 GMT", "COUNTYFIPS": "19185", "COMPID": "48", "PIPECO": "ANR PIPELINE COMPANY", "POSREL": "WITHIN 40 FEET", "VAL_DATE": "Fri, 17 Jun 2022 00:00:00 GMT", "STATE": "IA", "CERT_HP": "13410", "ZIP4": "NOT AVAILABLE", "SOURCE": "EPA ENVIROFACTS, FERC FORM 2, CORPORATE WEBSITE", "ZIP": "50147", "OP_NUM_COM": "8", "GAS_COMPRE": "463240", "PLANT_COST": "33494287", "OPERATOR": "ANR PIPELINE COMPANY", "NAICS_DESC": "BOOSTER PUMPING STATION, NATURAL GAS TRANSPORTATION", "NUM_UNITS": "9", "ELEC_COMPR": "0", "TYPE": "NATURAL GAS COMPRESSOR STATION", "NAICS_CODE": "486210", "EXP_FUEL": "832130", "SOURCEDATE": "Wed, 15 Jul 2020 00:00:00 GMT" }, "geometry": { "type": "Point", "coordinates": [ -93.540108, 40.630044 ] } },
{ "type": "Feature", "properties": { "OP_COMP_HR": "5729", "LATITUDE": "42.66706304", "VAL_METHOD": "IMAGERY/OTHER", "OBJECTID": "924", "EXP_OTHER": "1032796", "CITY": "HAMILTON", "NAME": "HAMILTON", "EXP_POWER": "0", "WEBSITE": "https://www.anrpl.com/company_info/", "COUNTRY": "USA", "ADDRESS": "4193 134TH AVENUE", "COUNTY": "ALLEGAN", "GCOMPID": "GCOMP601", "LONGITUDE": "-85.955791430999994", "STATUS": "IN SERVICE", "OP_DATE_PE": "Sat, 28 Mar 2020 00:00:00 GMT", "COUNTYFIPS": "26005", "COMPID": "48", "PIPECO": "ANR PIPELINE COMPANY", "POSREL": "WITHIN 40 FEET", "VAL_DATE": "Fri, 17 Jun 2022 00:00:00 GMT", "STATE": "MI", "CERT_HP": "32566", "ZIP4": "NOT AVAILABLE", "SOURCE": "EPA ENVIROFACTS, FERC FORM 2, CORPORATE WEBSITE", "ZIP": "49419", "OP_NUM_COM": "5", "GAS_COMPRE": "428555", "PLANT_COST": "30571194", "OPERATOR": "ANR PIPELINE COMPANY", "NAICS_DESC": "BOOSTER PUMPING STATION, NATURAL GAS TRANSPORTATION", "NUM_UNITS": "5", "ELEC_COMPR": "0", "TYPE": "NATURAL GAS COMPRESSOR STATION", "NAICS_CODE": "486210", "EXP_FUEL": "769632", "SOURCEDATE": "Wed, 15 Jul 2020 00:00:00 GMT" }, "geometry": { "type": "Point", "coordinates": [ -85.955791431, 42.66706304 ] } },
{ "type": "Feature", "properties": { "OP_COMP_HR": "13828", "LATITUDE": "36.49323214", "VAL_METHOD": "IMAGERY/OTHER", "OBJECTID": "370", "EXP_OTHER": "1633664", "CITY": "GUYMON", "NAME": "EDGARG. HILL (GUYMON)", "EXP_POWER": "0", "WEBSITE": "https://www.anrpl.com/company_info/", "COUNTRY": "USA", "ADDRESS": "TX OK STATE LINE AT TX 136 20 M N", "COUNTY": "HANSFORD", "GCOMPID": "GCOMP1331", "LONGITUDE": "-101.465411285", "STATUS": "IN SERVICE", "OP_DATE_PE": "Mon, 06 Apr 2020 00:00:00 GMT", "COUNTYFIPS": "48195", "COMPID": "48", "PIPECO": "ANR PIPELINE COMPANY", "POSREL": "WITHIN 40 FEET", "VAL_DATE": "Fri, 17 Jun 2022 00:00:00 GMT", "STATE": "TX", "CERT_HP": "22500", "ZIP4": "NOT AVAILABLE", "SOURCE": "EPA ENVIROFACTS, FERC FORM 2, CORPORATE WEBSITE", "ZIP": "73942", "OP_NUM_COM": "5", "GAS_COMPRE": "340074", "PLANT_COST": "42155518", "OPERATOR": "ANR PIPELINE COMPANY", "NAICS_DESC": "BOOSTER PUMPING STATION, NATURAL GAS TRANSPORTATION", "NUM_UNITS": "9", "ELEC_COMPR": "0", "TYPE": "NATURAL GAS COMPRESSOR STATION", "NAICS_CODE": "486210", "EXP_FUEL": "597159", "SOURCEDATE": "Wed, 15 Jul 2020 00:00:00 GMT" }, "geometry": { "type": "Point", "coordinates": [ -101.465411285, 36.49323214 ] } },
{ "type": "Feature", "properties": { "OP_COMP_HR": "27681", "LATITUDE": "37.3823", "VAL_METHOD": "IMAGERY/OTHER", "OBJECTID": "1186", "EXP_OTHER": "1775172", "CITY": "MADISONVILLE", "NAME": "MADISONVILLE", "EXP_POWER": "0", "WEBSITE": "https://www.anrpl.com/company_info/", "COUNTRY": "USA", "ADDRESS": "7500 NEBO ROAD", "COUNTY": "HOPKINS", "GCOMPID": "GCOMP838", "LONGITUDE": "-87.6177", "STATUS": "IN SERVICE", "OP_DATE_PE": "Sat, 18 Jul 2020 00:00:00 GMT", "COUNTYFIPS": "21107", "COMPID": "48", "PIPECO": "ANR PIPELINE COMPANY", "POSREL": "WITHIN 40 FEET", "VAL_DATE": "Fri, 17 Jun 2022 00:00:00 GMT", "STATE": "KY", "CERT_HP": "19500", "ZIP4": "NOT AVAILABLE", "SOURCE": "EPA ENVIROFACTS, FERC FORM 2, CORPORATE WEBSITE", "ZIP": "42431", "OP_NUM_COM": "6", "GAS_COMPRE": "696519", "PLANT_COST": "72133495", "OPERATOR": "ANR PIPELINE COMPANY", "NAICS_DESC": "BOOSTER PUMPING STATION, NATURAL GAS TRANSPORTATION", "NUM_UNITS": "6", "ELEC_COMPR": "0", "TYPE": "NATURAL GAS COMPRESSOR STATION", "NAICS_CODE": "486210", "EXP_FUEL": "1281242", "SOURCEDATE": "Wed, 15 Jul 2020 00:00:00 GMT" }, "geometry": { "type": "Point", "coordinates": [ -87.6177, 37.3823 ] } },
{ "type": "Feature", "properties": { "OP_COMP_HR": "8164", "LATITUDE": "41.644396442999998", "VAL_METHOD": "IMAGERY/OTHER", "OBJECTID": "670", "EXP_OTHER": "857199", "CITY": "LAGRANGE", "NAME": "LAGRANGE", "EXP_POWER": "0", "WEBSITE": "https://www.anrpl.com/company_info/", "COUNTRY": "USA", "ADDRESS": "2255 W US 20", "COUNTY": "LAGRANGE", "GCOMPID": "GCOMP371", "LONGITUDE": "-85.46949859", "STATUS": "IN SERVICE", "OP_DATE_PE": "Fri, 07 Aug 2020 00:00:00 GMT", "COUNTYFIPS": "18087", "COMPID": "48", "PIPECO": "ANR PIPELINE COMPANY", "POSREL": "WITHIN 40 FEET", "VAL_DATE": "Fri, 17 Jun 2022 00:00:00 GMT", "STATE": "IN", "CERT_HP": "25400", "ZIP4": "NOT AVAILABLE", "SOURCE": "EPA ENVIROFACTS, FERC FORM 2, CORPORATE WEBSITE", "ZIP": "46761", "OP_NUM_COM": "2", "GAS_COMPRE": "528658", "PLANT_COST": "70364749", "OPERATOR": "ANR PIPELINE COMPANY", "NAICS_DESC": "BOOSTER PUMPING STATION, NATURAL GAS TRANSPORTATION", "NUM_UNITS": "3", "ELEC_COMPR": "0", "TYPE": "NATURAL GAS COMPRESSOR STATION", "NAICS_CODE": "486210", "EXP_FUEL": "973308", "SOURCEDATE": "Wed, 15 Jul 2020 00:00:00 GMT" }, "geometry": { "type": "Point", "coordinates": [ -85.46949859, 41.644396443 ] } },
{ "type": "Feature", "properties": { "OP_COMP_HR": "8068", "LATITUDE": "35.445917301999998", "VAL_METHOD": "IMAGERY/OTHER", "OBJECTID": "1162", "EXP_OTHER": "933187", "CITY": "BROWNSVILLE", "NAME": "BROWNSVILLE", "EXP_POWER": "0", "WEBSITE": "https://www.anrpl.com/company_info/", "COUNTRY": "USA", "ADDRESS": "70 PUMPING STATION ROAD", "COUNTY": "HAYWOOD", "GCOMPID": "GCOMP816", "LONGITUDE": "-89.284481275000005", "STATUS": "IN SERVICE", "OP_DATE_PE": "Thu, 06 Aug 2020 00:00:00 GMT", "COUNTYFIPS": "47075", "COMPID": "48", "PIPECO": "ANR PIPELINE COMPANY", "POSREL": "WITHIN 40 FEET", "VAL_DATE": "Fri, 17 Jun 2022 00:00:00 GMT", "STATE": "TN", "CERT_HP": "8000", "ZIP4": "NOT AVAILABLE", "SOURCE": "EPA ENVIROFACTS, FERC FORM 2, CORPORATE WEBSITE", "ZIP": "38012", "OP_NUM_COM": "2", "GAS_COMPRE": "994729", "PLANT_COST": "88303815", "OPERATOR": "ANR PIPELINE COMPANY", "NAICS_DESC": "BOOSTER PUMPING STATION, NATURAL GAS TRANSPORTATION", "NUM_UNITS": "4", "ELEC_COMPR": "0", "TYPE": "NATURAL GAS COMPRESSOR STATION", "NAICS_CODE": "486210", "EXP_FUEL": "1841106", "SOURCEDATE": "Wed, 15 Jul 2020 00:00:00 GMT" }, "geometry": { "type": "Point", "coordinates": [ -89.284481275, 35.445917302 ] } },
{ "type": "Feature", "properties": { "OP_COMP_HR": "0", "LATITUDE": "28.132358427", "VAL_METHOD": "IMAGERY/OTHER", "OBJECTID": "249", "EXP_OTHER": "0", "CITY": "NOT APPLICABLE", "NAME": "TRANS: BLOCK 334A - H.I.", "EXP_POWER": "0", "WEBSITE": "https://www.anrpl.com/company_info/", "COUNTRY": "USA", "ADDRESS": "OFFSHORE CS", "COUNTY": "NOT APPLICABLE", "GCOMPID": "GCOMP1222", "LONGITUDE": "-93.675869112000001", "STATUS": "IN SERVICE", "OP_DATE_PE": "Wed, 15 Jul 2020 00:00:00 GMT", "COUNTYFIPS": "NOT APPLICABLE", "COMPID": "48", "PIPECO": "ANR PIPELINE COMPANY", "POSREL": "THIRD PARTY", "VAL_DATE": "Fri, 17 Jun 2022 00:00:00 GMT", "STATE": "NOT APPLICABLE", "CERT_HP": "205", "ZIP4": "NOT APPLICABLE", "SOURCE": "FERC FORM 2", "ZIP": "NOT APPLICABLE", "OP_NUM_COM": "0", "GAS_COMPRE": "0", "PLANT_COST": "-999", "OPERATOR": "ANR PIPELINE COMPANY", "NAICS_DESC": "BOOSTER PUMPING STATION, NATURAL GAS TRANSPORTATION", "NUM_UNITS": "1", "ELEC_COMPR": "0", "TYPE": "NATURAL GAS COMPRESSOR STATION", "NAICS_CODE": "486210", "EXP_FUEL": "0", "SOURCEDATE": "Wed, 15 Jul 2020 00:00:00 GMT" }, "geometry": { "type": "Point", "coordinates": [ -93.675869112, 28.132358427 ] } },
{ "type": "Feature", "properties": { "OP_COMP_HR": "0", "LATITUDE": "28.271411", "VAL_METHOD": "IMAGERY/OTHER", "OBJECTID": "247", "EXP_OTHER": "0", "CITY": "NOT APPLICABLE", "NAME": "FIELD: BLOCK 560 - W.C. (SEE FOOTNOTE)", "EXP_POWER": "0", "WEBSITE": "https://www.anrpl.com/company_info/", "COUNTRY": "USA", "ADDRESS": "OFFSHORE CS", "COUNTY": "NOT APPLICABLE", "GCOMPID": "GCOMP1220", "LONGITUDE": "-93.169457", "STATUS": "IN SERVICE", "OP_DATE_PE": "Wed, 15 Jul 2020 00:00:00 GMT", "COUNTYFIPS": "NOT APPLICABLE", "COMPID": "48", "PIPECO": "ANR PIPELINE COMPANY", "POSREL": "THIRD PARTY", "VAL_DATE": "Fri, 17 Jun 2022 00:00:00 GMT", "STATE": "NOT APPLICABLE", "CERT_HP": "1780", "ZIP4": "NOT APPLICABLE", "SOURCE": "FERC FORM 2, CORPORATE WEBSITE", "ZIP": "NOT APPLICABLE", "OP_NUM_COM": "0", "GAS_COMPRE": "0", "PLANT_COST": "-999", "OPERATOR": "ANR PIPELINE COMPANY", "NAICS_DESC": "BOOSTER PUMPING STATION, NATURAL GAS TRANSPORTATION", "NUM_UNITS": "1", "ELEC_COMPR": "0", "TYPE": "NATURAL GAS COMPRESSOR STATION", "NAICS_CODE": "486210", "EXP_FUEL": "0", "SOURCEDATE": "Wed, 15 Jul 2020 00:00:00 GMT" }, "geometry": { "type": "Point", "coordinates": [ -93.169457, 28.271411 ] } },
{ "type": "Feature", "properties": { "OP_COMP_HR": "31943", "LATITUDE": "41.897126", "VAL_METHOD": "IMAGERY/OTHER", "OBJECTID": "836", "EXP_OTHER": "2163600", "CITY": "BRIDGMAN", "NAME": "BRIDGMAN", "EXP_POWER": "0", "WEBSITE": "https://www.anrpl.com/company_info/", "COUNTRY": "USA", "ADDRESS": "3372 BROWNTOWN ROAD", "COUNTY": "BERRIEN", "GCOMPID": "GCOMP520", "LONGITUDE": "-86.534271", "STATUS": "IN SERVICE", "OP_DATE_PE": "Fri, 29 May 2020 00:00:00 GMT", "COUNTYFIPS": "26021", "COMPID": "48", "PIPECO": "ANR PIPELINE COMPANY", "POSREL": "WITHIN 40 FEET", "VAL_DATE": "Fri, 17 Jun 2022 00:00:00 GMT", "STATE": "MI", "CERT_HP": "22750", "ZIP4": "NOT AVAILABLE", "SOURCE": "EPA ENVIROFACTS, FERC FORM 2, CORPORATE WEBSITE", "ZIP": "49106", "OP_NUM_COM": "8", "GAS_COMPRE": "497213", "PLANT_COST": "26815105", "OPERATOR": "ANR PIPELINE COMPANY", "NAICS_DESC": "BOOSTER PUMPING STATION, NATURAL GAS TRANSPORTATION", "NUM_UNITS": "9", "ELEC_COMPR": "0", "TYPE": "NATURAL GAS COMPRESSOR STATION", "NAICS_CODE": "486210", "EXP_FUEL": "888950", "SOURCEDATE": "Wed, 15 Jul 2020 00:00:00 GMT" }, "geometry": { "type": "Point", "coordinates": [ -86.534271, 41.897126 ] } },
{ "type": "Feature", "properties": { "OP_COMP_HR": "4806", "LATITUDE": "40.022370256000002", "VAL_METHOD": "IMAGERY/OTHER", "OBJECTID": "1085", "EXP_OTHER": "621053", "CITY": "SULPHUR SPRINGS", "NAME": "SULPHUR SPRINGS", "EXP_POWER": "0", "WEBSITE": "https://www.anrpl.com/company_info/", "COUNTRY": "USA", "ADDRESS": "6180 N COUNTY ROAD 300 W", "COUNTY": "HENRY", "GCOMPID": "GCOMP747", "LONGITUDE": "-85.440738402999997", "STATUS": "IN SERVICE", "OP_DATE_PE": "Fri, 31 Jan 2020 00:00:00 GMT", "COUNTYFIPS": "18065", "COMPID": "48", "PIPECO": "ANR PIPELINE COMPANY", "POSREL": "WITHIN 40 FEET", "VAL_DATE": "Fri, 17 Jun 2022 00:00:00 GMT", "STATE": "IN", "CERT_HP": "16615", "ZIP4": "NOT AVAILABLE", "SOURCE": "EPA ENVIROFACTS, FERC FORM 2, CORPORATE WEBSITE", "ZIP": "47388", "OP_NUM_COM": "2", "GAS_COMPRE": "190846", "PLANT_COST": "63093792", "OPERATOR": "ANR PIPELINE COMPANY", "NAICS_DESC": "BOOSTER PUMPING STATION, NATURAL GAS TRANSPORTATION", "NUM_UNITS": "3", "ELEC_COMPR": "0", "TYPE": "NATURAL GAS COMPRESSOR STATION", "NAICS_CODE": "486210", "EXP_FUEL": "348706", "SOURCEDATE": "Wed, 15 Jul 2020 00:00:00 GMT" }, "geometry": { "type": "Point", "coordinates": [ -85.440738403, 40.022370256 ] } },
{ "type": "Feature", "properties": { "OP_COMP_HR": "16926", "LATITUDE": "39.439133888000001", "VAL_METHOD": "IMAGERY/OTHER", "OBJECTID": "1028", "EXP_OTHER": "1325430", "CITY": "SHELBYVILLE", "NAME": "SHELBYVILLE", "EXP_POWER": "0", "WEBSITE": "https://www.anrpl.com/company_info/", "COUNTRY": "USA", "ADDRESS": "5500 SMITHLAND ROAD", "COUNTY": "SHELBY", "GCOMPID": "GCOMP696", "LONGITUDE": "-85.876251702999994", "STATUS": "IN SERVICE", "OP_DATE_PE": "Fri, 04 Dec 2020 00:00:00 GMT", "COUNTYFIPS": "18145", "COMPID": "48", "PIPECO": "ANR PIPELINE COMPANY", "POSREL": "WITHIN 40 FEET", "VAL_DATE": "Fri, 17 Jun 2022 00:00:00 GMT", "STATE": "IN", "CERT_HP": "30990", "ZIP4": "NOT AVAILABLE", "SOURCE": "EPA ENVIROFACTS, FERC FORM 2, CORPORATE WEBSITE", "ZIP": "46176", "OP_NUM_COM": "4", "GAS_COMPRE": "295883", "PLANT_COST": "81142252", "OPERATOR": "ANR PIPELINE COMPANY", "NAICS_DESC": "BOOSTER PUMPING STATION, NATURAL GAS TRANSPORTATION", "NUM_UNITS": "8", "ELEC_COMPR": "0", "TYPE": "NATURAL GAS COMPRESSOR STATION", "NAICS_CODE": "486210", "EXP_FUEL": "571908", "SOURCEDATE": "Wed, 15 Jul 2020 00:00:00 GMT" }, "geometry": { "type": "Point", "coordinates": [ -85.876251703, 39.439133888 ] } },
{ "type": "Feature", "properties": { "OP_COMP_HR": "2148", "LATITUDE": "45.6529", "VAL_METHOD": "IMAGERY/OTHER", "OBJECTID": "793", "EXP_OTHER": "439158", "CITY": "GOODMAN", "NAME": "GOODMAN", "EXP_POWER": "0", "WEBSITE": "https://www.anrpl.com/company_info/", "COUNTRY": "USA", "ADDRESS": "3 MILES NW OF GOODMAN", "COUNTY": "MARINETTE", "GCOMPID": "GCOMP482", "LONGITUDE": "-88.3838", "STATUS": "IN SERVICE", "OP_DATE_PE": "Thu, 16 Jan 2020 00:00:00 GMT", "COUNTYFIPS": "55075", "COMPID": "48", "PIPECO": "ANR PIPELINE COMPANY", "POSREL": "WITHIN 40 FEET", "VAL_DATE": "Fri, 17 Jun 2022 00:00:00 GMT", "STATE": "WI", "CERT_HP": "20620", "ZIP4": "NOT AVAILABLE", "SOURCE": "EPA ENVIROFACTS, FERC FORM 2, CORPORATE WEBSITE", "ZIP": "54125", "OP_NUM_COM": "2", "GAS_COMPRE": "170600", "PLANT_COST": "28618581", "OPERATOR": "ANR PIPELINE COMPANY", "NAICS_DESC": "BOOSTER PUMPING STATION, NATURAL GAS TRANSPORTATION", "NUM_UNITS": "2", "ELEC_COMPR": "0", "TYPE": "NATURAL GAS COMPRESSOR STATION", "NAICS_CODE": "486210", "EXP_FUEL": "319227", "SOURCEDATE": "Wed, 15 Jul 2020 00:00:00 GMT" }, "geometry": { "type": "Point", "coordinates": [ -88.3838, 45.6529 ] } },
{ "type": "Feature", "properties": { "OP_COMP_HR": "18435", "LATITUDE": "41.239556", "VAL_METHOD": "IMAGERY/OTHER", "OBJECTID": "785", "EXP_OTHER": "1655441", "CITY": "NEW WINDSOR", "NAME": "NEW WINDSOR", "EXP_POWER": "0", "WEBSITE": "https://www.anrpl.com/company_info/", "COUNTRY": "USA", "ADDRESS": "296 NORTH 600 AVENUE", "COUNTY": "HENRY", "GCOMPID": "GCOMP475", "LONGITUDE": "-90.429929", "STATUS": "IN SERVICE", "OP_DATE_PE": "Mon, 27 Jan 2020 00:00:00 GMT", "COUNTYFIPS": "17073", "COMPID": "48", "PIPECO": "ANR PIPELINE COMPANY", "POSREL": "WITHIN 40 FEET", "VAL_DATE": "Fri, 17 Jun 2022 00:00:00 GMT", "STATE": "IL", "CERT_HP": "13100", "ZIP4": "NOT AVAILABLE", "SOURCE": "EPA ENVIROFACTS, FERC FORM 2, CORPORATE WEBSITE", "ZIP": "61465", "OP_NUM_COM": "8", "GAS_COMPRE": "226846", "PLANT_COST": "33924060", "OPERATOR": "ANR PIPELINE COMPANY", "NAICS_DESC": "BOOSTER PUMPING STATION, NATURAL GAS TRANSPORTATION", "NUM_UNITS": "8", "ELEC_COMPR": "0", "TYPE": "NATURAL GAS COMPRESSOR STATION", "NAICS_CODE": "486210", "EXP_FUEL": "400056", "SOURCEDATE": "Wed, 15 Jul 2020 00:00:00 GMT" }, "geometry": { "type": "Point", "coordinates": [ -90.429929, 41.239556 ] } },
{ "type": "Feature", "properties": { "OP_COMP_HR": "15224", "LATITUDE": "30.466732", "VAL_METHOD": "IMAGERY/OTHER", "OBJECTID": "926", "EXP_OTHER": "1541439", "CITY": "EUNICE", "NAME": "EUNICE", "EXP_POWER": "0", "WEBSITE": "https://www.anrpl.com/company_info/", "COUNTRY": "USA", "ADDRESS": "4202 FOURNERAT ROAD; OFF HIGHWAY 190 W", "COUNTY": "SAINT LANDRY PARISH", "GCOMPID": "GCOMP603", "LONGITUDE": "-92.521639", "STATUS": "IN SERVICE", "OP_DATE_PE": "Fri, 17 Jan 2020 00:00:00 GMT", "COUNTYFIPS": "22097", "COMPID": "48", "PIPECO": "ANR PIPELINE COMPANY", "POSREL": "WITHIN 166 FEET", "VAL_DATE": "Fri, 17 Jun 2022 00:00:00 GMT", "STATE": "LA", "CERT_HP": "12000", "ZIP4": "NOT AVAILABLE", "SOURCE": "EPA ENVIROFACTS, FERC FORM 2, CORPORATE WEBSITE", "ZIP": "70535", "OP_NUM_COM": "2", "GAS_COMPRE": "1047401", "PLANT_COST": "82495648", "OPERATOR": "ANR PIPELINE COMPANY", "NAICS_DESC": "BOOSTER PUMPING STATION, NATURAL GAS TRANSPORTATION", "NUM_UNITS": "1", "ELEC_COMPR": "0", "TYPE": "NATURAL GAS COMPRESSOR STATION", "NAICS_CODE": "486210", "EXP_FUEL": "1940423", "SOURCEDATE": "Wed, 15 Jul 2020 00:00:00 GMT" }, "geometry": { "type": "Point", "coordinates": [ -92.521639, 30.466732 ] } },
{ "type": "Feature", "properties": { "OP_COMP_HR": "9609", "LATITUDE": "43.598938037000003", "VAL_METHOD": "IMAGERY/OTHER", "OBJECTID": "389", "EXP_OTHER": "689521", "CITY": "KEWASKUM", "NAME": "KEWASKUM", "EXP_POWER": "0", "WEBSITE": "https://www.anrpl.com/company_info/", "COUNTRY": "USA", "ADDRESS": "W. 8715 TOWER ROAD", "COUNTY": "SHEBOYGAN", "GCOMPID": "GCOMP1349", "LONGITUDE": "-88.130872322000002", "STATUS": "IN SERVICE", "OP_DATE_PE": "Mon, 16 Mar 2020 00:00:00 GMT", "COUNTYFIPS": "55117", "COMPID": "48", "PIPECO": "ANR PIPELINE COMPANY", "POSREL": "WITHIN 40 FEET", "VAL_DATE": "Fri, 17 Jun 2022 00:00:00 GMT", "STATE": "WI", "CERT_HP": "7589", "ZIP4": "NOT AVAILABLE", "SOURCE": "FERC FORM 2, IMAGERY", "ZIP": "53040", "OP_NUM_COM": "2", "GAS_COMPRE": "144852", "PLANT_COST": "17313751", "OPERATOR": "ANR PIPELINE COMPANY", "NAICS_DESC": "BOOSTER PUMPING STATION, NATURAL GAS TRANSPORTATION", "NUM_UNITS": "6", "ELEC_COMPR": "0", "TYPE": "NATURAL GAS COMPRESSOR STATION", "NAICS_CODE": "486210", "EXP_FUEL": "270166", "SOURCEDATE": "Wed, 15 Jul 2020 00:00:00 GMT" }, "geometry": { "type": "Point", "coordinates": [ -88.130872322, 43.598938037 ] } },
{ "type": "Feature", "properties": { "OP_COMP_HR": "2879", "LATITUDE": "44.83815755", "VAL_METHOD": "IMAGERY/OTHER", "OBJECTID": "602", "EXP_OTHER": "262860", "CITY": "MANCELONA", "NAME": "COLD SPRINGS 1 (ELECTRIC)", "EXP_POWER": "1447040", "WEBSITE": "https://www.anrpl.com/company_info/", "COUNTRY": "USA", "ADDRESS": "10000 PFLUM ROAD NE", "COUNTY": "KALKASKA", "GCOMPID": "GCOMP31", "LONGITUDE": "-84.967842481999995", "STATUS": "IN SERVICE", "OP_DATE_PE": "Mon, 30 Jul 2012 00:00:00 GMT", "COUNTYFIPS": "26079", "COMPID": "48", "PIPECO": "ANR PIPELINE COMPANY", "POSREL": "WITHIN 40 FEET", "VAL_DATE": "Fri, 17 Jun 2022 00:00:00 GMT", "STATE": "MI", "CERT_HP": "7000", "ZIP4": "NOT AVAILABLE", "SOURCE": "EPA ENVIROFACTS, FERC FORM 2, CORPORATE WEBSITE", "ZIP": "49659", "OP_NUM_COM": "1", "GAS_COMPRE": "924", "PLANT_COST": "63198653", "OPERATOR": "ANR PIPELINE COMPANY", "NAICS_DESC": "BOOSTER PUMPING STATION, NATURAL GAS TRANSPORTATION", "NUM_UNITS": "1", "ELEC_COMPR": "14500800", "TYPE": "NATURAL GAS COMPRESSOR STATION", "NAICS_CODE": "486210", "EXP_FUEL": "2381", "SOURCEDATE": "Wed, 15 Jul 2020 00:00:00 GMT" }, "geometry": { "type": "Point", "coordinates": [ -84.967842482, 44.83815755 ] } },
{ "type": "Feature", "properties": { "OP_COMP_HR": "5624", "LATITUDE": "41.62295", "VAL_METHOD": "IMAGERY/OTHER", "OBJECTID": "1125", "EXP_OTHER": "1198818", "CITY": "SANDWICH", "NAME": "SANDWICH", "EXP_POWER": "0", "WEBSITE": "https://www.anrpl.com/company_info/", "COUNTRY": "USA", "ADDRESS": "6650 SANDY BLUFF ROAD", "COUNTY": "KENDALL", "GCOMPID": "GCOMP783", "LONGITUDE": "-88.581275", "STATUS": "IN SERVICE", "OP_DATE_PE": "Thu, 13 Feb 2020 00:00:00 GMT", "COUNTYFIPS": "17093", "COMPID": "48", "PIPECO": "ANR PIPELINE COMPANY", "POSREL": "WITHIN 166 FEET", "VAL_DATE": "Fri, 17 Jun 2022 00:00:00 GMT", "STATE": "IL", "CERT_HP": "22190", "ZIP4": "7025", "SOURCE": "EPA ENVIROFACTS, FERC FORM 2, CORPORATE WEBSITE", "ZIP": "60548", "OP_NUM_COM": "5", "GAS_COMPRE": "216485", "PLANT_COST": "110335992", "OPERATOR": "ANR PIPELINE COMPANY", "NAICS_DESC": "BOOSTER PUMPING STATION, NATURAL GAS TRANSPORTATION", "NUM_UNITS": "5", "ELEC_COMPR": "0", "TYPE": "NATURAL GAS COMPRESSOR STATION", "NAICS_CODE": "486210", "EXP_FUEL": "390548", "SOURCEDATE": "Wed, 15 Jul 2020 00:00:00 GMT" }, "geometry": { "type": "Point", "coordinates": [ -88.581275, 41.62295 ] } },
{ "type": "Feature", "properties": { "OP_COMP_HR": "0", "LATITUDE": "29.776795211", "VAL_METHOD": "IMAGERY/OTHER", "OBJECTID": "575", "EXP_OTHER": "0", "CITY": "GRAND CHENIER", "NAME": "GRAND CHENIER", "EXP_POWER": "0", "WEBSITE": "https://www.anrpl.com/company_info/", "COUNTRY": "USA", "ADDRESS": "192 MERMENTAU RIVER ROAD", "COUNTY": "CAMERON PARISH", "GCOMPID": "GCOMP286", "LONGITUDE": "-92.998883836999994", "STATUS": "IN SERVICE", "OP_DATE_PE": "Wed, 01 Jan 2020 00:00:00 GMT", "COUNTYFIPS": "22023", "COMPID": "48", "PIPECO": "ANR PIPELINE COMPANY", "POSREL": "WITHIN 40 FEET", "VAL_DATE": "Fri, 17 Jun 2022 00:00:00 GMT", "STATE": "LA", "CERT_HP": "8100", "ZIP4": "NOT AVAILABLE", "SOURCE": "EPA ENVIROFACTS, FERC FORM 2, CORPORATE WEBSITE", "ZIP": "70643", "OP_NUM_COM": "0", "GAS_COMPRE": "0", "PLANT_COST": "11959316", "OPERATOR": "ANR PIPELINE COMPANY", "NAICS_DESC": "BOOSTER PUMPING STATION, NATURAL GAS TRANSPORTATION", "NUM_UNITS": "1", "ELEC_COMPR": "0", "TYPE": "NATURAL GAS COMPRESSOR STATION", "NAICS_CODE": "486210", "EXP_FUEL": "0", "SOURCEDATE": "Wed, 15 Jul 2020 00:00:00 GMT" }, "geometry": { "type": "Point", "coordinates": [ -92.998883837, 29.776795211 ] } },
{ "type": "Feature", "properties": { "OP_COMP_HR": "0", "LATITUDE": "36.101600742000002", "VAL_METHOD": "IMAGERY/OTHER", "OBJECTID": "202", "EXP_OTHER": "0", "CITY": "LENORA", "NAME": "LENORA", "EXP_POWER": "0", "WEBSITE": "https://www.anrpl.com/company_info/", "COUNTRY": "USA", "ADDRESS": "N2160 ROAD/E0630 ROAD", "COUNTY": "DEWEY", "GCOMPID": "GCOMP1180", "LONGITUDE": "-99.15121244", "STATUS": "IN SERVICE", "OP_DATE_PE": "Wed, 01 Jan 2020 00:00:00 GMT", "COUNTYFIPS": "40043", "COMPID": "48", "PIPECO": "ANR PIPELINE COMPANY", "POSREL": "WITHIN 40 FEET", "VAL_DATE": "Fri, 17 Jun 2022 00:00:00 GMT", "STATE": "OK", "CERT_HP": "17226", "ZIP4": "NOT AVAILABLE", "SOURCE": "FERC FORM 2, OKLAHOMA DEPARTMENT OF ENVIRONMENTAL QUALITY", "ZIP": "73667", "OP_NUM_COM": "0", "GAS_COMPRE": "0", "PLANT_COST": "-999", "OPERATOR": "ANR PIPELINE COMPANY", "NAICS_DESC": "BOOSTER PUMPING STATION, NATURAL GAS TRANSPORTATION", "NUM_UNITS": "2", "ELEC_COMPR": "0", "TYPE": "NATURAL GAS COMPRESSOR STATION", "NAICS_CODE": "486210", "EXP_FUEL": "0", "SOURCEDATE": "Wed, 15 Jul 2020 00:00:00 GMT" }, "geometry": { "type": "Point", "coordinates": [ -99.15121244, 36.101600742 ] } },
{ "type": "Feature", "properties": { "OP_COMP_HR": "49961", "LATITUDE": "40.23327232", "VAL_METHOD": "IMAGERY/OTHER", "OBJECTID": "838", "EXP_OTHER": "2497482", "CITY": "GRAHAM", "NAME": "MAITLAND", "EXP_POWER": "0", "WEBSITE": "https://www.anrpl.com/company_info/", "COUNTRY": "USA", "ADDRESS": "33854 MO-TT", "COUNTY": "NODAWAY", "GCOMPID": "GCOMP522", "LONGITUDE": "-94.987645227000002", "STATUS": "IN SERVICE", "OP_DATE_PE": "Wed, 29 Jan 2020 00:00:00 GMT", "COUNTYFIPS": "29147", "COMPID": "48", "PIPECO": "ANR PIPELINE COMPANY", "POSREL": "WITHIN 40 FEET", "VAL_DATE": "Fri, 17 Jun 2022 00:00:00 GMT", "STATE": "MO", "CERT_HP": "13100", "ZIP4": "NOT AVAILABLE", "SOURCE": "EPA ENVIROFACTS, FERC FORM 2, CORPORATE WEBSITE", "ZIP": "64455", "OP_NUM_COM": "8", "GAS_COMPRE": "631532", "PLANT_COST": "28026608", "OPERATOR": "ANR PIPELINE COMPANY", "NAICS_DESC": "BOOSTER PUMPING STATION, NATURAL GAS TRANSPORTATION", "NUM_UNITS": "8", "ELEC_COMPR": "0", "TYPE": "NATURAL GAS COMPRESSOR STATION", "NAICS_CODE": "486210", "EXP_FUEL": "1156604", "SOURCEDATE": "Wed, 15 Jul 2020 00:00:00 GMT" }, "geometry": { "type": "Point", "coordinates": [ -94.987645227, 40.23327232 ] } },
{ "type": "Feature", "properties": { "OP_COMP_HR": "31603", "LATITUDE": "43.628572348", "VAL_METHOD": "IMAGERY/OTHER", "OBJECTID": "1088", "EXP_OTHER": "2203092", "CITY": "BIG RAPIDS", "NAME": "WOOLFOLK (SEE FOOTNOTE)", "EXP_POWER": "0", "WEBSITE": "https://www.anrpl.com/company_info/", "COUNTRY": "USA", "ADDRESS": "11039 150TH AVENUE", "COUNTY": "MECOSTA", "GCOMPID": "GCOMP75", "LONGITUDE": "-85.385710617000001", "STATUS": "IN SERVICE", "OP_DATE_PE": "Sun, 02 Dec 2012 00:00:00 GMT", "COUNTYFIPS": "26107", "COMPID": "48", "PIPECO": "ANR PIPELINE COMPANY", "POSREL": "WITHIN 166 FEET", "VAL_DATE": "Fri, 17 Jun 2022 00:00:00 GMT", "STATE": "MI", "CERT_HP": "44280", "ZIP4": "9482", "SOURCE": "EPA ENVIROFACTS, FERC FORM 2, CORPORATE WEBSITE", "ZIP": "49307", "OP_NUM_COM": "10", "GAS_COMPRE": "402165", "PLANT_COST": "26905499", "OPERATOR": "ANR PIPELINE COMPANY", "NAICS_DESC": "BOOSTER PUMPING STATION, NATURAL GAS TRANSPORTATION", "NUM_UNITS": "17", "ELEC_COMPR": "0", "TYPE": "NATURAL GAS COMPRESSOR STATION", "NAICS_CODE": "486210", "EXP_FUEL": "1042993", "SOURCEDATE": "Wed, 15 Jul 2020 00:00:00 GMT" }, "geometry": { "type": "Point", "coordinates": [ -85.385710617, 43.628572348 ] } },
{ "type": "Feature", "properties": { "OP_COMP_HR": "43149", "LATITUDE": "38.829041689", "VAL_METHOD": "IMAGERY/OTHER", "OBJECTID": "504", "EXP_OTHER": "2193877", "CITY": "ENTERPRISE", "NAME": "ENTERPRISE", "EXP_POWER": "0", "WEBSITE": "https://www.anrpl.com/company_info/", "COUNTRY": "USA", "ADDRESS": "1615 NAIL ROAD", "COUNTY": "DICKINSON", "GCOMPID": "GCOMP221", "LONGITUDE": "-97.094777617999995", "STATUS": "IN SERVICE", "OP_DATE_PE": "Sat, 07 Mar 2020 00:00:00 GMT", "COUNTYFIPS": "20041", "COMPID": "48", "PIPECO": "ANR PIPELINE COMPANY", "POSREL": "WITHIN 40 FEET", "VAL_DATE": "Fri, 17 Jun 2022 00:00:00 GMT", "STATE": "KS", "CERT_HP": "13410", "ZIP4": "9095", "SOURCE": "EPA ENVIROFACTS, FERC FORM 2, CORPORATE WEBSITE", "ZIP": "67441", "OP_NUM_COM": "8", "GAS_COMPRE": "499115", "PLANT_COST": "20600815", "OPERATOR": "ANR PIPELINE COMPANY", "NAICS_DESC": "BOOSTER PUMPING STATION, NATURAL GAS TRANSPORTATION", "NUM_UNITS": "9", "ELEC_COMPR": "0", "TYPE": "NATURAL GAS COMPRESSOR STATION", "NAICS_CODE": "486210", "EXP_FUEL": "912684", "SOURCEDATE": "Wed, 15 Jul 2020 00:00:00 GMT" }, "geometry": { "type": "Point", "coordinates": [ -97.094777618, 38.829041689 ] } },
{ "type": "Feature", "properties": { "OP_COMP_HR": "11", "LATITUDE": "40.442913892", "VAL_METHOD": "IMAGERY/OTHER", "OBJECTID": "1073", "EXP_OTHER": "549855", "CITY": "PORTLAND", "NAME": "PORTLAND", "EXP_POWER": "0", "WEBSITE": "https://www.anrpl.com/company_info/", "COUNTRY": "USA", "ADDRESS": "6059 W STATE ROAD 26", "COUNTY": "JAY", "GCOMPID": "GCOMP736", "LONGITUDE": "-85.096956633000005", "STATUS": "IN SERVICE", "OP_DATE_PE": "Thu, 27 Aug 2020 00:00:00 GMT", "COUNTYFIPS": "18075", "COMPID": "48", "PIPECO": "ANR PIPELINE COMPANY", "POSREL": "WITHIN 40 FEET", "VAL_DATE": "Fri, 17 Jun 2022 00:00:00 GMT", "STATE": "IN", "CERT_HP": "34880", "ZIP4": "NOT AVAILABLE", "SOURCE": "EPA ENVIROFACTS, FERC FORM 2, CORPORATE WEBSITE", "ZIP": "47371", "OP_NUM_COM": "1", "GAS_COMPRE": "151", "PLANT_COST": "70091814", "OPERATOR": "ANR PIPELINE COMPANY", "NAICS_DESC": "BOOSTER PUMPING STATION, NATURAL GAS TRANSPORTATION", "NUM_UNITS": "9", "ELEC_COMPR": "0", "TYPE": "NATURAL GAS COMPRESSOR STATION", "NAICS_CODE": "486210", "EXP_FUEL": "292", "SOURCEDATE": "Wed, 15 Jul 2020 00:00:00 GMT" }, "geometry": { "type": "Point", "coordinates": [ -85.096956633, 40.442913892 ] } }
]
}
