{
"type": "FeatureCollection",
"name": "P0168-compressor-stations",
"crs": { "type": "name", "properties": { "name": "urn:ogc:def:crs:OGC:1.3:CRS84" } },
"features": [
{ "type": "Feature", "properties": { "OBJECTID": 6, "GCOMPID": "GCOMP1002", "NAME": "FLANK", "ADDRESS": "COUNTY ROAD K AND COUNTY ROAD H", "CITY": "CAMPO", "STATE": "CO", "ZIP": "81029", "ZIP4": "NOT AVAILABLE", "TYPE": "NATURAL GAS COMPRESSOR STATION", "STATUS": "IN SERVICE", "COUNTY": "BACA", "COUNTYFIPS": "08009", "COUNTRY": "USA", "LATITUDE": 37.114997, "LONGITUDE": -102.182431, "NAICS_CODE": "486210", "NAICS_DESC": "BOOSTER PUMPING STATION, NATURAL GAS TRANSPORTATION", "SOURCE": "EPA ENVIROFACTS, FERC FORM 2, CORPORATE WEBSITE", "SOURCEDATE": "Wed, 15 Jul 2020 00:00:00 GMT", "VAL_METHOD": "IMAGERY/OTHER", "VAL_DATE": "Sun, 26 Jun 2022 00:00:00 GMT", "WEBSITE": "https://pipeportal.kindermorgan.com/portalui/DefaultKM.aspx?TSP=CIGD", "PIPECO": "COLORADO INTERSTATE GAS COMPANY L.L.C.", "COMPID": "32", "OPERATOR": "COLORADO INTERSTATE GAS COMPANY L.L.C.", "POSREL": "WITHIN 40 FEET", "NUM_UNITS": 6, "CERT_HP": 7250, "PLANT_COST": 14962679, "EXP_FUEL": 209297, "EXP_OTHER": 914200, "GAS_COMPRE": 123350, "OP_COMP_HR": 17226, "OP_NUM_COM": 4, "OP_DATE_PE": "Tue, 04 Feb 2020 00:00:00 GMT", "EXP_POWER": 0, "ELEC_COMPR": 0 }, "geometry": { "type": "Point", "coordinates": [ -102.182431000012741, 37.114996999803807 ] } },
{ "type": "Feature", "properties": { "OBJECTID": 7, "GCOMPID": "GCOMP1003", "NAME": "NIOBRARA", "ADDRESS": "COUNTY ROAD QQ AND HIGHWAY 22", "CITY": "AKRON", "STATE": "CO", "ZIP": "80720", "ZIP4": "NOT AVAILABLE", "TYPE": "NATURAL GAS COMPRESSOR STATION", "STATUS": "IN SERVICE", "COUNTY": "WASHINGTON", "COUNTYFIPS": "08121", "COUNTRY": "USA", "LATITUDE": 39.890189, "LONGITUDE": -102.993106, "NAICS_CODE": "486210", "NAICS_DESC": "BOOSTER PUMPING STATION, NATURAL GAS TRANSPORTATION", "SOURCE": "EPA ENVIROFACTS, FERC FORM 2, CORPORATE WEBSITE", "SOURCEDATE": "Wed, 15 Jul 2020 00:00:00 GMT", "VAL_METHOD": "IMAGERY/OTHER", "VAL_DATE": "Fri, 17 Jun 2022 00:00:00 GMT", "WEBSITE": "https://pipeportal.kindermorgan.com/portalui/DefaultKM.aspx?TSP=CIGD", "PIPECO": "COLORADO INTERSTATE GAS COMPANY L.L.C.", "COMPID": "32", "OPERATOR": "COLORADO INTERSTATE GAS COMPANY L.L.C.", "POSREL": "WITHIN 40 FEET", "NUM_UNITS": 1, "CERT_HP": 1800, "PLANT_COST": 601627, "EXP_FUEL": 70007, "EXP_OTHER": 389973, "GAS_COMPRE": 44507, "OP_COMP_HR": 6720, "OP_NUM_COM": 1, "OP_DATE_PE": "Wed, 01 Jan 2020 00:00:00 GMT", "EXP_POWER": 0, "ELEC_COMPR": 0 }, "geometry": { "type": "Point", "coordinates": [ -102.993105999395496, 39.890189000222477 ] } },
{ "type": "Feature", "properties": { "OBJECTID": 26, "GCOMPID": "GCOMP1020", "NAME": "TOTEM", "ADDRESS": "E 104TH AVENUE AND YULLE ROAD; NE NW SEC 17 T2S R62W", "CITY": "BENNET", "STATE": "CO", "ZIP": "80102", "ZIP4": "NOT AVAILABLE", "TYPE": "NATURAL GAS COMPRESSOR STATION", "STATUS": "IN SERVICE", "COUNTY": "ADAMS", "COUNTYFIPS": "08001", "COUNTRY": "USA", "LATITUDE": 39.882510236000002, "LONGITUDE": -104.35065907000001, "NAICS_CODE": "486210", "NAICS_DESC": "BOOSTER PUMPING STATION, NATURAL GAS TRANSPORTATION", "SOURCE": "EPA ENVIROFACTS, FERC FORM 2, CORPORATE WEBSITE, IMAGERY", "SOURCEDATE": "Wed, 15 Jul 2020 00:00:00 GMT", "VAL_METHOD": "IMAGERY/OTHER", "VAL_DATE": "Fri, 24 Jun 2022 00:00:00 GMT", "WEBSITE": "https://pipeportal.kindermorgan.com/portalui/DefaultKM.aspx?TSP=CIGD", "PIPECO": "COLORADO INTERSTATE GAS COMPANY L.L.C.", "COMPID": "32", "OPERATOR": "COLORADO INTERSTATE GAS COMPANY L.L.C.", "POSREL": "WITHIN 40 FEET", "NUM_UNITS": 2, "CERT_HP": 9470, "PLANT_COST": 47042961, "EXP_FUEL": 169132, "EXP_OTHER": 245185, "GAS_COMPRE": 98329, "OP_COMP_HR": 3786, "OP_NUM_COM": 2, "OP_DATE_PE": "Tue, 28 Apr 2020 00:00:00 GMT", "EXP_POWER": 0, "ELEC_COMPR": 0 }, "geometry": { "type": "Point", "coordinates": [ -104.350659073094278, 39.882510235922055 ] } },
{ "type": "Feature", "properties": { "OBJECTID": 31, "GCOMPID": "GCOMP1025", "NAME": "KEYES", "ADDRESS": "E0080 ROAD AND N0390 ROAD", "CITY": "KEYES", "STATE": "OK", "ZIP": "73947", "ZIP4": "NOT AVAILABLE", "TYPE": "NATURAL GAS COMPRESSOR STATION", "STATUS": "IN SERVICE", "COUNTY": "CIMARRON", "COUNTYFIPS": "40025", "COUNTRY": "USA", "LATITUDE": 36.896758, "LONGITUDE": -102.317881, "NAICS_CODE": "486210", "NAICS_DESC": "BOOSTER PUMPING STATION, NATURAL GAS TRANSPORTATION", "SOURCE": "EPA ENVIROFACTS, FERC FORM 2, CORPORATE WEBSITE", "SOURCEDATE": "Wed, 15 Jul 2020 00:00:00 GMT", "VAL_METHOD": "IMAGERY/OTHER", "VAL_DATE": "Fri, 17 Jun 2022 00:00:00 GMT", "WEBSITE": "https://pipeportal.kindermorgan.com/portalui/DefaultKM.aspx?TSP=CIGD", "PIPECO": "COLORADO INTERSTATE GAS COMPANY L.L.C.", "COMPID": "32", "OPERATOR": "COLORADO INTERSTATE GAS COMPANY L.L.C.", "POSREL": "WITHIN 40 FEET", "NUM_UNITS": 5, "CERT_HP": 10100, "PLANT_COST": 13125185, "EXP_FUEL": 98069, "EXP_OTHER": 704879, "GAS_COMPRE": 60715, "OP_COMP_HR": 7449, "OP_NUM_COM": 2, "OP_DATE_PE": "Sun, 19 Jul 2020 00:00:00 GMT", "EXP_POWER": 0, "ELEC_COMPR": 0 }, "geometry": { "type": "Point", "coordinates": [ -102.317881000000639, 36.896757999935851 ] } },
{ "type": "Feature", "properties": { "OBJECTID": 32, "GCOMPID": "GCOMP1026", "NAME": "BEAVER", "ADDRESS": "E0100 ROAD", "CITY": "BEAVER", "STATE": "OK", "ZIP": "73932", "ZIP4": "NOT AVAILABLE", "TYPE": "NATURAL GAS COMPRESSOR STATION", "STATUS": "IN SERVICE", "COUNTY": "BEAVER", "COUNTYFIPS": "40007", "COUNTRY": "USA", "LATITUDE": 36.862264, "LONGITUDE": -100.829322, "NAICS_CODE": "486210", "NAICS_DESC": "BOOSTER PUMPING STATION, NATURAL GAS TRANSPORTATION", "SOURCE": "EPA ENVIROFACTS, FERC FORM 2, CORPORATE WEBSITE", "SOURCEDATE": "Wed, 15 Jul 2020 00:00:00 GMT", "VAL_METHOD": "IMAGERY/OTHER", "VAL_DATE": "Fri, 17 Jun 2022 00:00:00 GMT", "WEBSITE": "https://pipeportal.kindermorgan.com/portalui/DefaultKM.aspx?TSP=CIGD", "PIPECO": "COLORADO INTERSTATE GAS COMPANY L.L.C.", "COMPID": "32", "OPERATOR": "COLORADO INTERSTATE GAS COMPANY L.L.C.", "POSREL": "WITHIN 40 FEET", "NUM_UNITS": 4, "CERT_HP": 5075, "PLANT_COST": 11328665, "EXP_FUEL": 185953, "EXP_OTHER": 210501, "GAS_COMPRE": 111833, "OP_COMP_HR": 19654, "OP_NUM_COM": 3, "OP_DATE_PE": "Wed, 08 Jan 2020 00:00:00 GMT", "EXP_POWER": 0, "ELEC_COMPR": 0 }, "geometry": { "type": "Point", "coordinates": [ -100.829321999541037, 36.862264000037889 ] } },
{ "type": "Feature", "properties": { "OBJECTID": 138, "GCOMPID": "GCOMP1122", "NAME": "PARACHUTE", "ADDRESS": "INTERSECTION OF HIGHWAY 215 AND GARDEN GULCH ROAD", "CITY": "PARACHUTE", "STATE": "CO", "ZIP": "81635", "ZIP4": "NOT AVAILABLE", "TYPE": "NATURAL GAS COMPRESSOR STATION", "STATUS": "NOT AVAILABLE", "COUNTY": "GARFIELD", "COUNTYFIPS": "08045", "COUNTRY": "USA", "LATITUDE": 39.469555, "LONGITUDE": -108.075757, "NAICS_CODE": "486210", "NAICS_DESC": "BOOSTER PUMPING STATION, NATURAL GAS TRANSPORTATION", "SOURCE": "EPA ENVIROFACTS, FERC FORM 2, IMAGERY", "SOURCEDATE": "Wed, 04 Nov 2015 00:00:00 GMT", "VAL_METHOD": "IMAGERY/OTHER", "VAL_DATE": "Tue, 14 Jun 2022 00:00:00 GMT", "WEBSITE": "https://pipeportal.kindermorgan.com/portalui/DefaultKM.aspx?TSP=CIGD", "PIPECO": "COLORADO INTERSTATE GAS COMPANY L.L.C.", "COMPID": "32", "OPERATOR": "COLORADO INTERSTATE GAS COMPANY L.L.C.", "POSREL": "WITHIN 40 FEET", "NUM_UNITS": 0, "CERT_HP": 2936, "PLANT_COST": -999, "EXP_FUEL": 0, "EXP_OTHER": 0, "GAS_COMPRE": 0, "OP_COMP_HR": 0, "OP_NUM_COM": 0, "OP_DATE_PE": "Wed, 15 Jul 2020 00:00:00 GMT", "EXP_POWER": 0, "ELEC_COMPR": 0 }, "geometry": { "type": "Point", "coordinates": [ -108.07575700054015, 39.469554996925972 ] } },
{ "type": "Feature", "properties": { "OBJECTID": 172, "GCOMPID": "GCOMP1153", "NAME": "GREASEWOOD", "ADDRESS": "LITTLE CORRAL GULCH SPRING", "CITY": "MEEKER", "STATE": "CO", "ZIP": "81650", "ZIP4": "NOT AVAILABLE", "TYPE": "NATURAL GAS COMPRESSOR STATION", "STATUS": "IN SERVICE", "COUNTY": "RIO BLANCO", "COUNTYFIPS": "08103", "COUNTRY": "USA", "LATITUDE": 39.89858818, "LONGITUDE": -108.19117038, "NAICS_CODE": "486210", "NAICS_DESC": "BOOSTER PUMPING STATION, NATURAL GAS TRANSPORTATION", "SOURCE": "EPA ENVIROFACTS, FERC FORM 2, CORPORATE WEBSITE", "SOURCEDATE": "Wed, 15 Jul 2020 00:00:00 GMT", "VAL_METHOD": "IMAGERY/OTHER", "VAL_DATE": "Fri, 24 Jun 2022 00:00:00 GMT", "WEBSITE": "https://pipeportal.kindermorgan.com/portalui/DefaultKM.aspx?TSP=CIGD", "PIPECO": "COLORADO INTERSTATE GAS COMPANY L.L.C.", "COMPID": "32", "OPERATOR": "COLORADO INTERSTATE GAS COMPANY L.L.C.", "POSREL": "WITHIN 40 FEET", "NUM_UNITS": 1, "CERT_HP": 5278, "PLANT_COST": 6712305, "EXP_FUEL": 24031, "EXP_OTHER": 253661, "GAS_COMPRE": 10914, "OP_COMP_HR": 489, "OP_NUM_COM": 1, "OP_DATE_PE": "Sat, 24 Oct 2020 00:00:00 GMT", "EXP_POWER": 0, "ELEC_COMPR": 0 }, "geometry": { "type": "Point", "coordinates": [ -108.191170381986595, 39.898588180217374 ] } },
{ "type": "Feature", "properties": { "OBJECTID": 194, "GCOMPID": "GCOMP1173", "NAME": "MOCANE", "ADDRESS": "N1456 ROAD AND US-64", "CITY": "MOCANE", "STATE": "OK", "ZIP": "73938", "ZIP4": "NOT AVAILABLE", "TYPE": "NATURAL GAS COMPRESSOR STATION", "STATUS": "IN SERVICE", "COUNTY": "BEAVER", "COUNTYFIPS": "40007", "COUNTRY": "USA", "LATITUDE": 36.895635, "LONGITUDE": -100.396354, "NAICS_CODE": "486210", "NAICS_DESC": "BOOSTER PUMPING STATION, NATURAL GAS TRANSPORTATION", "SOURCE": "EPA ENVIROFACTS, FERC FORM 2, CORPORATE WEBSITE", "SOURCEDATE": "Wed, 15 Jul 2020 00:00:00 GMT", "VAL_METHOD": "IMAGERY/OTHER", "VAL_DATE": "Fri, 17 Jun 2022 00:00:00 GMT", "WEBSITE": "https://pipeportal.kindermorgan.com/portalui/DefaultKM.aspx?TSP=CIGD", "PIPECO": "COLORADO INTERSTATE GAS COMPANY L.L.C.", "COMPID": "32", "OPERATOR": "COLORADO INTERSTATE GAS COMPANY L.L.C.", "POSREL": "WITHIN 40 FEET", "NUM_UNITS": 9, "CERT_HP": 16900, "PLANT_COST": 15889337, "EXP_FUEL": 851041, "EXP_OTHER": 1206429, "GAS_COMPRE": 505322, "OP_COMP_HR": 43709, "OP_NUM_COM": 8, "OP_DATE_PE": "Tue, 06 Oct 2020 00:00:00 GMT", "EXP_POWER": 0, "ELEC_COMPR": 0 }, "geometry": { "type": "Point", "coordinates": [ -100.396353999757977, 36.895634999679864 ] } },
{ "type": "Feature", "properties": { "OBJECTID": 331, "GCOMPID": "GCOMP1297", "NAME": "WATKINS", "ADDRESS": "SMITH ROAD AND E. 119TH AVENUE", "CITY": "WATKINS", "STATE": "CO", "ZIP": "80137", "ZIP4": "NOT AVAILABLE", "TYPE": "NATURAL GAS COMPRESSOR STATION", "STATUS": "IN SERVICE", "COUNTY": "ADAMS", "COUNTYFIPS": "08001", "COUNTRY": "USA", "LATITUDE": 39.745279, "LONGITUDE": -104.698509, "NAICS_CODE": "486210", "NAICS_DESC": "BOOSTER PUMPING STATION, NATURAL GAS TRANSPORTATION", "SOURCE": "EPA ENVIROFACTS, FERC FORM 2, CORPORATE WEBSITE", "SOURCEDATE": "Wed, 15 Jul 2020 00:00:00 GMT", "VAL_METHOD": "IMAGERY/OTHER", "VAL_DATE": "Tue, 14 Jun 2022 00:00:00 GMT", "WEBSITE": "https://pipeportal.kindermorgan.com/portalui/DefaultKM.aspx?TSP=CIGD", "PIPECO": "COLORADO INTERSTATE GAS COMPANY L.L.C.", "COMPID": "32", "OPERATOR": "COLORADO INTERSTATE GAS COMPANY L.L.C.", "POSREL": "WITHIN 40 FEET", "NUM_UNITS": 4, "CERT_HP": 10800, "PLANT_COST": 60121995, "EXP_FUEL": 1318494, "EXP_OTHER": 2338906, "GAS_COMPRE": 798591, "OP_COMP_HR": 11471, "OP_NUM_COM": 4, "OP_DATE_PE": "Mon, 06 Apr 2020 00:00:00 GMT", "EXP_POWER": 0, "ELEC_COMPR": 0 }, "geometry": { "type": "Point", "coordinates": [ -104.698509000002502, 39.745278999745821 ] } },
{ "type": "Feature", "properties": { "OBJECTID": 376, "GCOMPID": "GCOMP1337", "NAME": "KIM", "ADDRESS": "US-160", "CITY": "KIM", "STATE": "CO", "ZIP": "81049", "ZIP4": "NOT AVAILABLE", "TYPE": "NATURAL GAS COMPRESSOR STATION", "STATUS": "IN SERVICE", "COUNTY": "LAS ANIMAS", "COUNTYFIPS": "08071", "COUNTRY": "USA", "LATITUDE": 37.216681, "LONGITUDE": -103.501954, "NAICS_CODE": "486210", "NAICS_DESC": "BOOSTER PUMPING STATION, NATURAL GAS TRANSPORTATION", "SOURCE": "EPA ENVIROFACTS, FERC FORM 2, CORPORATE WEBSITE", "SOURCEDATE": "Wed, 15 Jul 2020 00:00:00 GMT", "VAL_METHOD": "IMAGERY/OTHER", "VAL_DATE": "Tue, 14 Jun 2022 00:00:00 GMT", "WEBSITE": "https://pipeportal.kindermorgan.com/portalui/DefaultKM.aspx?TSP=CIGD", "PIPECO": "COLORADO INTERSTATE GAS COMPANY L.L.C.", "COMPID": "32", "OPERATOR": "COLORADO INTERSTATE GAS COMPANY L.L.C.", "POSREL": "WITHIN 40 FEET", "NUM_UNITS": 2, "CERT_HP": 8900, "PLANT_COST": 16360517, "EXP_FUEL": 0, "EXP_OTHER": 166472, "GAS_COMPRE": 0, "OP_COMP_HR": 0, "OP_NUM_COM": 0, "OP_DATE_PE": "Wed, 01 Jan 2020 00:00:00 GMT", "EXP_POWER": 0, "ELEC_COMPR": 0 }, "geometry": { "type": "Point", "coordinates": [ -103.501953999951397, 37.216680999936521 ] } },
{ "type": "Feature", "properties": { "OBJECTID": 435, "GCOMPID": "GCOMP16", "NAME": "GREENWOOD FIELD", "ADDRESS": "1 MILE NORTH OF COUNTY ROAD P", "CITY": "ELKHART", "STATE": "KS", "ZIP": "67950", "ZIP4": "NOT AVAILABLE", "TYPE": "NATURAL GAS COMPRESSOR STATION", "STATUS": "NOT AVAILABLE", "COUNTY": "MORTON", "COUNTYFIPS": "20129", "COUNTRY": "USA", "LATITUDE": 37.199361, "LONGITUDE": -102.007801, "NAICS_CODE": "486210", "NAICS_DESC": "BOOSTER PUMPING STATION, NATURAL GAS TRANSPORTATION", "SOURCE": "EPA ENVIROFACTS, FERC FORM 2", "SOURCEDATE": "Wed, 04 Nov 2015 00:00:00 GMT", "VAL_METHOD": "IMAGERY/OTHER", "VAL_DATE": "Fri, 17 Jun 2022 00:00:00 GMT", "WEBSITE": "https://pipeportal.kindermorgan.com/portalui/DefaultKM.aspx?TSP=CIGD", "PIPECO": "COLORADO INTERSTATE GAS COMPANY L.L.C.", "COMPID": "32", "OPERATOR": "COLORADO INTERSTATE GAS COMPANY L.L.C.", "POSREL": "WITHIN 40 FEET", "NUM_UNITS": 0, "CERT_HP": 5278, "PLANT_COST": -999, "EXP_FUEL": 0, "EXP_OTHER": 0, "GAS_COMPRE": 0, "OP_COMP_HR": 0, "OP_NUM_COM": 0, "OP_DATE_PE": "Wed, 15 Jul 2020 00:00:00 GMT", "EXP_POWER": 0, "ELEC_COMPR": 0 }, "geometry": { "type": "Point", "coordinates": [ -102.007801001252417, 37.199360999907043 ] } },
{ "type": "Feature", "properties": { "OBJECTID": 465, "GCOMPID": "GCOMP187", "NAME": "LAKIN", "ADDRESS": "1487 HIGHWAY 50", "CITY": "LAKIN", "STATE": "KS", "ZIP": "67860", "ZIP4": "NOT AVAILABLE", "TYPE": "NATURAL GAS COMPRESSOR STATION", "STATUS": "IN SERVICE", "COUNTY": "KEARNY", "COUNTYFIPS": "20093", "COUNTRY": "USA", "LATITUDE": 37.943119, "LONGITUDE": -101.289413, "NAICS_CODE": "486210", "NAICS_DESC": "BOOSTER PUMPING STATION, NATURAL GAS TRANSPORTATION", "SOURCE": "EPA ENVIROFACTS, FERC FORM 2, CORPORATE WEBSITE", "SOURCEDATE": "Wed, 15 Jul 2020 00:00:00 GMT", "VAL_METHOD": "IMAGERY/OTHER", "VAL_DATE": "Fri, 17 Jun 2022 00:00:00 GMT", "WEBSITE": "https://pipeportal.kindermorgan.com/portalui/DefaultKM.aspx?TSP=CIGD", "PIPECO": "COLORADO INTERSTATE GAS COMPANY L.L.C.", "COMPID": "32", "OPERATOR": "COLORADO INTERSTATE GAS COMPANY L.L.C.", "POSREL": "WITHIN 40 FEET", "NUM_UNITS": 6, "CERT_HP": 7200, "PLANT_COST": 18192536, "EXP_FUEL": 1162, "EXP_OTHER": 312531, "GAS_COMPRE": 719, "OP_COMP_HR": 7, "OP_NUM_COM": 6, "OP_DATE_PE": "Wed, 14 Oct 2020 00:00:00 GMT", "EXP_POWER": 0, "ELEC_COMPR": 0 }, "geometry": { "type": "Point", "coordinates": [ -101.289412999932082, 37.943118999826552 ] } },
{ "type": "Feature", "properties": { "OBJECTID": 487, "GCOMPID": "GCOMP206", "NAME": "FORT LUPTON", "ADDRESS": "15732 COUNTY ROAD 16", "CITY": "FORT LUPTON", "STATE": "CO", "ZIP": "80621", "ZIP4": "NOT AVAILABLE", "TYPE": "NATURAL GAS COMPRESSOR STATION", "STATUS": "IN SERVICE", "COUNTY": "WELD", "COUNTYFIPS": "08123", "COUNTRY": "USA", "LATITUDE": 40.097537, "LONGITUDE": -104.762109, "NAICS_CODE": "486210", "NAICS_DESC": "BOOSTER PUMPING STATION, NATURAL GAS TRANSPORTATION", "SOURCE": "EPA ENVIROFACTS, FERC FORM 2, CORPORATE WEBSITE", "SOURCEDATE": "Wed, 15 Jul 2020 00:00:00 GMT", "VAL_METHOD": "IMAGERY/OTHER", "VAL_DATE": "Tue, 14 Jun 2022 00:00:00 GMT", "WEBSITE": "https://pipeportal.kindermorgan.com/portalui/DefaultKM.aspx?TSP=CIGD", "PIPECO": "COLORADO INTERSTATE GAS COMPANY L.L.C.", "COMPID": "32", "OPERATOR": "COLORADO INTERSTATE GAS COMPANY L.L.C.", "POSREL": "WITHIN 40 FEET", "NUM_UNITS": 4, "CERT_HP": 11125, "PLANT_COST": 29649961, "EXP_FUEL": 721415, "EXP_OTHER": 703815, "GAS_COMPRE": 444290, "OP_COMP_HR": 25076, "OP_NUM_COM": 4, "OP_DATE_PE": "Wed, 05 Feb 2020 00:00:00 GMT", "EXP_POWER": 0, "ELEC_COMPR": 0 }, "geometry": { "type": "Point", "coordinates": [ -104.762108999972767, 40.097536999478407 ] } },
{ "type": "Feature", "properties": { "OBJECTID": 509, "GCOMPID": "GCOMP226", "NAME": "TRINIDAD", "ADDRESS": "16250 US HIGHWAY 350", "CITY": "TRINIDAD", "STATE": "CO", "ZIP": "81082", "ZIP4": "NOT AVAILABLE", "TYPE": "NATURAL GAS COMPRESSOR STATION", "STATUS": "IN SERVICE", "COUNTY": "LAS ANIMAS", "COUNTYFIPS": "08071", "COUNTRY": "USA", "LATITUDE": 37.220849858999998, "LONGITUDE": -104.40190929000001, "NAICS_CODE": "486210", "NAICS_DESC": "BOOSTER PUMPING STATION, NATURAL GAS TRANSPORTATION", "SOURCE": "EPA ENVIROFACTS, FERC FORM 2, CORPORATE WEBSITE", "SOURCEDATE": "Tue, 29 Sep 2015 00:00:00 GMT", "VAL_METHOD": "IMAGERY/OTHER", "VAL_DATE": "Fri, 24 Jun 2022 00:00:00 GMT", "WEBSITE": "https://pipeportal.kindermorgan.com/portalui/DefaultKM.aspx?TSP=CIGD", "PIPECO": "COLORADO INTERSTATE GAS COMPANY L.L.C.", "COMPID": "32", "OPERATOR": "COLORADO INTERSTATE GAS COMPANY L.L.C.", "POSREL": "WITHIN 40 FEET", "NUM_UNITS": 1, "CERT_HP": 4860, "PLANT_COST": 11970466, "EXP_FUEL": 0, "EXP_OTHER": 207675, "GAS_COMPRE": 0, "OP_COMP_HR": 0, "OP_NUM_COM": 0, "OP_DATE_PE": "Sat, 12 Dec 2020 00:00:00 GMT", "EXP_POWER": 0, "ELEC_COMPR": 0 }, "geometry": { "type": "Point", "coordinates": [ -104.401909295305657, 37.220849858954743 ] } },
{ "type": "Feature", "properties": { "OBJECTID": 524, "GCOMPID": "GCOMP24", "NAME": "BOEHM", "ADDRESS": "1.4 MILES EAST OF HIGHWAY 51", "CITY": "RICHFIELD", "STATE": "KS", "ZIP": "67953", "ZIP4": "NOT AVAILABLE", "TYPE": "NATURAL GAS COMPRESSOR STATION", "STATUS": "IN SERVICE", "COUNTY": "MORTON", "COUNTYFIPS": "20129", "COUNTRY": "USA", "LATITUDE": 37.184948, "LONGITUDE": -101.874489, "NAICS_CODE": "486210", "NAICS_DESC": "BOOSTER PUMPING STATION, NATURAL GAS TRANSPORTATION", "SOURCE": "EPA ENVIROFACTS, FERC FORM 2, CORPORATE WEBSITE", "SOURCEDATE": "Wed, 15 Jul 2020 00:00:00 GMT", "VAL_METHOD": "IMAGERY/OTHER", "VAL_DATE": "Fri, 17 Jun 2022 00:00:00 GMT", "WEBSITE": "https://pipeportal.kindermorgan.com/portalui/DefaultKM.aspx?TSP=CIGD", "PIPECO": "COLORADO INTERSTATE GAS COMPANY L.L.C.", "COMPID": "32", "OPERATOR": "COLORADO INTERSTATE GAS COMPANY L.L.C.", "POSREL": "WITHIN 40 FEET", "NUM_UNITS": 2, "CERT_HP": 3100, "PLANT_COST": 3053449, "EXP_FUEL": 61906, "EXP_OTHER": 41522, "GAS_COMPRE": 37525, "OP_COMP_HR": 3480, "OP_NUM_COM": 2, "OP_DATE_PE": "Sun, 12 Jul 2020 00:00:00 GMT", "EXP_POWER": 0, "ELEC_COMPR": 0 }, "geometry": { "type": "Point", "coordinates": [ -101.874488999253828, 37.184947999356496 ] } },
{ "type": "Feature", "properties": { "OBJECTID": 535, "GCOMPID": "GCOMP25", "NAME": "BIG CANYON", "ADDRESS": "1.5 MILES EAST OF US-87", "CITY": "MARSH", "STATE": "TX", "ZIP": "79107", "ZIP4": "NOT AVAILABLE", "TYPE": "NATURAL GAS COMPRESSOR STATION", "STATUS": "NOT AVAILABLE", "COUNTY": "POTTER", "COUNTYFIPS": "48375", "COUNTRY": "USA", "LATITUDE": 35.538441044000002, "LONGITUDE": -101.89562053, "NAICS_CODE": "486210", "NAICS_DESC": "BOOSTER PUMPING STATION, NATURAL GAS TRANSPORTATION", "SOURCE": "EPA ENVIROFACTS, FERC FORM 2", "SOURCEDATE": "Mon, 09 Nov 2015 00:00:00 GMT", "VAL_METHOD": "IMAGERY/OTHER", "VAL_DATE": "Fri, 17 Jun 2022 00:00:00 GMT", "WEBSITE": "https://pipeportal.kindermorgan.com/portalui/DefaultKM.aspx?TSP=CIGD", "PIPECO": "COLORADO INTERSTATE GAS COMPANY L.L.C.", "COMPID": "32", "OPERATOR": "COLORADO INTERSTATE GAS COMPANY L.L.C.", "POSREL": "WITHIN 40 FEET", "NUM_UNITS": 0, "CERT_HP": 2956, "PLANT_COST": -999, "EXP_FUEL": 0, "EXP_OTHER": 0, "GAS_COMPRE": 0, "OP_COMP_HR": 0, "OP_NUM_COM": 0, "OP_DATE_PE": "Wed, 15 Jul 2020 00:00:00 GMT", "EXP_POWER": 0, "ELEC_COMPR": 0 }, "geometry": { "type": "Point", "coordinates": [ -101.895620529601459, 35.538441043600528 ] } },
{ "type": "Feature", "properties": { "OBJECTID": 640, "GCOMPID": "GCOMP344", "NAME": "FORT MORGAN", "ADDRESS": "21509 COUNTY ROAD 17", "CITY": "FORT MORGAN", "STATE": "CO", "ZIP": "80701", "ZIP4": "NOT AVAILABLE", "TYPE": "NATURAL GAS COMPRESSOR STATION", "STATUS": "IN SERVICE", "COUNTY": "MORGAN", "COUNTYFIPS": "08087", "COUNTRY": "USA", "LATITUDE": 40.188127, "LONGITUDE": -103.816618, "NAICS_CODE": "486210", "NAICS_DESC": "BOOSTER PUMPING STATION, NATURAL GAS TRANSPORTATION", "SOURCE": "EPA ENVIROFACTS, FERC FORM 2, CORPORATE WEBSITE", "SOURCEDATE": "Wed, 15 Jul 2020 00:00:00 GMT", "VAL_METHOD": "IMAGERY/OTHER", "VAL_DATE": "Tue, 14 Jun 2022 00:00:00 GMT", "WEBSITE": "https://pipeportal.kindermorgan.com/portalui/DefaultKM.aspx?TSP=CIGD", "PIPECO": "COLORADO INTERSTATE GAS COMPANY L.L.C.", "COMPID": "32", "OPERATOR": "COLORADO INTERSTATE GAS COMPANY L.L.C.", "POSREL": "WITHIN 40 FEET", "NUM_UNITS": 6, "CERT_HP": 6551, "PLANT_COST": 23134380, "EXP_FUEL": 164187, "EXP_OTHER": 734866, "GAS_COMPRE": 97710, "OP_COMP_HR": 16109, "OP_NUM_COM": 6, "OP_DATE_PE": "Sun, 03 May 2020 00:00:00 GMT", "EXP_POWER": 0, "ELEC_COMPR": 0 }, "geometry": { "type": "Point", "coordinates": [ -103.816618000204286, 40.188127000310274 ] } },
{ "type": "Feature", "properties": { "OBJECTID": 781, "GCOMPID": "GCOMP471", "NAME": "MORTON", "ADDRESS": "295 ROAD P", "CITY": "RICHFIELD", "STATE": "KS", "ZIP": "67953", "ZIP4": "NOT AVAILABLE", "TYPE": "NATURAL GAS COMPRESSOR STATION", "STATUS": "IN SERVICE", "COUNTY": "MORTON", "COUNTYFIPS": "20129", "COUNTRY": "USA", "LATITUDE": 37.183857, "LONGITUDE": -102.030214, "NAICS_CODE": "486210", "NAICS_DESC": "BOOSTER PUMPING STATION, NATURAL GAS TRANSPORTATION", "SOURCE": "EPA ENVIROFACTS, FERC FORM 2, CORPORATE WEBSITE", "SOURCEDATE": "Wed, 15 Jul 2020 00:00:00 GMT", "VAL_METHOD": "IMAGERY/OTHER", "VAL_DATE": "Fri, 17 Jun 2022 00:00:00 GMT", "WEBSITE": "https://pipeportal.kindermorgan.com/portalui/DefaultKM.aspx?TSP=CIGD", "PIPECO": "COLORADO INTERSTATE GAS COMPANY L.L.C.", "COMPID": "32", "OPERATOR": "COLORADO INTERSTATE GAS COMPANY L.L.C.", "POSREL": "WITHIN 40 FEET", "NUM_UNITS": 6, "CERT_HP": 7980, "PLANT_COST": 11439930, "EXP_FUEL": 5057, "EXP_OTHER": 1593395, "GAS_COMPRE": 3209, "OP_COMP_HR": 201, "OP_NUM_COM": 1, "OP_DATE_PE": "Tue, 04 Feb 2020 00:00:00 GMT", "EXP_POWER": 0, "ELEC_COMPR": 0 }, "geometry": { "type": "Point", "coordinates": [ -102.030214000027868, 37.18385699960259 ] } },
{ "type": "Feature", "properties": { "OBJECTID": 803, "GCOMPID": "GCOMP491", "NAME": "KIT CARSON", "ADDRESS": "3073 US HIGHWAY 287", "CITY": "KIT CARSON", "STATE": "CO", "ZIP": "80825", "ZIP4": "NOT AVAILABLE", "TYPE": "NATURAL GAS COMPRESSOR STATION", "STATUS": "IN SERVICE", "COUNTY": "CHEYENNE", "COUNTYFIPS": "08017", "COUNTRY": "USA", "LATITUDE": 38.660351, "LONGITUDE": -102.788791, "NAICS_CODE": "486210", "NAICS_DESC": "BOOSTER PUMPING STATION, NATURAL GAS TRANSPORTATION", "SOURCE": "EPA ENVIROFACTS, FERC FORM 2, CORPORATE WEBSITE", "SOURCEDATE": "Wed, 15 Jul 2020 00:00:00 GMT", "VAL_METHOD": "IMAGERY/OTHER", "VAL_DATE": "Fri, 17 Jun 2022 00:00:00 GMT", "WEBSITE": "https://pipeportal.kindermorgan.com/portalui/DefaultKM.aspx?TSP=CIGD", "PIPECO": "COLORADO INTERSTATE GAS COMPANY L.L.C.", "COMPID": "32", "OPERATOR": "COLORADO INTERSTATE GAS COMPANY L.L.C.", "POSREL": "WITHIN 40 FEET", "NUM_UNITS": 10, "CERT_HP": 12360, "PLANT_COST": 14737255, "EXP_FUEL": 652929, "EXP_OTHER": 1421374, "GAS_COMPRE": 405680, "OP_COMP_HR": 42734, "OP_NUM_COM": 10, "OP_DATE_PE": "Tue, 05 May 2020 00:00:00 GMT", "EXP_POWER": 4591528, "ELEC_COMPR": 69971433 }, "geometry": { "type": "Point", "coordinates": [ -102.788791000448981, 38.660350999661844 ] } },
{ "type": "Feature", "properties": { "OBJECTID": 1112, "GCOMPID": "GCOMP771", "NAME": "CHEYENNE", "ADDRESS": "65000 COUNTY ROAD 29 (US-85)", "CITY": "CARR", "STATE": "CO", "ZIP": "80612", "ZIP4": "NOT AVAILABLE", "TYPE": "NATURAL GAS COMPRESSOR STATION", "STATUS": "IN SERVICE", "COUNTY": "WELD", "COUNTYFIPS": "08123", "COUNTRY": "USA", "LATITUDE": 40.953774, "LONGITUDE": -104.798156, "NAICS_CODE": "486210", "NAICS_DESC": "BOOSTER PUMPING STATION, NATURAL GAS TRANSPORTATION", "SOURCE": "EPA ENVIROFACTS, FERC FORM 2, CORPORATE WEBSITE", "SOURCEDATE": "Wed, 15 Jul 2020 00:00:00 GMT", "VAL_METHOD": "IMAGERY/OTHER", "VAL_DATE": "Fri, 17 Jun 2022 00:00:00 GMT", "WEBSITE": "https://pipeportal.kindermorgan.com/portalui/DefaultKM.aspx?TSP=CIGD", "PIPECO": "COLORADO INTERSTATE GAS COMPANY L.L.C.", "COMPID": "32", "OPERATOR": "COLORADO INTERSTATE GAS COMPANY L.L.C.", "POSREL": "WITHIN 40 FEET", "NUM_UNITS": 7, "CERT_HP": 22630, "PLANT_COST": 51673524, "EXP_FUEL": 880438, "EXP_OTHER": 927702, "GAS_COMPRE": 530675, "OP_COMP_HR": 29866, "OP_NUM_COM": 5, "OP_DATE_PE": "Tue, 28 Apr 2020 00:00:00 GMT", "EXP_POWER": 0, "ELEC_COMPR": 0 }, "geometry": { "type": "Point", "coordinates": [ -104.798156004440528, 40.953774000548748 ] } },
{ "type": "Feature", "properties": { "OBJECTID": 1156, "GCOMPID": "GCOMP810", "NAME": "LATIGO", "ADDRESS": "69500 E COUNTY ROAD 38", "CITY": "BYERS", "STATE": "CO", "ZIP": "80103", "ZIP4": "NOT AVAILABLE", "TYPE": "NATURAL GAS COMPRESSOR STATION", "STATUS": "IN SERVICE", "COUNTY": "ARAPAHOE", "COUNTYFIPS": "08005", "COUNTRY": "USA", "LATITUDE": 39.607566529000003, "LONGITUDE": -104.17582547000001, "NAICS_CODE": "486210", "NAICS_DESC": "BOOSTER PUMPING STATION, NATURAL GAS TRANSPORTATION", "SOURCE": "EPA ENVIROFACTS, FERC FORM 2, CORPORATE WEBSITE", "SOURCEDATE": "Wed, 15 Jul 2020 00:00:00 GMT", "VAL_METHOD": "IMAGERY/OTHER", "VAL_DATE": "Fri, 17 Jun 2022 00:00:00 GMT", "WEBSITE": "https://pipeportal.kindermorgan.com/portalui/DefaultKM.aspx?TSP=CIGD", "PIPECO": "COLORADO INTERSTATE GAS COMPANY L.L.C.", "COMPID": "32", "OPERATOR": "COLORADO INTERSTATE GAS COMPANY L.L.C.", "POSREL": "WITHIN 40 FEET", "NUM_UNITS": 4, "CERT_HP": 4400, "PLANT_COST": 10812433, "EXP_FUEL": 161199, "EXP_OTHER": 452722, "GAS_COMPRE": 95546, "OP_COMP_HR": 13694, "OP_NUM_COM": 4, "OP_DATE_PE": "Thu, 18 Jun 2020 00:00:00 GMT", "EXP_POWER": 0, "ELEC_COMPR": 0 }, "geometry": { "type": "Point", "coordinates": [ -104.175825473941558, 39.60756652836664 ] } },
{ "type": "Feature", "properties": { "OBJECTID": 1233, "GCOMPID": "GCOMP880", "NAME": "SPRINGFIELD", "ADDRESS": "8438 COUNTY ROAD 1", "CITY": "LAMAR", "STATE": "CO", "ZIP": "81052", "ZIP4": "NOT AVAILABLE", "TYPE": "NATURAL GAS COMPRESSOR STATION", "STATUS": "IN SERVICE", "COUNTY": "PROWERS", "COUNTYFIPS": "08099", "COUNTRY": "USA", "LATITUDE": 37.750768, "LONGITUDE": -102.745361, "NAICS_CODE": "486210", "NAICS_DESC": "BOOSTER PUMPING STATION, NATURAL GAS TRANSPORTATION", "SOURCE": "EPA ENVIROFACTS, FERC FORM 2, CORPORATE WEBSITE", "SOURCEDATE": "Wed, 15 Jul 2020 00:00:00 GMT", "VAL_METHOD": "IMAGERY/OTHER", "VAL_DATE": "Fri, 17 Jun 2022 00:00:00 GMT", "WEBSITE": "https://pipeportal.kindermorgan.com/portalui/DefaultKM.aspx?TSP=CIGD", "PIPECO": "COLORADO INTERSTATE GAS COMPANY L.L.C.", "COMPID": "32", "OPERATOR": "COLORADO INTERSTATE GAS COMPANY L.L.C.", "POSREL": "WITHIN 40 FEET", "NUM_UNITS": 4, "CERT_HP": 5400, "PLANT_COST": 8775208, "EXP_FUEL": 160418, "EXP_OTHER": 490824, "GAS_COMPRE": 99483, "OP_COMP_HR": 10788, "OP_NUM_COM": 3, "OP_DATE_PE": "Tue, 05 May 2020 00:00:00 GMT", "EXP_POWER": 0, "ELEC_COMPR": 0 }, "geometry": { "type": "Point", "coordinates": [ -102.745360999656313, 37.7507679989846 ] } },
{ "type": "Feature", "properties": { "OBJECTID": 1772, "GCOMPID": "GCOMP1776", "NAME": "LEFTHAND NO. 2", "ADDRESS": "3073 US-287", "CITY": "EADS", "STATE": "CO", "ZIP": "81036", "ZIP4": "NOT APPLICABLE", "TYPE": "NATURAL GAS COMPRESSOR STATION", "STATUS": "IN SERVICE", "COUNTY": "CHEYENNE", "COUNTYFIPS": "08017", "COUNTRY": "USA", "LATITUDE": 38.659720522999997, "LONGITUDE": -102.78854678, "NAICS_CODE": "486210", "NAICS_DESC": "BOOSTER PUMPING STATION, NATURAL GAS TRANSPORTATION", "SOURCE": "FERC FORM 2, CORPORATE WEBSITE", "SOURCEDATE": "Wed, 15 Jul 2020 00:00:00 GMT", "VAL_METHOD": "IMAGERY/OTHER", "VAL_DATE": "Fri, 17 Jun 2022 00:00:00 GMT", "WEBSITE": "https://pipeportal.kindermorgan.com/portalui/DefaultKM.aspx?TSP=CIGD", "PIPECO": "COLORADO INTERSTATE GAS COMPANY L.L.C.", "COMPID": "32", "OPERATOR": "COLORADO INTERSTATE GAS COMPANY L.L.C.", "POSREL": "WITHIN 40 FEET", "NUM_UNITS": -999, "CERT_HP": -999, "PLANT_COST": -999, "EXP_FUEL": -999, "EXP_OTHER": -999, "GAS_COMPRE": -999, "OP_COMP_HR": -999, "OP_NUM_COM": -999, "OP_DATE_PE": null, "EXP_POWER": 0, "ELEC_COMPR": 0 }, "geometry": { "type": "Point", "coordinates": [ -102.788546775995442, 38.659720523149261 ] } },
{ "type": "Feature", "properties": { "OBJECTID": 1773, "GCOMPID": "GCOMP1775", "NAME": "DRENNAN ROAD AIR INJECTION", "ADDRESS": "6845-7899 DRENNAN ROAD", "CITY": "COLORADO SPRINGS", "STATE": "CO", "ZIP": "80925", "ZIP4": "NOT APPLICABLE", "TYPE": "NATURAL GAS COMPRESSOR STATION", "STATUS": "IN SERVICE", "COUNTY": "EL PASO", "COUNTYFIPS": "08041", "COUNTRY": "USA", "LATITUDE": 38.780216858000003, "LONGITUDE": -104.67401839, "NAICS_CODE": "486210", "NAICS_DESC": "BOOSTER PUMPING STATION, NATURAL GAS TRANSPORTATION", "SOURCE": "FERC FORM 2, CORPORATE WEBSITE", "SOURCEDATE": "Wed, 15 Jul 2020 00:00:00 GMT", "VAL_METHOD": "IMAGERY/OTHER", "VAL_DATE": "Fri, 17 Jun 2022 00:00:00 GMT", "WEBSITE": "https://pipeportal.kindermorgan.com/portalui/DefaultKM.aspx?TSP=CIGD", "PIPECO": "COLORADO INTERSTATE GAS COMPANY L.L.C.", "COMPID": "32", "OPERATOR": "COLORADO INTERSTATE GAS COMPANY L.L.C.", "POSREL": "WITHIN 40 FEET", "NUM_UNITS": -999, "CERT_HP": -999, "PLANT_COST": -999, "EXP_FUEL": -999, "EXP_OTHER": -999, "GAS_COMPRE": -999, "OP_COMP_HR": -999, "OP_NUM_COM": -999, "OP_DATE_PE": null, "EXP_POWER": 0, "ELEC_COMPR": 0 }, "geometry": { "type": "Point", "coordinates": [ -104.674018393765152, 38.780216856118194 ] } }
]
}
