{
"type": "FeatureCollection",
"name": "P0169-compressor-stations",
"crs": { "type": "name", "properties": { "name": "urn:ogc:def:crs:OGC:1.3:CRS84" } },
"features": [
{ "type": "Feature", "properties": { "OBJECTID": 16, "GCOMPID": "GCOMP1011", "NAME": "ARTEMAS #1", "ADDRESS": "CROOKED RUN ROAD AND ARTEMAS ROAD", "CITY": "ARTEMAS", "STATE": "PA", "ZIP": "17211", "ZIP4": "NOT AVAILABLE", "TYPE": "NATURAL GAS COMPRESSOR STATION", "STATUS": "IN SERVICE", "COUNTY": "BEDFORD", "COUNTYFIPS": "42009", "COUNTRY": "USA", "LATITUDE": 39.725891113000003, "LONGITUDE": -78.421508789000001, "NAICS_CODE": "486210", "NAICS_DESC": "BOOSTER PUMPING STATION, NATURAL GAS TRANSPORTATION", "SOURCE": "EPA ENVIROFACTS, FERC FORM 2, CORPORATE WEBSITE", "SOURCEDATE": "Wed, 30 Sep 2015 00:00:00 GMT", "VAL_METHOD": "IMAGERY/OTHER", "VAL_DATE": "Fri, 17 Jun 2022 00:00:00 GMT", "WEBSITE": "http://www.columbiapipeinfo.com/", "PIPECO": "COLUMBIA GAS TRANSMISSION L.L.C.", "COMPID": "21", "OPERATOR": "COLUMBIA GAS TRANSMISSION L.L.C.", "POSREL": "WITHIN 40 FEET", "NUM_UNITS": 5, "CERT_HP": 7670, "PLANT_COST": 18071467, "EXP_FUEL": 0, "EXP_OTHER": 24091, "GAS_COMPRE": 0, "OP_COMP_HR": 8900, "OP_NUM_COM": 5, "OP_DATE_PE": "Wed, 19 Aug 2020 00:00:00 GMT", "EXP_POWER": 39695, "ELEC_COMPR": 0 }, "geometry": { "type": "Point", "coordinates": [ -78.421508789000015, 39.72589111300006 ] } },
{ "type": "Feature", "properties": { "OBJECTID": 17, "GCOMPID": "GCOMP1012", "NAME": "ARTEMAS #2", "ADDRESS": "CROOKED RUN ROAD AND ARTEMAS ROAD", "CITY": "ARTEMAS", "STATE": "PA", "ZIP": "17211", "ZIP4": "NOT AVAILABLE", "TYPE": "NATURAL GAS COMPRESSOR STATION", "STATUS": "IN SERVICE", "COUNTY": "BEDFORD", "COUNTYFIPS": "42009", "COUNTRY": "USA", "LATITUDE": 39.725820957000103, "LONGITUDE": -78.421636899000006, "NAICS_CODE": "486210", "NAICS_DESC": "BOOSTER PUMPING STATION, NATURAL GAS TRANSPORTATION", "SOURCE": "EPA ENVIROFACTS, FERC FORM 2, CORPORATE WEBSITE", "SOURCEDATE": "Tue, 29 Sep 2015 00:00:00 GMT", "VAL_METHOD": "IMAGERY/OTHER", "VAL_DATE": "Fri, 17 Jun 2022 00:00:00 GMT", "WEBSITE": "http://www.columbiapipeinfo.com/", "PIPECO": "COLUMBIA GAS TRANSMISSION L.L.C.", "COMPID": "21", "OPERATOR": "COLUMBIA GAS TRANSMISSION L.L.C.", "POSREL": "WITHIN 40 FEET", "NUM_UNITS": 3, "CERT_HP": 3670, "PLANT_COST": 2618898, "EXP_FUEL": 0, "EXP_OTHER": 0, "GAS_COMPRE": 0, "OP_COMP_HR": 0, "OP_NUM_COM": 0, "OP_DATE_PE": "Fri, 31 Jan 2020 00:00:00 GMT", "EXP_POWER": 0, "ELEC_COMPR": 0 }, "geometry": { "type": "Point", "coordinates": [ -78.421636898999964, 39.725820957000053 ] } },
{ "type": "Feature", "properties": { "OBJECTID": 50, "GCOMPID": "GCOMP1042", "NAME": "FILES CREEK", "ADDRESS": "FILES CREEK ROAD", "CITY": "BEVERLY", "STATE": "WV", "ZIP": "26253", "ZIP4": "NOT AVAILABLE", "TYPE": "NATURAL GAS COMPRESSOR STATION", "STATUS": "IN SERVICE", "COUNTY": "RANDOLPH", "COUNTYFIPS": "54083", "COUNTRY": "USA", "LATITUDE": 38.82067, "LONGITUDE": -79.835632, "NAICS_CODE": "486210", "NAICS_DESC": "BOOSTER PUMPING STATION, NATURAL GAS TRANSPORTATION", "SOURCE": "EPA ENVIROFACTS, FERC FORM 2, CORPORATE WEBSITE", "SOURCEDATE": "Wed, 15 Jul 2020 00:00:00 GMT", "VAL_METHOD": "IMAGERY/OTHER", "VAL_DATE": "Fri, 17 Jun 2022 00:00:00 GMT", "WEBSITE": "http://www.columbiapipeinfo.com/", "PIPECO": "COLUMBIA GAS TRANSMISSION L.L.C.", "COMPID": "21", "OPERATOR": "COLUMBIA GAS TRANSMISSION L.L.C.", "POSREL": "WITHIN 40 FEET", "NUM_UNITS": 4, "CERT_HP": 45660, "PLANT_COST": 134296648, "EXP_FUEL": 1933060, "EXP_OTHER": 713480, "GAS_COMPRE": 1169122, "OP_COMP_HR": 16190, "OP_NUM_COM": 3, "OP_DATE_PE": "Sun, 05 Jan 2020 00:00:00 GMT", "EXP_POWER": 61801, "ELEC_COMPR": 0 }, "geometry": { "type": "Point", "coordinates": [ -79.835632, 38.82067 ] } },
{ "type": "Feature", "properties": { "OBJECTID": 53, "GCOMPID": "GCOMP1045", "NAME": "ADALINE", "ADDRESS": "FISH CREEK AND GREENFIELD RIDGE", "CITY": "ADALINE", "STATE": "WV", "ZIP": "26033", "ZIP4": "NOT AVAILABLE", "TYPE": "NATURAL GAS COMPRESSOR STATION", "STATUS": "IN SERVICE", "COUNTY": "MARSHALL", "COUNTYFIPS": "54051", "COUNTRY": "USA", "LATITUDE": 39.765830109244398, "LONGITUDE": -80.644991562641394, "NAICS_CODE": "486210", "NAICS_DESC": "BOOSTER PUMPING STATION, NATURAL GAS TRANSPORTATION", "SOURCE": "EPA ENVIROFACTS, FERC FORM 2, CORPORATE WEBSITE", "SOURCEDATE": "Wed, 15 Jul 2020 00:00:00 GMT", "VAL_METHOD": "IMAGERY/OTHER", "VAL_DATE": "Fri, 24 Jun 2022 00:00:00 GMT", "WEBSITE": "http://www.columbiapipeinfo.com/", "PIPECO": "COLUMBIA GAS TRANSMISSION L.L.C.", "COMPID": "21", "OPERATOR": "COLUMBIA GAS TRANSMISSION L.L.C.", "POSREL": "WITHIN 40 FEET", "NUM_UNITS": 6, "CERT_HP": 7720, "PLANT_COST": 17768172, "EXP_FUEL": 179068, "EXP_OTHER": 32425, "GAS_COMPRE": 113635, "OP_COMP_HR": 11979, "OP_NUM_COM": 5, "OP_DATE_PE": "Fri, 12 Jun 2020 00:00:00 GMT", "EXP_POWER": 0, "ELEC_COMPR": 0 }, "geometry": { "type": "Point", "coordinates": [ -80.644991562999962, 39.765830109000049 ] } },
{ "type": "Feature", "properties": { "OBJECTID": 68, "GCOMPID": "GCOMP1059", "NAME": "MCCLELLANDTOWN", "ADDRESS": "GANS ROAD/LAKE LYNN ROAD", "CITY": "MC CLELLANDTOWN", "STATE": "PA", "ZIP": "15458", "ZIP4": "NOT AVAILABLE", "TYPE": "NATURAL GAS COMPRESSOR STATION", "STATUS": "IN SERVICE", "COUNTY": "FAYETTE", "COUNTYFIPS": "42051", "COUNTRY": "USA", "LATITUDE": 39.74766, "LONGITUDE": -79.838581, "NAICS_CODE": "486210", "NAICS_DESC": "BOOSTER PUMPING STATION, NATURAL GAS TRANSPORTATION", "SOURCE": "EPA ENVIROFACTS, FERC FORM 2, CORPORATE WEBSITE", "SOURCEDATE": "Wed, 04 Nov 2015 00:00:00 GMT", "VAL_METHOD": "IMAGERY/OTHER", "VAL_DATE": "Fri, 17 Jun 2022 00:00:00 GMT", "WEBSITE": "http://www.columbiapipeinfo.com/", "PIPECO": "COLUMBIA GAS TRANSMISSION L.L.C.", "COMPID": "21", "OPERATOR": "COLUMBIA GAS TRANSMISSION L.L.C.", "POSREL": "WITHIN 40 FEET", "NUM_UNITS": 1, "CERT_HP": 225, "PLANT_COST": 199456, "EXP_FUEL": 0, "EXP_OTHER": 4075, "GAS_COMPRE": 0, "OP_COMP_HR": 0, "OP_NUM_COM": 0, "OP_DATE_PE": "Wed, 01 Jan 2020 00:00:00 GMT", "EXP_POWER": 194, "ELEC_COMPR": 0 }, "geometry": { "type": "Point", "coordinates": [ -79.838581, 39.74766 ] } },
{ "type": "Feature", "properties": { "OBJECTID": 74, "GCOMPID": "GCOMP1064", "NAME": "GETTYSBURG", "ADDRESS": "GRANITE STATION ROAD AND GREENAMYER LANE", "CITY": "HUNTERSTOWN", "STATE": "PA", "ZIP": "17325", "ZIP4": "NOT AVAILABLE", "TYPE": "NATURAL GAS COMPRESSOR STATION", "STATUS": "IN SERVICE", "COUNTY": "ADAMS", "COUNTYFIPS": "42001", "COUNTRY": "USA", "LATITUDE": 39.864502, "LONGITUDE": -77.161215, "NAICS_CODE": "486210", "NAICS_DESC": "BOOSTER PUMPING STATION, NATURAL GAS TRANSPORTATION", "SOURCE": "EPA ENVIROFACTS, FERC FORM 2, CORPORATE WEBSITE", "SOURCEDATE": "Tue, 29 Sep 2015 00:00:00 GMT", "VAL_METHOD": "IMAGERY/OTHER", "VAL_DATE": "Fri, 17 Jun 2022 00:00:00 GMT", "WEBSITE": "http://www.columbiapipeinfo.com/", "PIPECO": "COLUMBIA GAS TRANSMISSION L.L.C.", "COMPID": "21", "OPERATOR": "COLUMBIA GAS TRANSMISSION L.L.C.", "POSREL": "WITHIN 40 FEET", "NUM_UNITS": 5, "CERT_HP": 7210, "PLANT_COST": 34389223, "EXP_FUEL": 275470, "EXP_OTHER": 319036, "GAS_COMPRE": 160083, "OP_COMP_HR": 6284, "OP_NUM_COM": 4, "OP_DATE_PE": "Tue, 07 Jan 2020 00:00:00 GMT", "EXP_POWER": 11624, "ELEC_COMPR": 0 }, "geometry": { "type": "Point", "coordinates": [ -77.161215, 39.864502 ] } },
{ "type": "Feature", "properties": { "OBJECTID": 75, "GCOMPID": "GCOMP1065", "NAME": "GRANT", "ADDRESS": "GRANT BRANCH ROAD AND US-52", "CITY": "DELBARTON", "STATE": "WV", "ZIP": "25670", "ZIP4": "NOT AVAILABLE", "TYPE": "NATURAL GAS COMPRESSOR STATION", "STATUS": "IN SERVICE", "COUNTY": "MINGO", "COUNTYFIPS": "54059", "COUNTRY": "USA", "LATITUDE": 37.65455, "LONGITUDE": -82.035734, "NAICS_CODE": "486210", "NAICS_DESC": "BOOSTER PUMPING STATION, NATURAL GAS TRANSPORTATION", "SOURCE": "EPA ENVIROFACTS, FERC FORM 2, CORPORATE WEBSITE", "SOURCEDATE": "Wed, 15 Jul 2020 00:00:00 GMT", "VAL_METHOD": "IMAGERY/OTHER", "VAL_DATE": "Fri, 17 Jun 2022 00:00:00 GMT", "WEBSITE": "http://www.columbiapipeinfo.com/", "PIPECO": "COLUMBIA GAS TRANSMISSION L.L.C.", "COMPID": "21", "OPERATOR": "COLUMBIA GAS TRANSMISSION L.L.C.", "POSREL": "WITHIN 40 FEET", "NUM_UNITS": 2, "CERT_HP": 9000, "PLANT_COST": 19339276, "EXP_FUEL": 0, "EXP_OTHER": 243274, "GAS_COMPRE": 0, "OP_COMP_HR": 9432, "OP_NUM_COM": 2, "OP_DATE_PE": "Wed, 15 Apr 2020 00:00:00 GMT", "EXP_POWER": 2703385, "ELEC_COMPR": 48395160 }, "geometry": { "type": "Point", "coordinates": [ -82.035734, 37.65455 ] } },
{ "type": "Feature", "properties": { "OBJECTID": 113, "GCOMPID": "GCOMP110", "NAME": "CLENDENIN", "ADDRESS": "120 WEST UNION RIDGE ROAD", "CITY": "CLENDENIN", "STATE": "WV", "ZIP": "25045", "ZIP4": "NOT AVAILABLE", "TYPE": "NATURAL GAS COMPRESSOR STATION", "STATUS": "IN SERVICE", "COUNTY": "KANAWHA", "COUNTYFIPS": "54039", "COUNTRY": "USA", "LATITUDE": 38.495149, "LONGITUDE": -81.312271, "NAICS_CODE": "486210", "NAICS_DESC": "BOOSTER PUMPING STATION, NATURAL GAS TRANSPORTATION", "SOURCE": "EPA ENVIROFACTS, FERC FORM 2, CORPORATE WEBSITE", "SOURCEDATE": "Wed, 15 Jul 2020 00:00:00 GMT", "VAL_METHOD": "IMAGERY/OTHER", "VAL_DATE": "Fri, 17 Jun 2022 00:00:00 GMT", "WEBSITE": "http://www.columbiapipeinfo.com/", "PIPECO": "COLUMBIA GAS TRANSMISSION L.L.C.", "COMPID": "21", "OPERATOR": "COLUMBIA GAS TRANSMISSION L.L.C.", "POSREL": "WITHIN 40 FEET", "NUM_UNITS": 7, "CERT_HP": 29850, "PLANT_COST": 86885542, "EXP_FUEL": 190594, "EXP_OTHER": 1064233, "GAS_COMPRE": 122479, "OP_COMP_HR": 19862, "OP_NUM_COM": 3, "OP_DATE_PE": "Mon, 01 Jun 2020 00:00:00 GMT", "EXP_POWER": 1510589, "ELEC_COMPR": 17018000 }, "geometry": { "type": "Point", "coordinates": [ -81.312271, 38.495149 ] } },
{ "type": "Feature", "properties": { "OBJECTID": 115, "GCOMPID": "GCOMP1101", "NAME": "HUBBALL", "ADDRESS": "HUBALL ROAD AND 6 MILE CREEK ROAD", "CITY": "BRANCHLAND", "STATE": "WV", "ZIP": "25506", "ZIP4": "NOT AVAILABLE", "TYPE": "NATURAL GAS COMPRESSOR STATION", "STATUS": "IN SERVICE", "COUNTY": "LINCOLN", "COUNTYFIPS": "54043", "COUNTRY": "USA", "LATITUDE": 38.201847747000002, "LONGITUDE": -82.187561418000001, "NAICS_CODE": "486210", "NAICS_DESC": "BOOSTER PUMPING STATION, NATURAL GAS TRANSPORTATION", "SOURCE": "FERC FORM 2, IMAGERY", "SOURCEDATE": "Wed, 15 Jul 2020 00:00:00 GMT", "VAL_METHOD": "IMAGERY/OTHER", "VAL_DATE": "Fri, 17 Jun 2022 00:00:00 GMT", "WEBSITE": "http://www.columbiapipeinfo.com/", "PIPECO": "COLUMBIA GAS TRANSMISSION L.L.C.", "COMPID": "21", "OPERATOR": "COLUMBIA GAS TRANSMISSION L.L.C.", "POSREL": "WITHIN 40 FEET", "NUM_UNITS": 2, "CERT_HP": 2640, "PLANT_COST": 9303359, "EXP_FUEL": 118508, "EXP_OTHER": 399411, "GAS_COMPRE": 72715, "OP_COMP_HR": 8680, "OP_NUM_COM": 2, "OP_DATE_PE": "Tue, 19 May 2020 00:00:00 GMT", "EXP_POWER": 31731, "ELEC_COMPR": 0 }, "geometry": { "type": "Point", "coordinates": [ -82.18756141799993, 38.201847747000024 ] } },
{ "type": "Feature", "properties": { "OBJECTID": 117, "GCOMPID": "GCOMP1103", "NAME": "BOLDMAN", "ADDRESS": "HURRICANE ROAD AND PORTER ROAD", "CITY": "BOLDMAN", "STATE": "KY", "ZIP": "41635", "ZIP4": "NOT AVAILABLE", "TYPE": "NATURAL GAS COMPRESSOR STATION", "STATUS": "IN SERVICE", "COUNTY": "PIKE", "COUNTYFIPS": "21195", "COUNTRY": "USA", "LATITUDE": 37.531712, "LONGITUDE": -82.616386, "NAICS_CODE": "486210", "NAICS_DESC": "BOOSTER PUMPING STATION, NATURAL GAS TRANSPORTATION", "SOURCE": "EPA ENVIROFACTS, FERC FORM 2, CORPORATE WEBSITE", "SOURCEDATE": "Wed, 15 Jul 2020 00:00:00 GMT", "VAL_METHOD": "IMAGERY/OTHER", "VAL_DATE": "Fri, 17 Jun 2022 00:00:00 GMT", "WEBSITE": "http://www.columbiapipeinfo.com/", "PIPECO": "COLUMBIA GAS TRANSMISSION L.L.C.", "COMPID": "21", "OPERATOR": "COLUMBIA GAS TRANSMISSION L.L.C.", "POSREL": "WITHIN 40 FEET", "NUM_UNITS": 4, "CERT_HP": 6000, "PLANT_COST": 11423103, "EXP_FUEL": 311709, "EXP_OTHER": 723624, "GAS_COMPRE": 191483, "OP_COMP_HR": 16408, "OP_NUM_COM": 2, "OP_DATE_PE": "Sat, 01 Aug 2020 00:00:00 GMT", "EXP_POWER": 35293, "ELEC_COMPR": 0 }, "geometry": { "type": "Point", "coordinates": [ -82.616386, 37.531712 ] } },
{ "type": "Feature", "properties": { "OBJECTID": 122, "GCOMPID": "GCOMP1108", "NAME": "SEDALIA", "ADDRESS": "HIGHWAY 23 AND ROUNDBOTTOM ROAD", "CITY": "SEDALIA", "STATE": "WV", "ZIP": "26339", "ZIP4": "NOT AVAILABLE", "TYPE": "NATURAL GAS COMPRESSOR STATION", "STATUS": "IN SERVICE", "COUNTY": "DODDRIDGE", "COUNTYFIPS": "54017", "COUNTRY": "USA", "LATITUDE": 39.369922, "LONGITUDE": -80.5996, "NAICS_CODE": "486210", "NAICS_DESC": "BOOSTER PUMPING STATION, NATURAL GAS TRANSPORTATION", "SOURCE": "EPA ENVIROFACTS, FERC FORM 2, CORPORATE WEBSITE", "SOURCEDATE": "Wed, 15 Jul 2020 00:00:00 GMT", "VAL_METHOD": "IMAGERY/OTHER", "VAL_DATE": "Fri, 17 Jun 2022 00:00:00 GMT", "WEBSITE": "http://www.columbiapipeinfo.com/", "PIPECO": "COLUMBIA GAS TRANSMISSION L.L.C.", "COMPID": "21", "OPERATOR": "COLUMBIA GAS TRANSMISSION L.L.C.", "POSREL": "WITHIN 40 FEET", "NUM_UNITS": 1, "CERT_HP": 350, "PLANT_COST": 249222, "EXP_FUEL": 0, "EXP_OTHER": 20, "GAS_COMPRE": 0, "OP_COMP_HR": 0, "OP_NUM_COM": 0, "OP_DATE_PE": "Wed, 01 Jan 2020 00:00:00 GMT", "EXP_POWER": 0, "ELEC_COMPR": 0 }, "geometry": { "type": "Point", "coordinates": [ -80.5996, 39.369922 ] } },
{ "type": "Feature", "properties": { "OBJECTID": 125, "GCOMPID": "GCOMP1110", "NAME": "SENECA", "ADDRESS": "HIGHWAY 28 AND HIGHWAY 33", "CITY": "SENECA ROCKS", "STATE": "WV", "ZIP": "26884", "ZIP4": "NOT AVAILABLE", "TYPE": "NATURAL GAS COMPRESSOR STATION", "STATUS": "IN SERVICE", "COUNTY": "PENDLETON", "COUNTYFIPS": "54071", "COUNTRY": "USA", "LATITUDE": 38.848854488000001, "LONGITUDE": -79.375991622000001, "NAICS_CODE": "486210", "NAICS_DESC": "BOOSTER PUMPING STATION, NATURAL GAS TRANSPORTATION", "SOURCE": "EPA ENVIROFACTS, FERC FORM 2, CORPORATE WEBSITE", "SOURCEDATE": "Wed, 15 Jul 2020 00:00:00 GMT", "VAL_METHOD": "IMAGERY/OTHER", "VAL_DATE": "Fri, 17 Jun 2022 00:00:00 GMT", "WEBSITE": "http://www.columbiapipeinfo.com/", "PIPECO": "COLUMBIA GAS TRANSMISSION L.L.C.", "COMPID": "21", "OPERATOR": "COLUMBIA GAS TRANSMISSION L.L.C.", "POSREL": "WITHIN 40 FEET", "NUM_UNITS": 6, "CERT_HP": 43575, "PLANT_COST": 152510828, "EXP_FUEL": 1067885, "EXP_OTHER": 641086, "GAS_COMPRE": 620489, "OP_COMP_HR": 9146, "OP_NUM_COM": 4, "OP_DATE_PE": "Thu, 17 Dec 2020 00:00:00 GMT", "EXP_POWER": 32891, "ELEC_COMPR": 0 }, "geometry": { "type": "Point", "coordinates": [ -79.375991621999916, 38.848854488 ] } },
{ "type": "Feature", "properties": { "OBJECTID": 141, "GCOMPID": "GCOMP1125", "NAME": "INVERNESS", "ADDRESS": "INVERNESS ROAD/EAST OF RAWLAND", "CITY": "BELZONI", "STATE": "MS", "ZIP": "39038", "ZIP4": "NOT AVAILABLE", "TYPE": "NATURAL GAS COMPRESSOR STATION", "STATUS": "IN SERVICE", "COUNTY": "HUMPHREYS", "COUNTYFIPS": "28053", "COUNTRY": "USA", "LATITUDE": 33.312587072, "LONGITUDE": -90.5271721, "NAICS_CODE": "486210", "NAICS_DESC": "BOOSTER PUMPING STATION, NATURAL GAS TRANSPORTATION", "SOURCE": "EPA ENVIROFACTS, FERC FORM 2, CORPORATE WEBSITE", "SOURCEDATE": "Wed, 15 Jul 2020 00:00:00 GMT", "VAL_METHOD": "IMAGERY/OTHER", "VAL_DATE": "Fri, 17 Jun 2022 00:00:00 GMT", "WEBSITE": "http://www.columbiapipeinfo.com/", "PIPECO": "COLUMBIA GAS TRANSMISSION L.L.C.", "COMPID": "70", "OPERATOR": "COLUMBIA GAS TRANSMISSION L.L.C.", "POSREL": "WITHIN 40 FEET", "NUM_UNITS": 6, "CERT_HP": 48050, "PLANT_COST": 46971772, "EXP_FUEL": 4058631, "EXP_OTHER": 989540, "GAS_COMPRE": 1998064, "OP_COMP_HR": 28622, "OP_NUM_COM": 5, "OP_DATE_PE": "Mon, 06 Jan 2020 00:00:00 GMT", "EXP_POWER": 0, "ELEC_COMPR": 0 }, "geometry": null },
{ "type": "Feature", "properties": { "OBJECTID": 142, "GCOMPID": "GCOMP1126", "NAME": "CRESTON", "ADDRESS": "JORDAN ROAD AND EAST BAUM STREET", "CITY": "CRESTON", "STATE": "OH", "ZIP": "44217", "ZIP4": "NOT AVAILABLE", "TYPE": "NATURAL GAS COMPRESSOR STATION", "STATUS": "IN SERVICE", "COUNTY": "WAYNE", "COUNTYFIPS": "39169", "COUNTRY": "USA", "LATITUDE": 40.974737, "LONGITUDE": -81.879985, "NAICS_CODE": "486210", "NAICS_DESC": "BOOSTER PUMPING STATION, NATURAL GAS TRANSPORTATION", "SOURCE": "EPA ENVIROFACTS, FERC FORM 2, CORPORATE WEBSITE", "SOURCEDATE": "Wed, 15 Jul 2020 00:00:00 GMT", "VAL_METHOD": "IMAGERY/OTHER", "VAL_DATE": "Fri, 17 Jun 2022 00:00:00 GMT", "WEBSITE": "http://www.columbiapipeinfo.com/", "PIPECO": "COLUMBIA GAS TRANSMISSION L.L.C.", "COMPID": "21", "OPERATOR": "COLUMBIA GAS TRANSMISSION L.L.C.", "POSREL": "WITHIN 40 FEET", "NUM_UNITS": 0, "CERT_HP": 0, "PLANT_COST": 401050, "EXP_FUEL": 0, "EXP_OTHER": 0, "GAS_COMPRE": 0, "OP_COMP_HR": 0, "OP_NUM_COM": 0, "OP_DATE_PE": "Wed, 01 Jan 2020 00:00:00 GMT", "EXP_POWER": 0, "ELEC_COMPR": 0 }, "geometry": { "type": "Point", "coordinates": [ -81.879985, 40.974737 ] } },
{ "type": "Feature", "properties": { "OBJECTID": 145, "GCOMPID": "GCOMP1129", "NAME": "BUFF LICK", "ADDRESS": "KELLEYS CREEK ROAD AND LAUNA DRIVE", "CITY": "CEDAR GROVE", "STATE": "WV", "ZIP": "25039", "ZIP4": "NOT AVAILABLE", "TYPE": "NATURAL GAS COMPRESSOR STATION", "STATUS": "IN SERVICE", "COUNTY": "KANAWHA", "COUNTYFIPS": "54039", "COUNTRY": "USA", "LATITUDE": 38.238177, "LONGITUDE": -81.407401, "NAICS_CODE": "486210", "NAICS_DESC": "BOOSTER PUMPING STATION, NATURAL GAS TRANSPORTATION", "SOURCE": "FERC FORM 2, IMAGERY", "SOURCEDATE": "Wed, 15 Jul 2020 00:00:00 GMT", "VAL_METHOD": "IMAGERY/OTHER", "VAL_DATE": "Fri, 17 Jun 2022 00:00:00 GMT", "WEBSITE": "http://www.columbiapipeinfo.com/", "PIPECO": "COLUMBIA GAS TRANSMISSION L.L.C.", "COMPID": "21", "OPERATOR": "COLUMBIA GAS TRANSMISSION L.L.C.", "POSREL": "WITHIN 40 FEET", "NUM_UNITS": 1, "CERT_HP": 600, "PLANT_COST": 1241456, "EXP_FUEL": 59051, "EXP_OTHER": 126212, "GAS_COMPRE": 20955, "OP_COMP_HR": 8105, "OP_NUM_COM": 1, "OP_DATE_PE": "Wed, 01 Jan 2020 00:00:00 GMT", "EXP_POWER": 1200, "ELEC_COMPR": 0 }, "geometry": { "type": "Point", "coordinates": [ -81.407401, 38.238177 ] } },
{ "type": "Feature", "properties": { "OBJECTID": 146, "GCOMPID": "GCOMP113", "NAME": "DELMONT", "ADDRESS": "121B BEAVER RUN ROAD; 807 ADA LANE, DELMONT, PA 15626", "CITY": "DELMONT", "STATE": "PA", "ZIP": "15626", "ZIP4": "NOT AVAILABLE", "TYPE": "NATURAL GAS COMPRESSOR STATION", "STATUS": "IN SERVICE", "COUNTY": "WESTMORELAND", "COUNTYFIPS": "42129", "COUNTRY": "USA", "LATITUDE": 40.387081, "LONGITUDE": -79.563843, "NAICS_CODE": "486210", "NAICS_DESC": "BOOSTER PUMPING STATION, NATURAL GAS TRANSPORTATION", "SOURCE": "FERC FORM 2, IMAGERY", "SOURCEDATE": "Tue, 29 Sep 2015 00:00:00 GMT", "VAL_METHOD": "IMAGERY/OTHER", "VAL_DATE": "Fri, 17 Jun 2022 00:00:00 GMT", "WEBSITE": "http://www.columbiapipeinfo.com/", "PIPECO": "COLUMBIA GAS TRANSMISSION L.L.C.", "COMPID": "21", "OPERATOR": "COLUMBIA GAS TRANSMISSION L.L.C.", "POSREL": "NOTIONAL", "NUM_UNITS": 2, "CERT_HP": 1904, "PLANT_COST": 9343251, "EXP_FUEL": 18793, "EXP_OTHER": 432529, "GAS_COMPRE": 11594, "OP_COMP_HR": 1980, "OP_NUM_COM": 2, "OP_DATE_PE": "Thu, 04 Jun 2020 00:00:00 GMT", "EXP_POWER": 12409, "ELEC_COMPR": 0 }, "geometry": { "type": "Point", "coordinates": [ -79.563987127880637, 40.386102257752057 ] } },
{ "type": "Feature", "properties": { "OBJECTID": 153, "GCOMPID": "GCOMP1136", "NAME": "STATION CAMP", "ADDRESS": "KY ROUTE 1209/NW OF SEARCY BRANCH ROAD", "CITY": "STATION CAMP", "STATE": "KY", "ZIP": "40336", "ZIP4": "NOT AVAILABLE", "TYPE": "NATURAL GAS COMPRESSOR STATION", "STATUS": "IN SERVICE", "COUNTY": "ESTILL", "COUNTYFIPS": "21065", "COUNTRY": "USA", "LATITUDE": 37.604542, "LONGITUDE": -83.924517, "NAICS_CODE": "486210", "NAICS_DESC": "BOOSTER PUMPING STATION, NATURAL GAS TRANSPORTATION", "SOURCE": "CORPORATE WEBSITE, FERC FORM 2", "SOURCEDATE": "Wed, 15 Jul 2020 00:00:00 GMT", "VAL_METHOD": "IMAGERY/OTHER", "VAL_DATE": "Fri, 17 Jun 2022 00:00:00 GMT", "WEBSITE": "http://www.columbiapipeinfo.com/", "PIPECO": "COLUMBIA GAS TRANSMISSION L.L.C.", "COMPID": "21", "OPERATOR": "COLUMBIA GAS TRANSMISSION L.L.C.", "POSREL": "WITHIN 40 FEET", "NUM_UNITS": 4, "CERT_HP": 920, "PLANT_COST": 377576, "EXP_FUEL": 108545, "EXP_OTHER": 148813, "GAS_COMPRE": 66875, "OP_COMP_HR": 31599, "OP_NUM_COM": 4, "OP_DATE_PE": "Wed, 01 Jan 2020 00:00:00 GMT", "EXP_POWER": 0, "ELEC_COMPR": 0 }, "geometry": { "type": "Point", "coordinates": [ -83.924517, 37.604542 ] } },
{ "type": "Feature", "properties": { "OBJECTID": 173, "GCOMPID": "GCOMP1154", "NAME": "HUFF CREEK", "ADDRESS": "LITTLE HUFF CREEK AND HW 52", "CITY": "STEELES", "STATE": "WV", "ZIP": "24844", "ZIP4": "NOT AVAILABLE", "TYPE": "NATURAL GAS COMPRESSOR STATION", "STATUS": "IN SERVICE", "COUNTY": "WYOMING", "COUNTYFIPS": "54109", "COUNTRY": "USA", "LATITUDE": 37.551433, "LONGITUDE": -81.787426, "NAICS_CODE": "486210", "NAICS_DESC": "BOOSTER PUMPING STATION, NATURAL GAS TRANSPORTATION", "SOURCE": "EPA ENVIROFACTS, FERC FORM 2, CORPORATE WEBSITE", "SOURCEDATE": "Wed, 15 Jul 2020 00:00:00 GMT", "VAL_METHOD": "IMAGERY/OTHER", "VAL_DATE": "Fri, 17 Jun 2022 00:00:00 GMT", "WEBSITE": "http://www.columbiapipeinfo.com/", "PIPECO": "COLUMBIA GAS TRANSMISSION L.L.C.", "COMPID": "21", "OPERATOR": "COLUMBIA GAS TRANSMISSION L.L.C.", "POSREL": "WITHIN 40 FEET", "NUM_UNITS": 1, "CERT_HP": 3200, "PLANT_COST": 15228166, "EXP_FUEL": 217, "EXP_OTHER": 170055, "GAS_COMPRE": 106, "OP_COMP_HR": 7, "OP_NUM_COM": 1, "OP_DATE_PE": "Thu, 17 Dec 2020 00:00:00 GMT", "EXP_POWER": 39483, "ELEC_COMPR": 0 }, "geometry": { "type": "Point", "coordinates": [ -81.787426, 37.551433 ] } },
{ "type": "Feature", "properties": { "OBJECTID": 174, "GCOMPID": "GCOMP1155", "NAME": "GLENVILLE", "ADDRESS": "LITTLE KANAWHA PARKWAY (HIGHWAY-5)/ EAST OF MUD LICK ROAD JAKES RUN AND HIGHWAY 5", "CITY": "GLENVILLE", "STATE": "WV", "ZIP": "26351", "ZIP4": "NOT AVAILABLE", "TYPE": "NATURAL GAS COMPRESSOR STATION", "STATUS": "IN SERVICE", "COUNTY": "GILMER", "COUNTYFIPS": "54021", "COUNTRY": "USA", "LATITUDE": 38.927770434000003, "LONGITUDE": -80.772250013999994, "NAICS_CODE": "486210", "NAICS_DESC": "BOOSTER PUMPING STATION, NATURAL GAS TRANSPORTATION", "SOURCE": "FERC FORM 2, IMAGERY", "SOURCEDATE": "Wed, 15 Jul 2020 00:00:00 GMT", "VAL_METHOD": "IMAGERY/OTHER", "VAL_DATE": "Fri, 17 Jun 2022 00:00:00 GMT", "WEBSITE": "http://www.columbiapipeinfo.com/", "PIPECO": "COLUMBIA GAS TRANSMISSION L.L.C.", "COMPID": "21", "OPERATOR": "COLUMBIA GAS TRANSMISSION L.L.C.", "POSREL": "WITHIN 40 FEET", "NUM_UNITS": 7, "CERT_HP": 25600, "PLANT_COST": 66434988, "EXP_FUEL": 1916732, "EXP_OTHER": 844612, "GAS_COMPRE": 1180714, "OP_COMP_HR": 23919, "OP_NUM_COM": 6, "OP_DATE_PE": "Tue, 28 Apr 2020 00:00:00 GMT", "EXP_POWER": 78356, "ELEC_COMPR": 0 }, "geometry": { "type": "Point", "coordinates": [ -80.772250013999951, 38.927770434000017 ] } },
{ "type": "Feature", "properties": { "OBJECTID": 229, "GCOMPID": "GCOMP1204", "NAME": "KENOVA", "ADDRESS": "NOVAMONT ROAD/ COUNTY HIGHWAY 1/16", "CITY": "KENOVA", "STATE": "WV", "ZIP": "25530", "ZIP4": "NOT AVAILABLE", "TYPE": "NATURAL GAS COMPRESSOR STATION", "STATUS": "IN SERVICE", "COUNTY": "WAYNE", "COUNTYFIPS": "54099", "COUNTRY": "USA", "LATITUDE": 38.370881, "LONGITUDE": -82.592004, "NAICS_CODE": "486210", "NAICS_DESC": "BOOSTER PUMPING STATION, NATURAL GAS TRANSPORTATION", "SOURCE": "FERC FORM 2, IMAGERY", "SOURCEDATE": "Wed, 15 Jul 2020 00:00:00 GMT", "VAL_METHOD": "IMAGERY/OTHER", "VAL_DATE": "Fri, 17 Jun 2022 00:00:00 GMT", "WEBSITE": "http://www.columbiapipeinfo.com/", "PIPECO": "COLUMBIA GAS TRANSMISSION L.L.C.", "COMPID": "21", "OPERATOR": "COLUMBIA GAS TRANSMISSION L.L.C.", "POSREL": "WITHIN 40 FEET", "NUM_UNITS": 9, "CERT_HP": 16400, "PLANT_COST": 34632367, "EXP_FUEL": 795362, "EXP_OTHER": 1368207, "GAS_COMPRE": 484022, "OP_COMP_HR": 51388, "OP_NUM_COM": 7, "OP_DATE_PE": "Sun, 21 Jun 2020 00:00:00 GMT", "EXP_POWER": 1282920, "ELEC_COMPR": 22046400 }, "geometry": { "type": "Point", "coordinates": [ -82.592004, 38.370881 ] } },
{ "type": "Feature", "properties": { "OBJECTID": 256, "GCOMPID": "GCOMP1229", "NAME": "RIPLEY", "ADDRESS": "OLD US 21 PARKERSBURG ROAD AND STONEGATE ESTATES", "CITY": "RIPLEY", "STATE": "WV", "ZIP": "25271", "ZIP4": "NOT AVAILABLE", "TYPE": "NATURAL GAS COMPRESSOR STATION", "STATUS": "IN SERVICE", "COUNTY": "JACKSON", "COUNTYFIPS": "54035", "COUNTRY": "USA", "LATITUDE": 38.878005, "LONGITUDE": -81.690318, "NAICS_CODE": "486210", "NAICS_DESC": "BOOSTER PUMPING STATION, NATURAL GAS TRANSPORTATION", "SOURCE": "FERC FORM 2, IMAGERY", "SOURCEDATE": "Wed, 15 Jul 2020 00:00:00 GMT", "VAL_METHOD": "IMAGERY/OTHER", "VAL_DATE": "Fri, 17 Jun 2022 00:00:00 GMT", "WEBSITE": "http://www.columbiapipeinfo.com/", "PIPECO": "COLUMBIA GAS TRANSMISSION L.L.C.", "COMPID": "21", "OPERATOR": "COLUMBIA GAS TRANSMISSION L.L.C.", "POSREL": "WITHIN 40 FEET", "NUM_UNITS": 2, "CERT_HP": 4500, "PLANT_COST": 17930586, "EXP_FUEL": 119118, "EXP_OTHER": 15347, "GAS_COMPRE": 76668, "OP_COMP_HR": 5596, "OP_NUM_COM": 2, "OP_DATE_PE": "Sun, 09 Feb 2020 00:00:00 GMT", "EXP_POWER": 0, "ELEC_COMPR": 0 }, "geometry": { "type": "Point", "coordinates": [ -81.690318, 38.878005 ] } },
{ "type": "Feature", "properties": { "OBJECTID": 265, "GCOMPID": "GCOMP1237", "NAME": "HAMLIN", "ADDRESS": "PANTHER BRANCH ROAD/NORTH OF 6 MILE CREEK ROAD", "CITY": "BRANCHLAND", "STATE": "WV", "ZIP": "25506", "ZIP4": "NOT AVAILABLE", "TYPE": "NATURAL GAS COMPRESSOR STATION", "STATUS": "IN SERVICE", "COUNTY": "LINCOLN", "COUNTYFIPS": "54043", "COUNTRY": "USA", "LATITUDE": 38.198435, "LONGITUDE": -82.129711, "NAICS_CODE": "486210", "NAICS_DESC": "BOOSTER PUMPING STATION, NATURAL GAS TRANSPORTATION", "SOURCE": "EPA ENVIROFACTS, FERC FORM 2, CORPORATE WEBSITE", "SOURCEDATE": "Wed, 15 Jul 2020 00:00:00 GMT", "VAL_METHOD": "IMAGERY/OTHER", "VAL_DATE": "Fri, 17 Jun 2022 00:00:00 GMT", "WEBSITE": "http://www.columbiapipeinfo.com/", "PIPECO": "COLUMBIA GAS TRANSMISSION L.L.C.", "COMPID": "21", "OPERATOR": "COLUMBIA GAS TRANSMISSION L.L.C.", "POSREL": "WITHIN 40 FEET", "NUM_UNITS": 2, "CERT_HP": 9470, "PLANT_COST": 32514629, "EXP_FUEL": 60920, "EXP_OTHER": 177217, "GAS_COMPRE": 33617, "OP_COMP_HR": 1121, "OP_NUM_COM": 1, "OP_DATE_PE": "Tue, 07 Jan 2020 00:00:00 GMT", "EXP_POWER": 23073, "ELEC_COMPR": 0 }, "geometry": { "type": "Point", "coordinates": [ -82.129711, 38.19843500000011 ] } },
{ "type": "Feature", "properties": { "OBJECTID": 273, "GCOMPID": "GCOMP1244", "NAME": "LOUISA", "ADDRESS": "POINDEXTER ROAD AND BRICKHOUSE ROAD", "CITY": "LOUISA", "STATE": "VA", "ZIP": "23093", "ZIP4": "NOT AVAILABLE", "TYPE": "NATURAL GAS COMPRESSOR STATION", "STATUS": "IN SERVICE", "COUNTY": "LOUISA", "COUNTYFIPS": "51109", "COUNTRY": "USA", "LATITUDE": 38.008234, "LONGITUDE": -78.129274, "NAICS_CODE": "486210", "NAICS_DESC": "BOOSTER PUMPING STATION, NATURAL GAS TRANSPORTATION", "SOURCE": "EPA ENVIROFACTS, FERC FORM 2, CORPORATE WEBSITE", "SOURCEDATE": "Wed, 15 Jul 2020 00:00:00 GMT", "VAL_METHOD": "IMAGERY/OTHER", "VAL_DATE": "Fri, 17 Jun 2022 00:00:00 GMT", "WEBSITE": "http://www.columbiapipeinfo.com/", "PIPECO": "COLUMBIA GAS TRANSMISSION L.L.C.", "COMPID": "21", "OPERATOR": "COLUMBIA GAS TRANSMISSION L.L.C.", "POSREL": "WITHIN 40 FEET", "NUM_UNITS": 4, "CERT_HP": 6130, "PLANT_COST": 36714980, "EXP_FUEL": 121566, "EXP_OTHER": 191712, "GAS_COMPRE": 68427, "OP_COMP_HR": 1238, "OP_NUM_COM": 1, "OP_DATE_PE": "Tue, 07 Jan 2020 00:00:00 GMT", "EXP_POWER": 4209, "ELEC_COMPR": 0 }, "geometry": { "type": "Point", "coordinates": [ -78.129274, 38.008234 ] } },
{ "type": "Feature", "properties": { "OBJECTID": 292, "GCOMPID": "GCOMP1261", "NAME": "RENOVO", "ADDRESS": "RIGHT HAND YOUNG WOMANS CREEK ROAD AND FORK HILL ROAD", "CITY": "RENOVO", "STATE": "PA", "ZIP": "17764", "ZIP4": "NOT AVAILABLE", "TYPE": "NATURAL GAS COMPRESSOR STATION", "STATUS": "IN SERVICE", "COUNTY": "CLINTON", "COUNTYFIPS": "42035", "COUNTRY": "USA", "LATITUDE": 41.373864, "LONGITUDE": -77.696996, "NAICS_CODE": "486210", "NAICS_DESC": "BOOSTER PUMPING STATION, NATURAL GAS TRANSPORTATION", "SOURCE": "FERC FORM 2, IMAGERY", "SOURCEDATE": "Mon, 28 Sep 2015 00:00:00 GMT", "VAL_METHOD": "IMAGERY/OTHER", "VAL_DATE": "Fri, 17 Jun 2022 00:00:00 GMT", "WEBSITE": "http://www.columbiapipeinfo.com/", "PIPECO": "COLUMBIA GAS TRANSMISSION L.L.C.", "COMPID": "21", "OPERATOR": "COLUMBIA GAS TRANSMISSION L.L.C.", "POSREL": "WITHIN 40 FEET", "NUM_UNITS": 3, "CERT_HP": 1610, "PLANT_COST": 9416105, "EXP_FUEL": 37319, "EXP_OTHER": 749443, "GAS_COMPRE": 22710, "OP_COMP_HR": 6578, "OP_NUM_COM": 2, "OP_DATE_PE": "Fri, 25 Sep 2020 00:00:00 GMT", "EXP_POWER": 11676, "ELEC_COMPR": 0 }, "geometry": { "type": "Point", "coordinates": [ -77.696996, 41.373864 ] } },
{ "type": "Feature", "properties": { "OBJECTID": 296, "GCOMPID": "GCOMP1265", "NAME": "LANHAM", "ADDRESS": "ROCKY FORK ROAD AND KELLY'S CREEK", "CITY": "LANHAM", "STATE": "WV", "ZIP": "25159", "ZIP4": "NOT AVAILABLE", "TYPE": "NATURAL GAS COMPRESSOR STATION", "STATUS": "IN SERVICE", "COUNTY": "KANAWHA", "COUNTYFIPS": "54039", "COUNTRY": "USA", "LATITUDE": 38.477252, "LONGITUDE": -81.71042, "NAICS_CODE": "486210", "NAICS_DESC": "BOOSTER PUMPING STATION, NATURAL GAS TRANSPORTATION", "SOURCE": "FERC FORM 2, IMAGERY", "SOURCEDATE": "Wed, 15 Jul 2020 00:00:00 GMT", "VAL_METHOD": "IMAGERY/OTHER", "VAL_DATE": "Fri, 17 Jun 2022 00:00:00 GMT", "WEBSITE": "http://www.columbiapipeinfo.com/", "PIPECO": "COLUMBIA GAS TRANSMISSION L.L.C.", "COMPID": "21", "OPERATOR": "COLUMBIA GAS TRANSMISSION L.L.C.", "POSREL": "WITHIN 40 FEET", "NUM_UNITS": 10, "CERT_HP": 35016, "PLANT_COST": 61301851, "EXP_FUEL": 25854, "EXP_OTHER": 910770, "GAS_COMPRE": 16395, "OP_COMP_HR": 4340, "OP_NUM_COM": 2, "OP_DATE_PE": "Wed, 08 Jul 2020 00:00:00 GMT", "EXP_POWER": 3362264, "ELEC_COMPR": 36780625 }, "geometry": { "type": "Point", "coordinates": [ -81.71042, 38.477252 ] } },
{ "type": "Feature", "properties": { "OBJECTID": 302, "GCOMPID": "GCOMP1270", "NAME": "SMITHFIELD", "ADDRESS": "ROUTE 20 AND STOUT RUN", "CITY": "SMITHFIELD", "STATE": "WV", "ZIP": "26437", "ZIP4": "NOT AVAILABLE", "TYPE": "NATURAL GAS COMPRESSOR STATION", "STATUS": "IN SERVICE", "COUNTY": "WETZEL", "COUNTYFIPS": "54103", "COUNTRY": "USA", "LATITUDE": 39.48055688, "LONGITUDE": -80.538289769000002, "NAICS_CODE": "486210", "NAICS_DESC": "BOOSTER PUMPING STATION, NATURAL GAS TRANSPORTATION", "SOURCE": "EPA ENVIROFACTS, FERC FORM 2, CORPORATE WEBSITE", "SOURCEDATE": "Wed, 15 Jul 2020 00:00:00 GMT", "VAL_METHOD": "IMAGERY/OTHER", "VAL_DATE": "Fri, 17 Jun 2022 00:00:00 GMT", "WEBSITE": "http://www.columbiapipeinfo.com/", "PIPECO": "COLUMBIA GAS TRANSMISSION L.L.C.", "COMPID": "21", "OPERATOR": "COLUMBIA GAS TRANSMISSION L.L.C.", "POSREL": "WITHIN 40 FEET", "NUM_UNITS": 4, "CERT_HP": 14762, "PLANT_COST": 45325774, "EXP_FUEL": 187524, "EXP_OTHER": 649311, "GAS_COMPRE": 123838, "OP_COMP_HR": 2222, "OP_NUM_COM": 1, "OP_DATE_PE": "Tue, 04 Feb 2020 00:00:00 GMT", "EXP_POWER": 21232, "ELEC_COMPR": 0 }, "geometry": { "type": "Point", "coordinates": [ -80.53828976899996, 39.480556880000023 ] } },
{ "type": "Feature", "properties": { "OBJECTID": 304, "GCOMPID": "GCOMP1272", "NAME": "GLADY", "ADDRESS": "ROUTE 22 BEMIS ROAD", "CITY": "GLADY", "STATE": "WV", "ZIP": "26268", "ZIP4": "NOT AVAILABLE", "TYPE": "NATURAL GAS COMPRESSOR STATION", "STATUS": "IN SERVICE", "COUNTY": "RANDOLPH", "COUNTYFIPS": "54083", "COUNTRY": "USA", "LATITUDE": 38.781944, "LONGITUDE": -79.70472, "NAICS_CODE": "486210", "NAICS_DESC": "BOOSTER PUMPING STATION, NATURAL GAS TRANSPORTATION", "SOURCE": "FERC FORM 2, IMAGERY", "SOURCEDATE": "Wed, 15 Jul 2020 00:00:00 GMT", "VAL_METHOD": "IMAGERY/OTHER", "VAL_DATE": "Fri, 17 Jun 2022 00:00:00 GMT", "WEBSITE": "http://www.columbiapipeinfo.com/", "PIPECO": "COLUMBIA GAS TRANSMISSION L.L.C.", "COMPID": "21", "OPERATOR": "COLUMBIA GAS TRANSMISSION L.L.C.", "POSREL": "WITHIN 40 FEET", "NUM_UNITS": 3, "CERT_HP": 3960, "PLANT_COST": 16565410, "EXP_FUEL": 180469, "EXP_OTHER": 32079, "GAS_COMPRE": 117427, "OP_COMP_HR": 11851, "OP_NUM_COM": 3, "OP_DATE_PE": "Sat, 15 Feb 2020 00:00:00 GMT", "EXP_POWER": 0, "ELEC_COMPR": 0 }, "geometry": { "type": "Point", "coordinates": [ -79.70472, 38.781944 ] } },
{ "type": "Feature", "properties": { "OBJECTID": 324, "GCOMPID": "GCOMP1290", "NAME": "MALTA", "ADDRESS": "SCOTT PENN LANE AND ROY JANES ROAD SW", "CITY": "MALTA", "STATE": "OH", "ZIP": "43758", "ZIP4": "NOT AVAILABLE", "TYPE": "NATURAL GAS COMPRESSOR STATION", "STATUS": "IN SERVICE", "COUNTY": "MORGAN", "COUNTYFIPS": "39115", "COUNTRY": "USA", "LATITUDE": 39.595433, "LONGITUDE": -81.895976, "NAICS_CODE": "486210", "NAICS_DESC": "BOOSTER PUMPING STATION, NATURAL GAS TRANSPORTATION", "SOURCE": "EPA ENVIROFACTS, FERC FORM 2, CORPORATE WEBSITE", "SOURCEDATE": "Wed, 15 Jul 2020 00:00:00 GMT", "VAL_METHOD": "IMAGERY/OTHER", "VAL_DATE": "Fri, 17 Jun 2022 00:00:00 GMT", "WEBSITE": "http://www.columbiapipeinfo.com/", "PIPECO": "COLUMBIA GAS TRANSMISSION L.L.C.", "COMPID": "21", "OPERATOR": "COLUMBIA GAS TRANSMISSION L.L.C.", "POSREL": "WITHIN 40 FEET", "NUM_UNITS": 1, "CERT_HP": 360, "PLANT_COST": 552271, "EXP_FUEL": 0, "EXP_OTHER": 0, "GAS_COMPRE": 0, "OP_COMP_HR": 0, "OP_NUM_COM": 0, "OP_DATE_PE": "Wed, 01 Jan 2020 00:00:00 GMT", "EXP_POWER": 0, "ELEC_COMPR": 0 }, "geometry": { "type": "Point", "coordinates": [ -81.895976, 39.595433 ] } },
{ "type": "Feature", "properties": { "OBJECTID": 329, "GCOMPID": "GCOMP1295", "NAME": "EMPORIA", "ADDRESS": "SKIPPERS ROAD AND ROCK BRIDGE ROAD", "CITY": "EMPORIA", "STATE": "VA", "ZIP": "23847", "ZIP4": "NOT AVAILABLE", "TYPE": "NATURAL GAS COMPRESSOR STATION", "STATUS": "IN SERVICE", "COUNTY": "GREENSVILLE", "COUNTYFIPS": "51081", "COUNTRY": "USA", "LATITUDE": 36.636242, "LONGITUDE": -77.559825, "NAICS_CODE": "486210", "NAICS_DESC": "BOOSTER PUMPING STATION, NATURAL GAS TRANSPORTATION", "SOURCE": "EPA ENVIROFACTS, FERC FORM 2, CORPORATE WEBSITE", "SOURCEDATE": "Wed, 15 Jul 2020 00:00:00 GMT", "VAL_METHOD": "IMAGERY/OTHER", "VAL_DATE": "Fri, 17 Jun 2022 00:00:00 GMT", "WEBSITE": "http://www.columbiapipeinfo.com/", "PIPECO": "COLUMBIA GAS TRANSMISSION L.L.C.", "COMPID": "21", "OPERATOR": "COLUMBIA GAS TRANSMISSION L.L.C.", "POSREL": "WITHIN 40 FEET", "NUM_UNITS": 2, "CERT_HP": 1300, "PLANT_COST": 3742426, "EXP_FUEL": 0, "EXP_OTHER": 95944, "GAS_COMPRE": 0, "OP_COMP_HR": 0, "OP_NUM_COM": 1, "OP_DATE_PE": "Sun, 01 Nov 2020 00:00:00 GMT", "EXP_POWER": 8036, "ELEC_COMPR": 0 }, "geometry": { "type": "Point", "coordinates": [ -77.559825, 36.636242 ] } },
{ "type": "Feature", "properties": { "OBJECTID": 330, "GCOMPID": "GCOMP1296", "NAME": "BRUCETON MILLS", "ADDRESS": "SKYLINE DRIVE AND WIRSING SCHOOL ROAD", "CITY": "BRUCETON MILLS", "STATE": "WV", "ZIP": "26525", "ZIP4": "NOT AVAILABLE", "TYPE": "NATURAL GAS COMPRESSOR STATION", "STATUS": "IN SERVICE", "COUNTY": "PRESTON", "COUNTYFIPS": "54077", "COUNTRY": "USA", "LATITUDE": 39.720596, "LONGITUDE": -79.699416, "NAICS_CODE": "486210", "NAICS_DESC": "BOOSTER PUMPING STATION, NATURAL GAS TRANSPORTATION", "SOURCE": "EPA ENVIROFACTS, FERC FORM 2, CORPORATE WEBSITE", "SOURCEDATE": "Wed, 15 Jul 2020 00:00:00 GMT", "VAL_METHOD": "IMAGERY/OTHER", "VAL_DATE": "Fri, 17 Jun 2022 00:00:00 GMT", "WEBSITE": "http://www.columbiapipeinfo.com/", "PIPECO": "COLUMBIA GAS TRANSMISSION L.L.C.", "COMPID": "21", "OPERATOR": "COLUMBIA GAS TRANSMISSION L.L.C.", "POSREL": "WITHIN 40 FEET", "NUM_UNITS": 5, "CERT_HP": 5400, "PLANT_COST": 6788600, "EXP_FUEL": 229812, "EXP_OTHER": 308235, "GAS_COMPRE": 134733, "OP_COMP_HR": 9832, "OP_NUM_COM": 5, "OP_DATE_PE": "Wed, 01 Jan 2020 00:00:00 GMT", "EXP_POWER": 10131, "ELEC_COMPR": 0 }, "geometry": { "type": "Point", "coordinates": [ -79.699416, 39.720596 ] } },
{ "type": "Feature", "properties": { "OBJECTID": 334, "GCOMPID": "GCOMP13", "NAME": "HANCOCK", "ADDRESS": "0.8 MILES EAST OF HUNGRY HILL ROAD ALONG THE MILLENIUM PIPELINE ROW STAR ROUTE 2 SANDS CREEK ROAD", "CITY": "HANCOCK", "STATE": "NY", "ZIP": "26801", "ZIP4": "NOT AVAILABLE", "TYPE": "NATURAL GAS COMPRESSOR STATION", "STATUS": "IN SERVICE", "COUNTY": "DELAWARE", "COUNTYFIPS": "36025", "COUNTRY": "USA", "LATITUDE": 41.876950926, "LONGITUDE": -75.127480129000006, "NAICS_CODE": "486210", "NAICS_DESC": "BOOSTER PUMPING STATION, NATURAL GAS TRANSPORTATION", "SOURCE": "EPA ENVIROFACTS, FERC FORM 2, CORPORATE WEBSITE, IMAGERY", "SOURCEDATE": "Wed, 15 Jul 2020 00:00:00 GMT", "VAL_METHOD": "IMAGERY/OTHER", "VAL_DATE": "Fri, 17 Jun 2022 00:00:00 GMT", "WEBSITE": "http://www.columbiapipeinfo.com/", "PIPECO": "COLUMBIA GAS TRANSMISSION L.L.C.", "COMPID": "21", "OPERATOR": "COLUMBIA GAS TRANSMISSION L.L.C.", "POSREL": "WITHIN 40 FEET", "NUM_UNITS": 1, "CERT_HP": 15900, "PLANT_COST": -999, "EXP_FUEL": 0, "EXP_OTHER": 0, "GAS_COMPRE": 0, "OP_COMP_HR": 0, "OP_NUM_COM": 0, "OP_DATE_PE": "Wed, 15 Jul 2020 00:00:00 GMT", "EXP_POWER": 0, "ELEC_COMPR": 0 }, "geometry": { "type": "Point", "coordinates": [ -75.12748012899992, 41.876950926000056 ] } },
{ "type": "Feature", "properties": { "OBJECTID": 347, "GCOMPID": "GCOMP1310", "NAME": "PORTER FALLS", "ADDRESS": "STATE ROAD RUN AND PORTERS FALLS", "CITY": "PORTERS FALLS", "STATE": "WV", "ZIP": "26162", "ZIP4": "NOT AVAILABLE", "TYPE": "NATURAL GAS COMPRESSOR STATION", "STATUS": "IN SERVICE", "COUNTY": "WETZEL", "COUNTYFIPS": "54103", "COUNTRY": "USA", "LATITUDE": 39.577084, "LONGITUDE": -80.773876, "NAICS_CODE": "486210", "NAICS_DESC": "BOOSTER PUMPING STATION, NATURAL GAS TRANSPORTATION", "SOURCE": "FERC FORM 2, IMAGERY", "SOURCEDATE": "Wed, 15 Jul 2020 00:00:00 GMT", "VAL_METHOD": "IMAGERY/OTHER", "VAL_DATE": "Fri, 17 Jun 2022 00:00:00 GMT", "WEBSITE": "http://www.columbiapipeinfo.com/", "PIPECO": "COLUMBIA GAS TRANSMISSION L.L.C.", "COMPID": "21", "OPERATOR": "COLUMBIA GAS TRANSMISSION L.L.C.", "POSREL": "WITHIN 40 FEET", "NUM_UNITS": 2, "CERT_HP": 720, "PLANT_COST": 817072, "EXP_FUEL": 0, "EXP_OTHER": 8841, "GAS_COMPRE": 0, "OP_COMP_HR": 0, "OP_NUM_COM": 0, "OP_DATE_PE": "Thu, 12 Jan 2012 00:00:00 GMT", "EXP_POWER": 610, "ELEC_COMPR": 0 }, "geometry": { "type": "Point", "coordinates": [ -80.773876, 39.577084000000106 ] } },
{ "type": "Feature", "properties": { "OBJECTID": 350, "GCOMPID": "GCOMP1313", "NAME": "CLEVELAND", "ADDRESS": "STATE ROUTE 20 SOUTH", "CITY": "KANAWHA HEAD", "STATE": "WV", "ZIP": "26228", "ZIP4": "NOT AVAILABLE", "TYPE": "NATURAL GAS COMPRESSOR STATION", "STATUS": "IN SERVICE", "COUNTY": "UPSHUR", "COUNTYFIPS": "54097", "COUNTRY": "USA", "LATITUDE": 38.750513542, "LONGITUDE": -80.362616343, "NAICS_CODE": "486210", "NAICS_DESC": "BOOSTER PUMPING STATION, NATURAL GAS TRANSPORTATION", "SOURCE": "EPA ENVIROFACTS, FERC FORM 2, CORPORATE WEBSITE", "SOURCEDATE": "Wed, 15 Jul 2020 00:00:00 GMT", "VAL_METHOD": "IMAGERY/OTHER", "VAL_DATE": "Fri, 17 Jun 2022 00:00:00 GMT", "WEBSITE": "http://www.columbiapipeinfo.com/", "PIPECO": "COLUMBIA GAS TRANSMISSION L.L.C.", "COMPID": "21", "OPERATOR": "COLUMBIA GAS TRANSMISSION L.L.C.", "POSREL": "WITHIN 40 FEET", "NUM_UNITS": 4, "CERT_HP": 53630, "PLANT_COST": 129613037, "EXP_FUEL": 2995916, "EXP_OTHER": 846742, "GAS_COMPRE": 1823020, "OP_COMP_HR": 18824, "OP_NUM_COM": 4, "OP_DATE_PE": "Mon, 06 Jan 2020 00:00:00 GMT", "EXP_POWER": 73538, "ELEC_COMPR": 0 }, "geometry": { "type": "Point", "coordinates": [ -80.362616342999956, 38.7505135420001 ] } },
{ "type": "Feature", "properties": { "OBJECTID": 351, "GCOMPID": "GCOMP1314", "NAME": "ROCKPORT", "ADDRESS": "STATE ROUTE 21 AND HIGHWAY 77", "CITY": "ROCKPORT", "STATE": "WV", "ZIP": "26169", "ZIP4": "NOT AVAILABLE", "TYPE": "NATURAL GAS COMPRESSOR STATION", "STATUS": "IN SERVICE", "COUNTY": "WOOD", "COUNTYFIPS": "54107", "COUNTRY": "USA", "LATITUDE": 39.068629, "LONGITUDE": -81.551444, "NAICS_CODE": "486210", "NAICS_DESC": "BOOSTER PUMPING STATION, NATURAL GAS TRANSPORTATION", "SOURCE": "EPA ENVIROFACTS, FERC FORM 2, CORPORATE WEBSITE", "SOURCEDATE": "Wed, 15 Jul 2020 00:00:00 GMT", "VAL_METHOD": "IMAGERY/OTHER", "VAL_DATE": "Fri, 17 Jun 2022 00:00:00 GMT", "WEBSITE": "http://www.columbiapipeinfo.com/", "PIPECO": "COLUMBIA GAS TRANSMISSION L.L.C.", "COMPID": "21", "OPERATOR": "COLUMBIA GAS TRANSMISSION L.L.C.", "POSREL": "WITHIN 40 FEET", "NUM_UNITS": 2, "CERT_HP": 3372, "PLANT_COST": 34653977, "EXP_FUEL": 89885, "EXP_OTHER": 13597, "GAS_COMPRE": 58521, "OP_COMP_HR": 5023, "OP_NUM_COM": 2, "OP_DATE_PE": "Sat, 29 Feb 2020 00:00:00 GMT", "EXP_POWER": 0, "ELEC_COMPR": 0 }, "geometry": { "type": "Point", "coordinates": [ -81.551444, 39.068629 ] } },
{ "type": "Feature", "properties": { "OBJECTID": 352, "GCOMPID": "GCOMP1315", "NAME": "HUFF CREEK", "ADDRESS": "STATE ROUTE 8 AND US-52", "CITY": "HANOVER", "STATE": "WV", "ZIP": "24839", "ZIP4": "NOT AVAILABLE", "TYPE": "NATURAL GAS COMPRESSOR STATION", "STATUS": "IN SERVICE", "COUNTY": "WYOMING", "COUNTYFIPS": "54109", "COUNTRY": "USA", "LATITUDE": 37.539197056, "LONGITUDE": -81.755435583999997, "NAICS_CODE": "486210", "NAICS_DESC": "BOOSTER PUMPING STATION, NATURAL GAS TRANSPORTATION", "SOURCE": "EPA ENVIROFACTS, FERC FORM 2, CORPORATE WEBSITE, IMAGERY", "SOURCEDATE": "Wed, 15 Jul 2020 00:00:00 GMT", "VAL_METHOD": "IMAGERY/OTHER", "VAL_DATE": "Fri, 17 Jun 2022 00:00:00 GMT", "WEBSITE": "http://www.columbiapipeinfo.com/", "PIPECO": "COLUMBIA GAS TRANSMISSION L.L.C.", "COMPID": "21", "OPERATOR": "COLUMBIA GAS TRANSMISSION L.L.C.", "POSREL": "WITHIN 40 FEET", "NUM_UNITS": 1, "CERT_HP": 3200, "PLANT_COST": 15228166, "EXP_FUEL": 217, "EXP_OTHER": 170055, "GAS_COMPRE": 106, "OP_COMP_HR": 7, "OP_NUM_COM": 1, "OP_DATE_PE": "Thu, 17 Dec 2020 00:00:00 GMT", "EXP_POWER": 0, "ELEC_COMPR": 0 }, "geometry": { "type": "Point", "coordinates": [ -81.755435583999926, 37.539197056000013 ] } },
{ "type": "Feature", "properties": { "OBJECTID": 353, "GCOMPID": "GCOMP1316", "NAME": "INEZ", "ADDRESS": "STATE ROUTE 3/ KY-40", "CITY": "INEZ", "STATE": "KY", "ZIP": "41224", "ZIP4": "NOT AVAILABLE", "TYPE": "NATURAL GAS COMPRESSOR STATION", "STATUS": "IN SERVICE", "COUNTY": "MARTIN", "COUNTYFIPS": "21159", "COUNTRY": "USA", "LATITUDE": 37.869485, "LONGITUDE": -82.541418, "NAICS_CODE": "486210", "NAICS_DESC": "BOOSTER PUMPING STATION, NATURAL GAS TRANSPORTATION", "SOURCE": "FERC FORM 2, IMAGERY", "SOURCEDATE": "Wed, 15 Jul 2020 00:00:00 GMT", "VAL_METHOD": "IMAGERY/OTHER", "VAL_DATE": "Fri, 17 Jun 2022 00:00:00 GMT", "WEBSITE": "http://www.columbiapipeinfo.com/", "PIPECO": "COLUMBIA GAS TRANSMISSION L.L.C.", "COMPID": "21", "OPERATOR": "COLUMBIA GAS TRANSMISSION L.L.C.", "POSREL": "WITHIN 40 FEET", "NUM_UNITS": 1, "CERT_HP": 880, "PLANT_COST": 1452609, "EXP_FUEL": 73267, "EXP_OTHER": 230734, "GAS_COMPRE": 44453, "OP_COMP_HR": 5884, "OP_NUM_COM": 1, "OP_DATE_PE": "Sat, 04 Apr 2020 00:00:00 GMT", "EXP_POWER": 4202, "ELEC_COMPR": 0 }, "geometry": { "type": "Point", "coordinates": [ -82.541418, 37.869485 ] } },
{ "type": "Feature", "properties": { "OBJECTID": 364, "GCOMPID": "GCOMP1326", "NAME": "HOLMES", "ADDRESS": "TOWNSHIP ROAD 477 AND TOWNSHIP ROAD 464", "CITY": "LAKEVILLE", "STATE": "OH", "ZIP": "44638", "ZIP4": "NOT AVAILABLE", "TYPE": "NATURAL GAS COMPRESSOR STATION", "STATUS": "IN SERVICE", "COUNTY": "HOLMES", "COUNTYFIPS": "39075", "COUNTRY": "USA", "LATITUDE": 40.65218, "LONGITUDE": -82.133156, "NAICS_CODE": "486210", "NAICS_DESC": "BOOSTER PUMPING STATION, NATURAL GAS TRANSPORTATION", "SOURCE": "EPA ENVIROFACTS, FERC FORM 2, CORPORATE WEBSITE", "SOURCEDATE": "Wed, 15 Jul 2020 00:00:00 GMT", "VAL_METHOD": "IMAGERY/OTHER", "VAL_DATE": "Fri, 17 Jun 2022 00:00:00 GMT", "WEBSITE": "http://www.columbiapipeinfo.com/", "PIPECO": "COLUMBIA GAS TRANSMISSION L.L.C.", "COMPID": "21", "OPERATOR": "COLUMBIA GAS TRANSMISSION L.L.C.", "POSREL": "WITHIN 40 FEET", "NUM_UNITS": 4, "CERT_HP": 6000, "PLANT_COST": 16684978, "EXP_FUEL": 167965, "EXP_OTHER": 25331, "GAS_COMPRE": 107711, "OP_COMP_HR": 9358, "OP_NUM_COM": 3, "OP_DATE_PE": "Tue, 02 Jun 2020 00:00:00 GMT", "EXP_POWER": 0, "ELEC_COMPR": 0 }, "geometry": { "type": "Point", "coordinates": [ -82.133156, 40.65218 ] } },
{ "type": "Feature", "properties": { "OBJECTID": 411, "GCOMPID": "GCOMP138", "NAME": "WELLINGTON", "ADDRESS": "13292 SMITH ROAD", "CITY": "WELLINGTON", "STATE": "OH", "ZIP": "44090", "ZIP4": "NOT AVAILABLE", "TYPE": "NATURAL GAS COMPRESSOR STATION", "STATUS": "IN SERVICE", "COUNTY": "LORAIN", "COUNTYFIPS": "39093", "COUNTRY": "USA", "LATITUDE": 41.136294, "LONGITUDE": -82.169485, "NAICS_CODE": "486210", "NAICS_DESC": "BOOSTER PUMPING STATION, NATURAL GAS TRANSPORTATION", "SOURCE": "EPA ENVIROFACTS, FERC FORM 2, CORPORATE WEBSITE", "SOURCEDATE": "Wed, 15 Jul 2020 00:00:00 GMT", "VAL_METHOD": "IMAGERY/OTHER", "VAL_DATE": "Fri, 17 Jun 2022 00:00:00 GMT", "WEBSITE": "http://www.columbiapipeinfo.com/", "PIPECO": "COLUMBIA GAS TRANSMISSION L.L.C.", "COMPID": "21", "OPERATOR": "COLUMBIA GAS TRANSMISSION L.L.C.", "POSREL": "WITHIN 40 FEET", "NUM_UNITS": 2, "CERT_HP": 9000, "PLANT_COST": 34686975, "EXP_FUEL": 0, "EXP_OTHER": 121053, "GAS_COMPRE": 0, "OP_COMP_HR": 3185, "OP_NUM_COM": 2, "OP_DATE_PE": "Sun, 26 Jul 2020 00:00:00 GMT", "EXP_POWER": 745081, "ELEC_COMPR": 12751417 }, "geometry": { "type": "Point", "coordinates": [ -82.169485, 41.136294 ] } },
{ "type": "Feature", "properties": { "OBJECTID": 420, "GCOMPID": "GCOMP146", "NAME": "NORTH GREENWOOD", "ADDRESS": "1351 COUNTY ROUTE 62", "CITY": "GREENWOOD", "STATE": "NY", "ZIP": "14839", "ZIP4": "NOT AVAILABLE", "TYPE": "NATURAL GAS COMPRESSOR STATION", "STATUS": "IN SERVICE", "COUNTY": "STEUBEN", "COUNTYFIPS": "36101", "COUNTRY": "USA", "LATITUDE": 42.161221586000003, "LONGITUDE": -77.661823405000007, "NAICS_CODE": "486210", "NAICS_DESC": "BOOSTER PUMPING STATION, NATURAL GAS TRANSPORTATION", "SOURCE": "EPA ENVIROFACTS, FERC FORM 2, CORPORATE WEBSITE", "SOURCEDATE": "Wed, 15 Jul 2020 00:00:00 GMT", "VAL_METHOD": "IMAGERY/OTHER", "VAL_DATE": "Mon, 20 Jun 2022 00:00:00 GMT", "WEBSITE": "http://www.columbiapipeinfo.com/", "PIPECO": "COLUMBIA GAS TRANSMISSION L.L.C.", "COMPID": "21", "OPERATOR": "COLUMBIA GAS TRANSMISSION L.L.C.", "POSREL": "WITHIN 40 FEET", "NUM_UNITS": 0, "CERT_HP": 0, "PLANT_COST": 2580263, "EXP_FUEL": 0, "EXP_OTHER": 0, "GAS_COMPRE": 0, "OP_COMP_HR": 0, "OP_NUM_COM": 0, "OP_DATE_PE": "Wed, 01 Jan 2020 00:00:00 GMT", "EXP_POWER": 0, "ELEC_COMPR": 0 }, "geometry": { "type": "Point", "coordinates": [ -77.66182340499995, 42.161221586000032 ] } },
{ "type": "Feature", "properties": { "OBJECTID": 445, "GCOMPID": "GCOMP169", "NAME": "GOOCHLAND", "ADDRESS": "1436 HERMITAGE ROAD", "CITY": "GOOCHLAND", "STATE": "VA", "ZIP": "23063", "ZIP4": "NOT AVAILABLE", "TYPE": "NATURAL GAS COMPRESSOR STATION", "STATUS": "IN SERVICE", "COUNTY": "GOOCHLAND", "COUNTYFIPS": "51075", "COUNTRY": "USA", "LATITUDE": 37.659101, "LONGITUDE": -77.703177, "NAICS_CODE": "486210", "NAICS_DESC": "BOOSTER PUMPING STATION, NATURAL GAS TRANSPORTATION", "SOURCE": "EPA ENVIROFACTS, FERC FORM 2, CORPORATE WEBSITE", "SOURCEDATE": "Wed, 15 Jul 2020 00:00:00 GMT", "VAL_METHOD": "IMAGERY/OTHER", "VAL_DATE": "Fri, 17 Jun 2022 00:00:00 GMT", "WEBSITE": "http://www.columbiapipeinfo.com/", "PIPECO": "COLUMBIA GAS TRANSMISSION L.L.C.", "COMPID": "21", "OPERATOR": "COLUMBIA GAS TRANSMISSION L.L.C.", "POSREL": "WITHIN 40 FEET", "NUM_UNITS": 5, "CERT_HP": 6750, "PLANT_COST": 9256949, "EXP_FUEL": 188562, "EXP_OTHER": 243408, "GAS_COMPRE": 107117, "OP_COMP_HR": 7779, "OP_NUM_COM": 5, "OP_DATE_PE": "Mon, 07 Dec 2020 00:00:00 GMT", "EXP_POWER": 4778, "ELEC_COMPR": 0 }, "geometry": { "type": "Point", "coordinates": [ -77.703177, 37.659101 ] } },
{ "type": "Feature", "properties": { "OBJECTID": 459, "GCOMPID": "GCOMP181", "NAME": "DOWNINGTOWN", "ADDRESS": "1470 POORHOUSE ROAD", "CITY": "DOWNINGTOWN", "STATE": "PA", "ZIP": "19335", "ZIP4": "NOT AVAILABLE", "TYPE": "NATURAL GAS COMPRESSOR STATION", "STATUS": "IN SERVICE", "COUNTY": "CHESTER", "COUNTYFIPS": "42029", "COUNTRY": "USA", "LATITUDE": 39.982239, "LONGITUDE": -75.731542, "NAICS_CODE": "486210", "NAICS_DESC": "BOOSTER PUMPING STATION, NATURAL GAS TRANSPORTATION", "SOURCE": "FERC FORM 2, IMAGERY", "SOURCEDATE": "Tue, 29 Sep 2015 00:00:00 GMT", "VAL_METHOD": "IMAGERY/OTHER", "VAL_DATE": "Fri, 17 Jun 2022 00:00:00 GMT", "WEBSITE": "http://www.columbiapipeinfo.com/", "PIPECO": "COLUMBIA GAS TRANSMISSION L.L.C.", "COMPID": "21", "OPERATOR": "COLUMBIA GAS TRANSMISSION L.L.C.", "POSREL": "WITHIN 40 FEET", "NUM_UNITS": 2, "CERT_HP": 12000, "PLANT_COST": 40420609, "EXP_FUEL": 0, "EXP_OTHER": 516384, "GAS_COMPRE": 0, "OP_COMP_HR": 6120, "OP_NUM_COM": 2, "OP_DATE_PE": "Sun, 05 Jul 2020 00:00:00 GMT", "EXP_POWER": 1162440, "ELEC_COMPR": 8718409 }, "geometry": { "type": "Point", "coordinates": [ -75.731541999999891, 39.982239 ] } },
{ "type": "Feature", "properties": { "OBJECTID": 492, "GCOMPID": "GCOMP210", "NAME": "MARIETTA", "ADDRESS": "1588 DEPOT ROAD", "CITY": "MARIETTA", "STATE": "PA", "ZIP": "17547", "ZIP4": "NOT AVAILABLE", "TYPE": "NATURAL GAS COMPRESSOR STATION", "STATUS": "IN SERVICE", "COUNTY": "LANCASTER", "COUNTYFIPS": "42071", "COUNTRY": "USA", "LATITUDE": 40.064233, "LONGITUDE": -76.598993, "NAICS_CODE": "486210", "NAICS_DESC": "BOOSTER PUMPING STATION, NATURAL GAS TRANSPORTATION", "SOURCE": "EPA ENVIROFACTS, FERC FORM 2, CORPORATE WEBSITE", "SOURCEDATE": "Mon, 28 Sep 2015 00:00:00 GMT", "VAL_METHOD": "IMAGERY/OTHER", "VAL_DATE": "Fri, 17 Jun 2022 00:00:00 GMT", "WEBSITE": "http://www.columbiapipeinfo.com/", "PIPECO": "COLUMBIA GAS TRANSMISSION L.L.C.", "COMPID": "21", "OPERATOR": "COLUMBIA GAS TRANSMISSION L.L.C.", "POSREL": "WITHIN 40 FEET", "NUM_UNITS": 3, "CERT_HP": 4050, "PLANT_COST": 12386353, "EXP_FUEL": 97479, "EXP_OTHER": 236583, "GAS_COMPRE": 56366, "OP_COMP_HR": 3447, "OP_NUM_COM": 3, "OP_DATE_PE": "Tue, 07 Jan 2020 00:00:00 GMT", "EXP_POWER": 7228, "ELEC_COMPR": 0 }, "geometry": { "type": "Point", "coordinates": [ -76.598993, 40.064233 ] } },
{ "type": "Feature", "properties": { "OBJECTID": 493, "GCOMPID": "GCOMP211", "NAME": "PETERSBURG", "ADDRESS": "1596 BAXTER ROAD", "CITY": "PRINCE GEORGE", "STATE": "VA", "ZIP": "23875", "ZIP4": "NOT AVAILABLE", "TYPE": "NATURAL GAS COMPRESSOR STATION", "STATUS": "IN SERVICE", "COUNTY": "PRINCE GEORGE", "COUNTYFIPS": "51149", "COUNTRY": "USA", "LATITUDE": 37.207435, "LONGITUDE": -77.335501, "NAICS_CODE": "486210", "NAICS_DESC": "BOOSTER PUMPING STATION, NATURAL GAS TRANSPORTATION", "SOURCE": "EPA ENVIROFACTS, FERC FORM 2, CORPORATE WEBSITE", "SOURCEDATE": "Wed, 15 Jul 2020 00:00:00 GMT", "VAL_METHOD": "IMAGERY/OTHER", "VAL_DATE": "Fri, 17 Jun 2022 00:00:00 GMT", "WEBSITE": "http://www.columbiapipeinfo.com/", "PIPECO": "COLUMBIA GAS TRANSMISSION L.L.C.", "COMPID": "21", "OPERATOR": "COLUMBIA GAS TRANSMISSION L.L.C.", "POSREL": "WITHIN 40 FEET", "NUM_UNITS": 4, "CERT_HP": 4340, "PLANT_COST": 17425880, "EXP_FUEL": 221282, "EXP_OTHER": 304058, "GAS_COMPRE": 130129, "OP_COMP_HR": 11402, "OP_NUM_COM": 4, "OP_DATE_PE": "Wed, 18 Nov 2020 00:00:00 GMT", "EXP_POWER": 21318, "ELEC_COMPR": 0 }, "geometry": { "type": "Point", "coordinates": [ -77.335501, 37.207435 ] } },
{ "type": "Feature", "properties": { "OBJECTID": 494, "GCOMPID": "GCOMP212", "NAME": "GALA", "ADDRESS": "15971 BOTETOURT ROAD", "CITY": "GALA", "STATE": "VA", "ZIP": "24085", "ZIP4": "NOT AVAILABLE", "TYPE": "NATURAL GAS COMPRESSOR STATION", "STATUS": "IN SERVICE", "COUNTY": "BOTETOURT", "COUNTYFIPS": "51023", "COUNTRY": "USA", "LATITUDE": 37.690597660999998, "LONGITUDE": -79.811447071000003, "NAICS_CODE": "486210", "NAICS_DESC": "BOOSTER PUMPING STATION, NATURAL GAS TRANSPORTATION", "SOURCE": "FERC FORM 2, IMAGERY", "SOURCEDATE": "Wed, 15 Jul 2020 00:00:00 GMT", "VAL_METHOD": "IMAGERY/OTHER", "VAL_DATE": "Fri, 17 Jun 2022 00:00:00 GMT", "WEBSITE": "http://www.columbiapipeinfo.com/", "PIPECO": "COLUMBIA GAS TRANSMISSION L.L.C.", "COMPID": "21", "OPERATOR": "COLUMBIA GAS TRANSMISSION L.L.C.", "POSREL": "WITHIN 40 FEET", "NUM_UNITS": 3, "CERT_HP": 4850, "PLANT_COST": 25057295, "EXP_FUEL": 28543, "EXP_OTHER": 332224, "GAS_COMPRE": 15943, "OP_COMP_HR": 1064, "OP_NUM_COM": 3, "OP_DATE_PE": "Tue, 08 Dec 2020 00:00:00 GMT", "EXP_POWER": 33143, "ELEC_COMPR": 0 }, "geometry": { "type": "Point", "coordinates": [ -79.811447070999947, 37.690597661000041 ] } },
{ "type": "Feature", "properties": { "OBJECTID": 496, "GCOMPID": "GCOMP214", "NAME": "RIMERSBURG", "ADDRESS": "16 DARRELLS DRIVE", "CITY": "RIMERSBURG", "STATE": "PA", "ZIP": "16248", "ZIP4": "NOT AVAILABLE", "TYPE": "NATURAL GAS COMPRESSOR STATION", "STATUS": "IN SERVICE", "COUNTY": "CLARION", "COUNTYFIPS": "42031", "COUNTRY": "USA", "LATITUDE": 41.045325585999997, "LONGITUDE": -79.508746133000002, "NAICS_CODE": "486210", "NAICS_DESC": "BOOSTER PUMPING STATION, NATURAL GAS TRANSPORTATION", "SOURCE": "EPA ENVIROFACTS, FERC FORM 2, CORPORATE WEBSITE", "SOURCEDATE": "Mon, 28 Sep 2015 00:00:00 GMT", "VAL_METHOD": "IMAGERY/OTHER", "VAL_DATE": "Fri, 17 Jun 2022 00:00:00 GMT", "WEBSITE": "http://www.columbiapipeinfo.com/", "PIPECO": "COLUMBIA GAS TRANSMISSION L.L.C.", "COMPID": "21", "OPERATOR": "COLUMBIA GAS TRANSMISSION L.L.C.", "POSREL": "WITHIN 40 FEET", "NUM_UNITS": 1, "CERT_HP": 320, "PLANT_COST": 8532782, "EXP_FUEL": 8741, "EXP_OTHER": 155350, "GAS_COMPRE": 5386, "OP_COMP_HR": 1634, "OP_NUM_COM": 1, "OP_DATE_PE": "Tue, 24 Mar 2020 00:00:00 GMT", "EXP_POWER": 1254, "ELEC_COMPR": -999 }, "geometry": { "type": "Point", "coordinates": [ -79.508746133, 41.045325586000033 ] } },
{ "type": "Feature", "properties": { "OBJECTID": 499, "GCOMPID": "GCOMP217", "NAME": "TREAT", "ADDRESS": "1608 HOMER ROAD NW", "CITY": "HOMER", "STATE": "OH", "ZIP": "43027", "ZIP4": "NOT AVAILABLE", "TYPE": "NATURAL GAS COMPRESSOR STATION", "STATUS": "IN SERVICE", "COUNTY": "LICKING", "COUNTYFIPS": "39089", "COUNTRY": "USA", "LATITUDE": 40.252411, "LONGITUDE": -82.528901, "NAICS_CODE": "486210", "NAICS_DESC": "BOOSTER PUMPING STATION, NATURAL GAS TRANSPORTATION", "SOURCE": "EPA ENVIROFACTS, FERC FORM 2, CORPORATE WEBSITE", "SOURCEDATE": "Wed, 15 Jul 2020 00:00:00 GMT", "VAL_METHOD": "IMAGERY/OTHER", "VAL_DATE": "Sat, 18 Jun 2022 00:00:00 GMT", "WEBSITE": "http://www.columbiapipeinfo.com/", "PIPECO": "COLUMBIA GAS TRANSMISSION L.L.C.", "COMPID": "21", "OPERATOR": "COLUMBIA GAS TRANSMISSION L.L.C.", "POSREL": "WITHIN 40 FEET", "NUM_UNITS": 4, "CERT_HP": 1900, "PLANT_COST": 2713175, "EXP_FUEL": 0, "EXP_OTHER": 69256, "GAS_COMPRE": 0, "OP_COMP_HR": 0, "OP_NUM_COM": 0, "OP_DATE_PE": "Wed, 15 Jul 2020 00:00:00 GMT", "EXP_POWER": 5689, "ELEC_COMPR": 0 }, "geometry": { "type": "Point", "coordinates": [ -82.528901, 40.252411 ] } },
{ "type": "Feature", "properties": { "OBJECTID": 516, "GCOMPID": "GCOMP232", "NAME": "SHENANDOAH", "ADDRESS": "1656 NEWPORT ROAD", "CITY": "SHENANDOAH", "STATE": "VA", "ZIP": "22849", "ZIP4": "NOT AVAILABLE", "TYPE": "NATURAL GAS COMPRESSOR STATION", "STATUS": "IN SERVICE", "COUNTY": "PAGE", "COUNTYFIPS": "51139", "COUNTRY": "USA", "LATITUDE": 38.564459, "LONGITUDE": -78.622651, "NAICS_CODE": "486210", "NAICS_DESC": "BOOSTER PUMPING STATION, NATURAL GAS TRANSPORTATION", "SOURCE": "EPA ENVIROFACTS, FERC FORM 2, CORPORATE WEBSITE", "SOURCEDATE": "Wed, 15 Jul 2020 00:00:00 GMT", "VAL_METHOD": "IMAGERY/OTHER", "VAL_DATE": "Fri, 17 Jun 2022 00:00:00 GMT", "WEBSITE": "http://www.columbiapipeinfo.com/", "PIPECO": "COLUMBIA GAS TRANSMISSION L.L.C.", "COMPID": "21", "OPERATOR": "COLUMBIA GAS TRANSMISSION L.L.C.", "POSREL": "WITHIN 40 FEET", "NUM_UNITS": 2, "CERT_HP": 10500, "PLANT_COST": 17031313, "EXP_FUEL": 288455, "EXP_OTHER": 311883, "GAS_COMPRE": 169630, "OP_COMP_HR": 3692, "OP_NUM_COM": 2, "OP_DATE_PE": "Fri, 01 May 2020 00:00:00 GMT", "EXP_POWER": 6981, "ELEC_COMPR": 0 }, "geometry": { "type": "Point", "coordinates": [ -78.622651, 38.564459 ] } },
{ "type": "Feature", "properties": { "OBJECTID": null, "GCOMPID": "GCOMP235", "NAME": "CEREDO", "ADDRESS": "1664 WALKERS BRANCH ROAD", "CITY": "HUNTINGTON", "STATE": "WV", "ZIP": "25704", "ZIP4": "NOT AVAILABLE", "TYPE": "NATURAL GAS COMPRESSOR STATION", "STATUS": "IN SERVICE", "COUNTY": "WAYNE", "COUNTYFIPS": "54099", "COUNTRY": "USA", "LATITUDE": 38.368519, "LONGITUDE": -82.532652, "NAICS_CODE": "486210", "NAICS_DESC": "BOOSTER PUMPING STATION, NATURAL GAS TRANSPORTATION", "SOURCE": "EPA ENVIROFACTS, FERC FORM 2, CORPORATE WEBSITE", "SOURCEDATE": "Wed, 15 Jul 2020 00:00:00 GMT", "VAL_METHOD": "IMAGERY/OTHER", "VAL_DATE": "Fri, 17 Jun 2022 00:00:00 GMT", "WEBSITE": "http://www.columbiapipeinfo.com/", "PIPECO": "COLUMBIA GAS TRANSMISSION L.L.C.", "COMPID": "21", "OPERATOR": "COLUMBIA GAS TRANSMISSION L.L.C.", "POSREL": "WITHIN 40 FEET", "NUM_UNITS": 12, "CERT_HP": 95500, "PLANT_COST": 200577585, "EXP_FUEL": 919562, "EXP_OTHER": 1733028, "GAS_COMPRE": 510786, "OP_COMP_HR": 34216, "OP_NUM_COM": 6, "OP_DATE_PE": "Wed, 02 Dec 2020 00:00:00 GMT", "EXP_POWER": 84642, "ELEC_COMPR": 0 }, "geometry": { "type": "Point", "coordinates": [ -82.532652, 38.368519 ] } },
{ "type": "Feature", "properties": { "OBJECTID": 547, "GCOMPID": "GCOMP260", "NAME": "COBB", "ADDRESS": "180 WV-ROUTE 4", "CITY": "CLENDENIN", "STATE": "WV", "ZIP": "25045", "ZIP4": "NOT AVAILABLE", "TYPE": "NATURAL GAS COMPRESSOR STATION", "STATUS": "IN SERVICE", "COUNTY": "KANAWHA", "COUNTYFIPS": "54039", "COUNTRY": "USA", "LATITUDE": 38.487509, "LONGITUDE": -81.322624, "NAICS_CODE": "486210", "NAICS_DESC": "BOOSTER PUMPING STATION, NATURAL GAS TRANSPORTATION", "SOURCE": "FERC FORM 2, IMAGERY", "SOURCEDATE": "Wed, 15 Jul 2020 00:00:00 GMT", "VAL_METHOD": "IMAGERY/OTHER", "VAL_DATE": "Fri, 17 Jun 2022 00:00:00 GMT", "WEBSITE": "http://www.columbiapipeinfo.com/", "PIPECO": "COLUMBIA GAS TRANSMISSION L.L.C.", "COMPID": "21", "OPERATOR": "COLUMBIA GAS TRANSMISSION L.L.C.", "POSREL": "WITHIN 40 FEET", "NUM_UNITS": 4, "CERT_HP": 13500, "PLANT_COST": 22272938, "EXP_FUEL": 0, "EXP_OTHER": 387209, "GAS_COMPRE": 0, "OP_COMP_HR": 16897, "OP_NUM_COM": 3, "OP_DATE_PE": "Wed, 05 Feb 2020 00:00:00 GMT", "EXP_POWER": 2721314, "ELEC_COMPR": 49274900 }, "geometry": { "type": "Point", "coordinates": [ -81.322624, 38.487509 ] } },
{ "type": "Feature", "properties": { "OBJECTID": 604, "GCOMPID": "GCOMP311", "NAME": "HARDY", "ADDRESS": "200 BRANTS TEETS ROAD", "CITY": "BAKER", "STATE": "WV", "ZIP": "26801", "ZIP4": "NOT AVAILABLE", "TYPE": "NATURAL GAS COMPRESSOR STATION", "STATUS": "IN SERVICE", "COUNTY": "HARDY", "COUNTYFIPS": "54031", "COUNTRY": "USA", "LATITUDE": 39.040286432000002, "LONGITUDE": -78.818843688000001, "NAICS_CODE": "486210", "NAICS_DESC": "BOOSTER PUMPING STATION, NATURAL GAS TRANSPORTATION", "SOURCE": "EPA ENVIROFACTS, FERC FORM 2, CORPORATE WEBSITE", "SOURCEDATE": "Wed, 15 Jul 2020 00:00:00 GMT", "VAL_METHOD": "IMAGERY/OTHER", "VAL_DATE": "Fri, 17 Jun 2022 00:00:00 GMT", "WEBSITE": "http://www.columbiapipeinfo.com/", "PIPECO": "COLUMBIA GAS TRANSMISSION L.L.C.", "COMPID": "21", "OPERATOR": "COLUMBIA GAS TRANSMISSION L.L.C.", "POSREL": "WITHIN 40 FEET", "NUM_UNITS": 2, "CERT_HP": 7100, "PLANT_COST": 0, "EXP_FUEL": 0, "EXP_OTHER": 13837, "GAS_COMPRE": 0, "OP_COMP_HR": 5112, "OP_NUM_COM": 2, "OP_DATE_PE": "Thu, 11 Jun 2020 00:00:00 GMT", "EXP_POWER": 0, "ELEC_COMPR": 0 }, "geometry": { "type": "Point", "coordinates": [ -78.818843687999959, 39.04028643200008 ] } },
{ "type": "Feature", "properties": { "OBJECTID": 616, "GCOMPID": "GCOMP322", "NAME": "EASTON", "ADDRESS": "204 KLEIN ROAD", "CITY": "EASTON", "STATE": "PA", "ZIP": "18045", "ZIP4": "NOT AVAILABLE", "TYPE": "NATURAL GAS COMPRESSOR STATION", "STATUS": "IN SERVICE", "COUNTY": "NORTHAMPTON", "COUNTYFIPS": "42095", "COUNTRY": "USA", "LATITUDE": 40.765469, "LONGITUDE": -75.223546, "NAICS_CODE": "486210", "NAICS_DESC": "BOOSTER PUMPING STATION, NATURAL GAS TRANSPORTATION", "SOURCE": "FERC FORM 2, IMAGERY", "SOURCEDATE": "Thu, 15 Oct 2015 00:00:00 GMT", "VAL_METHOD": "IMAGERY/OTHER", "VAL_DATE": "Fri, 17 Jun 2022 00:00:00 GMT", "WEBSITE": "http://www.columbiapipeinfo.com/", "PIPECO": "COLUMBIA GAS TRANSMISSION L.L.C.", "COMPID": "21", "OPERATOR": "COLUMBIA GAS TRANSMISSION L.L.C.", "POSREL": "WITHIN 40 FEET", "NUM_UNITS": 3, "CERT_HP": 22254, "PLANT_COST": 57308163, "EXP_FUEL": 972683, "EXP_OTHER": 267304, "GAS_COMPRE": 593240, "OP_COMP_HR": 8065, "OP_NUM_COM": 2, "OP_DATE_PE": "Mon, 02 Nov 2020 00:00:00 GMT", "EXP_POWER": 5591, "ELEC_COMPR": 0 }, "geometry": { "type": "Point", "coordinates": [ -75.223545999999899, 40.765469 ] } },
{ "type": "Feature", "properties": { "OBJECTID": 641, "GCOMPID": "GCOMP345", "NAME": "MILFORD", "ADDRESS": "216 FIRE TOWER ROAD", "CITY": "MILFORD", "STATE": "PA", "ZIP": "18337", "ZIP4": "NOT AVAILABLE", "TYPE": "NATURAL GAS COMPRESSOR STATION", "STATUS": "IN SERVICE", "COUNTY": "PIKE", "COUNTYFIPS": "42103", "COUNTRY": "USA", "LATITUDE": 41.355357, "LONGITUDE": -74.820962, "NAICS_CODE": "486210", "NAICS_DESC": "BOOSTER PUMPING STATION, NATURAL GAS TRANSPORTATION", "SOURCE": "EPA ENVIROFACTS, FERC FORM 2, CORPORATE WEBSITE", "SOURCEDATE": "Wed, 15 Jul 2020 00:00:00 GMT", "VAL_METHOD": "IMAGERY/OTHER", "VAL_DATE": "Fri, 24 Jun 2022 00:00:00 GMT", "WEBSITE": "http://www.columbiapipeinfo.com/", "PIPECO": "COLUMBIA GAS TRANSMISSION L.L.C.", "COMPID": "21", "OPERATOR": "COLUMBIA GAS TRANSMISSION L.L.C.", "POSREL": "WITHIN 40 FEET", "NUM_UNITS": 2, "CERT_HP": 9400, "PLANT_COST": 60991595, "EXP_FUEL": 848745, "EXP_OTHER": 295881, "GAS_COMPRE": 513037, "OP_COMP_HR": 12263, "OP_NUM_COM": 2, "OP_DATE_PE": "Wed, 01 Jan 2020 00:00:00 GMT", "EXP_POWER": 0, "ELEC_COMPR": 0 }, "geometry": { "type": "Point", "coordinates": [ -74.820962, 41.355357 ] } },
{ "type": "Feature", "properties": { "OBJECTID": 661, "GCOMPID": "GCOMP363", "NAME": "RUTLEDGE", "ADDRESS": "2220 RUTLEDGE ROAD", "CITY": "FALLSTON", "STATE": "MD", "ZIP": "21047", "ZIP4": "NOT AVAILABLE", "TYPE": "NATURAL GAS COMPRESSOR STATION", "STATUS": "IN SERVICE", "COUNTY": "HARFORD", "COUNTYFIPS": "24025", "COUNTRY": "USA", "LATITUDE": 39.561372, "LONGITUDE": -76.477502, "NAICS_CODE": "486210", "NAICS_DESC": "BOOSTER PUMPING STATION, NATURAL GAS TRANSPORTATION", "SOURCE": "FERC FORM 2, CORPORATE WEBSITE", "SOURCEDATE": "Wed, 15 Jul 2020 00:00:00 GMT", "VAL_METHOD": "IMAGERY/OTHER", "VAL_DATE": "Fri, 17 Jun 2022 00:00:00 GMT", "WEBSITE": "http://www.columbiapipeinfo.com/", "PIPECO": "COLUMBIA GAS TRANSMISSION L.L.C.", "COMPID": "21", "OPERATOR": "COLUMBIA GAS TRANSMISSION L.L.C.", "POSREL": "WITHIN 40 FEET", "NUM_UNITS": 3, "CERT_HP": 12000, "PLANT_COST": 36595803, "EXP_FUEL": 0, "EXP_OTHER": 154430, "GAS_COMPRE": 0, "OP_COMP_HR": 19, "OP_NUM_COM": 1, "OP_DATE_PE": "Wed, 16 Dec 2020 00:00:00 GMT", "EXP_POWER": 139567, "ELEC_COMPR": 1271484 }, "geometry": { "type": "Point", "coordinates": [ -76.477502, 39.561372 ] } },
{ "type": "Feature", "properties": { "OBJECTID": 684, "GCOMPID": "GCOMP384", "NAME": "BENTON", "ADDRESS": "23151 STATE ROUTE 56", "CITY": "SOUTH BLOOMINGVILLE", "STATE": "OH", "ZIP": "43152", "ZIP4": "NOT AVAILABLE", "TYPE": "NATURAL GAS COMPRESSOR STATION", "STATUS": "IN SERVICE", "COUNTY": "HOCKING", "COUNTYFIPS": "39073", "COUNTRY": "USA", "LATITUDE": 39.41418, "LONGITUDE": -82.605682, "NAICS_CODE": "486210", "NAICS_DESC": "BOOSTER PUMPING STATION, NATURAL GAS TRANSPORTATION", "SOURCE": "FERC FORM 2, IMAGERY", "SOURCEDATE": "Wed, 15 Jul 2020 00:00:00 GMT", "VAL_METHOD": "IMAGERY/OTHER", "VAL_DATE": "Wed, 15 Jun 2022 00:00:00 GMT", "WEBSITE": "http://www.columbiapipeinfo.com/", "PIPECO": "COLUMBIA GAS TRANSMISSION L.L.C.", "COMPID": "21", "OPERATOR": "COLUMBIA GAS TRANSMISSION L.L.C.", "POSREL": "WITHIN 40 FEET", "NUM_UNITS": 3, "CERT_HP": 7250, "PLANT_COST": 12328997, "EXP_FUEL": 108631, "EXP_OTHER": 13172, "GAS_COMPRE": 69323, "OP_COMP_HR": 4866, "OP_NUM_COM": 2, "OP_DATE_PE": "Fri, 07 Feb 2020 00:00:00 GMT", "EXP_POWER": 0, "ELEC_COMPR": 0 }, "geometry": { "type": "Point", "coordinates": [ -82.605682, 39.41418 ] } },
{ "type": "Feature", "properties": { "OBJECTID": 698, "GCOMPID": "GCOMP397", "NAME": "PAVONIA", "ADDRESS": "2385 COTTER ROAD", "CITY": "MANSFIELD", "STATE": "OH", "ZIP": "44903", "ZIP4": "NOT AVAILABLE", "TYPE": "NATURAL GAS COMPRESSOR STATION", "STATUS": "IN SERVICE", "COUNTY": "RICHLAND", "COUNTYFIPS": "39139", "COUNTRY": "USA", "LATITUDE": 40.819498, "LONGITUDE": -82.420944, "NAICS_CODE": "486210", "NAICS_DESC": "BOOSTER PUMPING STATION, NATURAL GAS TRANSPORTATION", "SOURCE": "EPA ENVIROFACTS, FERC FORM 2, CORPORATE WEBSITE", "SOURCEDATE": "Wed, 15 Jul 2020 00:00:00 GMT", "VAL_METHOD": "IMAGERY/OTHER", "VAL_DATE": "Thu, 16 Jun 2022 00:00:00 GMT", "WEBSITE": "http://www.columbiapipeinfo.com/", "PIPECO": "COLUMBIA GAS TRANSMISSION L.L.C.", "COMPID": "21", "OPERATOR": "COLUMBIA GAS TRANSMISSION L.L.C.", "POSREL": "WITHIN 40 FEET", "NUM_UNITS": 6, "CERT_HP": 10500, "PLANT_COST": 24704666, "EXP_FUEL": 363630, "EXP_OTHER": 49259, "GAS_COMPRE": 235801, "OP_COMP_HR": 17977, "OP_NUM_COM": 5, "OP_DATE_PE": "Fri, 14 Feb 2020 00:00:00 GMT", "EXP_POWER": 0, "ELEC_COMPR": 0 }, "geometry": { "type": "Point", "coordinates": [ -82.420944, 40.819498 ] } },
{ "type": "Feature", "properties": { "OBJECTID": 713, "GCOMPID": "GCOMP41", "NAME": "BOSWELLS TAVERN", "ADDRESS": "10161 VA-22", "CITY": "GORDONSVILLE", "STATE": "VA", "ZIP": "22942", "ZIP4": "NOT AVAILABLE", "TYPE": "NATURAL GAS COMPRESSOR STATION", "STATUS": "IN SERVICE", "COUNTY": "LOUISA", "COUNTYFIPS": "51109", "COUNTRY": "USA", "LATITUDE": 38.073139, "LONGITUDE": -78.202123, "NAICS_CODE": "486210", "NAICS_DESC": "BOOSTER PUMPING STATION, NATURAL GAS TRANSPORTATION", "SOURCE": "FERC FORM 2, IMAGERY", "SOURCEDATE": "Wed, 15 Jul 2020 00:00:00 GMT", "VAL_METHOD": "IMAGERY/OTHER", "VAL_DATE": "Fri, 17 Jun 2022 00:00:00 GMT", "WEBSITE": "http://www.columbiapipeinfo.com/", "PIPECO": "COLUMBIA GAS TRANSMISSION L.L.C.", "COMPID": "21", "OPERATOR": "COLUMBIA GAS TRANSMISSION L.L.C.", "POSREL": "WITHIN 40 FEET", "NUM_UNITS": 2, "CERT_HP": 1650, "PLANT_COST": 9230319, "EXP_FUEL": 9806, "EXP_OTHER": 203882, "GAS_COMPRE": 5260, "OP_COMP_HR": 1097, "OP_NUM_COM": 2, "OP_DATE_PE": "Thu, 07 May 2020 00:00:00 GMT", "EXP_POWER": 8997, "ELEC_COMPR": 0 }, "geometry": { "type": "Point", "coordinates": [ -78.202123, 38.073139 ] } },
{ "type": "Feature", "properties": { "OBJECTID": 755, "GCOMPID": "GCOMP448", "NAME": "PLEASANT HILL", "ADDRESS": "2784 NC 48 HIGHWAY", "CITY": "PLEASANT HILL", "STATE": "NC", "ZIP": "27866", "ZIP4": "NOT AVAILABLE", "TYPE": "NATURAL GAS COMPRESSOR STATION", "STATUS": "IN SERVICE", "COUNTY": "NORTHAMPTON", "COUNTYFIPS": "37131", "COUNTRY": "USA", "LATITUDE": 36.531436, "LONGITUDE": -77.562906, "NAICS_CODE": "486210", "NAICS_DESC": "BOOSTER PUMPING STATION, NATURAL GAS TRANSPORTATION", "SOURCE": "FERC FORM 2, IMAGERY", "SOURCEDATE": "Wed, 15 Jul 2020 00:00:00 GMT", "VAL_METHOD": "IMAGERY/OTHER", "VAL_DATE": "Fri, 17 Jun 2022 00:00:00 GMT", "WEBSITE": "http://www.columbiapipeinfo.com/", "PIPECO": "COLUMBIA GAS TRANSMISSION L.L.C.", "COMPID": "21", "OPERATOR": "COLUMBIA GAS TRANSMISSION L.L.C.", "POSREL": "WITHIN 40 FEET", "NUM_UNITS": 3, "CERT_HP": 1200, "PLANT_COST": 3971387, "EXP_FUEL": 10973, "EXP_OTHER": 137951, "GAS_COMPRE": 5579, "OP_COMP_HR": 2571, "OP_NUM_COM": 1, "OP_DATE_PE": "Sun, 01 Nov 2020 00:00:00 GMT", "EXP_POWER": 8916, "ELEC_COMPR": 0 }, "geometry": { "type": "Point", "coordinates": [ -77.562906, 36.531436 ] } },
{ "type": "Feature", "properties": { "OBJECTID": 761, "GCOMPID": "GCOMP453", "NAME": "MEDINA", "ADDRESS": "2834 STIEGLER ROAD", "CITY": "MEDINA", "STATE": "OH", "ZIP": "44256", "ZIP4": "NOT AVAILABLE", "TYPE": "NATURAL GAS COMPRESSOR STATION", "STATUS": "IN SERVICE", "COUNTY": "MEDINA", "COUNTYFIPS": "39103", "COUNTRY": "USA", "LATITUDE": 41.196596, "LONGITUDE": -81.906966, "NAICS_CODE": "486210", "NAICS_DESC": "BOOSTER PUMPING STATION, NATURAL GAS TRANSPORTATION", "SOURCE": "EPA ENVIROFACTS, FERC FORM 2, CORPORATE WEBSITE", "SOURCEDATE": "Wed, 15 Jul 2020 00:00:00 GMT", "VAL_METHOD": "IMAGERY/OTHER", "VAL_DATE": "Thu, 26 May 2022 00:00:00 GMT", "WEBSITE": "http://www.columbiapipeinfo.com/", "PIPECO": "COLUMBIA GAS TRANSMISSION L.L.C.", "COMPID": "21", "OPERATOR": "COLUMBIA GAS TRANSMISSION L.L.C.", "POSREL": "WITHIN 40 FEET", "NUM_UNITS": 3, "CERT_HP": 3300, "PLANT_COST": 7635934, "EXP_FUEL": 71813, "EXP_OTHER": 11883, "GAS_COMPRE": 45009, "OP_COMP_HR": 4390, "OP_NUM_COM": 2, "OP_DATE_PE": "Mon, 19 Oct 2020 00:00:00 GMT", "EXP_POWER": 0, "ELEC_COMPR": 0 }, "geometry": { "type": "Point", "coordinates": [ -81.906966, 41.196596 ] } },
{ "type": "Feature", "properties": { "OBJECTID": 765, "GCOMPID": "GCOMP457", "NAME": "WEAVER", "ADDRESS": "2873 PLEASANT VALLEY ROAD", "CITY": "LUCAS", "STATE": "OH", "ZIP": "44843", "ZIP4": "NOT AVAILABLE", "TYPE": "NATURAL GAS COMPRESSOR STATION", "STATUS": "IN SERVICE", "COUNTY": "RICHLAND", "COUNTYFIPS": "39139", "COUNTRY": "USA", "LATITUDE": 40.659375, "LONGITUDE": -82.402189, "NAICS_CODE": "486210", "NAICS_DESC": "BOOSTER PUMPING STATION, NATURAL GAS TRANSPORTATION", "SOURCE": "EPA ENVIROFACTS, FERC FORM 2, CORPORATE WEBSITE", "SOURCEDATE": "Wed, 15 Jul 2020 00:00:00 GMT", "VAL_METHOD": "IMAGERY/OTHER", "VAL_DATE": "Tue, 07 Jun 2022 00:00:00 GMT", "WEBSITE": "http://www.columbiapipeinfo.com/", "PIPECO": "COLUMBIA GAS TRANSMISSION L.L.C.", "COMPID": "21", "OPERATOR": "COLUMBIA GAS TRANSMISSION L.L.C.", "POSREL": "WITHIN 40 FEET", "NUM_UNITS": 5, "CERT_HP": 11950, "PLANT_COST": 21317042, "EXP_FUEL": 344774, "EXP_OTHER": 34864, "GAS_COMPRE": 215716, "OP_COMP_HR": 11919, "OP_NUM_COM": 4, "OP_DATE_PE": "Mon, 20 Jan 2020 00:00:00 GMT", "EXP_POWER": 0, "ELEC_COMPR": 0 }, "geometry": { "type": "Point", "coordinates": [ -82.402189, 40.659375 ] } },
{ "type": "Feature", "properties": { "OBJECTID": 815, "GCOMPID": "GCOMP501", "NAME": "ELLWOOD CITY", "ADDRESS": "315 SHADYREST ROAD", "CITY": "ELLWOOD CITY", "STATE": "PA", "ZIP": "16117", "ZIP4": "NOT AVAILABLE", "TYPE": "NATURAL GAS COMPRESSOR STATION", "STATUS": "IN SERVICE", "COUNTY": "LAWRENCE", "COUNTYFIPS": "42073", "COUNTRY": "USA", "LATITUDE": 40.833976868000001, "LONGITUDE": -80.252878941999995, "NAICS_CODE": "486210", "NAICS_DESC": "BOOSTER PUMPING STATION, NATURAL GAS TRANSPORTATION", "SOURCE": "EPA ENVIROFACTS, FERC FORM 2, CORPORATE WEBSITE", "SOURCEDATE": "Wed, 15 Jul 2020 00:00:00 GMT", "VAL_METHOD": "IMAGERY/OTHER", "VAL_DATE": "Fri, 17 Jun 2022 00:00:00 GMT", "WEBSITE": "http://www.columbiapipeinfo.com/", "PIPECO": "COLUMBIA GAS TRANSMISSION L.L.C.", "COMPID": "21", "OPERATOR": "COLUMBIA GAS TRANSMISSION L.L.C.", "POSREL": "WITHIN 40 FEET", "NUM_UNITS": 2, "CERT_HP": 1000, "PLANT_COST": 1889091, "EXP_FUEL": 9121, "EXP_OTHER": 457356, "GAS_COMPRE": 5832, "OP_COMP_HR": 1283, "OP_NUM_COM": 1, "OP_DATE_PE": "Sat, 15 Feb 2020 00:00:00 GMT", "EXP_POWER": 7718, "ELEC_COMPR": 0 }, "geometry": { "type": "Point", "coordinates": [ -80.252878941999938, 40.833976868000036 ] } },
{ "type": "Feature", "properties": { "OBJECTID": 849, "GCOMPID": "GCOMP532", "NAME": "STRASBURG", "ADDRESS": "34646 OLD VALLEY PIKE", "CITY": "STRASBURG", "STATE": "VA", "ZIP": "22657", "ZIP4": "NOT AVAILABLE", "TYPE": "NATURAL GAS COMPRESSOR STATION", "STATUS": "IN SERVICE", "COUNTY": "SHENANDOAH", "COUNTYFIPS": "51171", "COUNTRY": "USA", "LATITUDE": 39.008928695999998, "LONGITUDE": -78.34010491, "NAICS_CODE": "486210", "NAICS_DESC": "BOOSTER PUMPING STATION, NATURAL GAS TRANSPORTATION", "SOURCE": "EPA ENVIROFACTS, FERC FORM 2, CORPORATE WEBSITE", "SOURCEDATE": "Wed, 15 Jul 2020 00:00:00 GMT", "VAL_METHOD": "IMAGERY/OTHER", "VAL_DATE": "Fri, 17 Jun 2022 00:00:00 GMT", "WEBSITE": "http://www.columbiapipeinfo.com/", "PIPECO": "COLUMBIA GAS TRANSMISSION L.L.C.", "COMPID": "21", "OPERATOR": "COLUMBIA GAS TRANSMISSION L.L.C.", "POSREL": "WITHIN 40 FEET", "NUM_UNITS": 4, "CERT_HP": 37730, "PLANT_COST": 121807091, "EXP_FUEL": 784554, "EXP_OTHER": 456145, "GAS_COMPRE": 444995, "OP_COMP_HR": 4533, "OP_NUM_COM": 3, "OP_DATE_PE": "Wed, 16 Dec 2020 00:00:00 GMT", "EXP_POWER": 17648, "ELEC_COMPR": 0 }, "geometry": { "type": "Point", "coordinates": [ -78.34010491, 39.008928696000083 ] } },
{ "type": "Feature", "properties": { "OBJECTID": 854, "GCOMPID": "GCOMP537", "NAME": "WAYNESBURG", "ADDRESS": "3508 W ROY FURMAN HIGHWAY -18", "CITY": "WAYNESBURG", "STATE": "PA", "ZIP": "15370", "ZIP4": "NOT AVAILABLE", "TYPE": "NATURAL GAS COMPRESSOR STATION", "STATUS": "IN SERVICE", "COUNTY": "GREENE", "COUNTYFIPS": "42059", "COUNTRY": "USA", "LATITUDE": 39.895143, "LONGITUDE": -80.216194, "NAICS_CODE": "486210", "NAICS_DESC": "BOOSTER PUMPING STATION, NATURAL GAS TRANSPORTATION", "SOURCE": "EPA ENVIROFACTS, FERC FORM 2, CORPORATE WEBSITE, IMAGERY", "SOURCEDATE": "Wed, 15 Jul 2020 00:00:00 GMT", "VAL_METHOD": "IMAGERY/OTHER", "VAL_DATE": "Fri, 17 Jun 2022 00:00:00 GMT", "WEBSITE": "http://www.columbiapipeinfo.com/", "PIPECO": "COLUMBIA GAS TRANSMISSION L.L.C.", "COMPID": "21", "OPERATOR": "COLUMBIA GAS TRANSMISSION L.L.C.", "POSREL": "WITHIN 40 FEET", "NUM_UNITS": 6, "CERT_HP": 6860, "PLANT_COST": 38267567, "EXP_FUEL": 656880, "EXP_OTHER": 647704, "GAS_COMPRE": 402223, "OP_COMP_HR": 10331, "OP_NUM_COM": 3, "OP_DATE_PE": "Thu, 23 Jan 2020 00:00:00 GMT", "EXP_POWER": 1332, "ELEC_COMPR": 0 }, "geometry": { "type": "Point", "coordinates": [ -80.216194, 39.895143 ] } },
{ "type": "Feature", "properties": { "OBJECTID": 865, "GCOMPID": "GCOMP547", "NAME": "WALGROVE", "ADDRESS": "367 WALGROVE ROAD", "CITY": "WALGROVE", "STATE": "WV", "ZIP": "25071", "ZIP4": "NOT AVAILABLE", "TYPE": "NATURAL GAS COMPRESSOR STATION", "STATUS": "IN SERVICE", "COUNTY": "KANAWHA", "COUNTYFIPS": "54039", "COUNTRY": "USA", "LATITUDE": 38.464248, "LONGITUDE": -81.440079, "NAICS_CODE": "486210", "NAICS_DESC": "BOOSTER PUMPING STATION, NATURAL GAS TRANSPORTATION", "SOURCE": "EPA ENVIROFACTS, FERC FORM 2, CORPORATE WEBSITE", "SOURCEDATE": "Wed, 15 Jul 2020 00:00:00 GMT", "VAL_METHOD": "IMAGERY/OTHER", "VAL_DATE": "Fri, 17 Jun 2022 00:00:00 GMT", "WEBSITE": "http://www.columbiapipeinfo.com/", "PIPECO": "COLUMBIA GAS TRANSMISSION L.L.C.", "COMPID": "21", "OPERATOR": "COLUMBIA GAS TRANSMISSION L.L.C.", "POSREL": "WITHIN 40 FEET", "NUM_UNITS": 5, "CERT_HP": 37300, "PLANT_COST": 210518724, "EXP_FUEL": 2509688, "EXP_OTHER": 0, "GAS_COMPRE": 1195819, "OP_COMP_HR": 14380, "OP_NUM_COM": 0, "OP_DATE_PE": "Thu, 24 May 2012 00:00:00 GMT", "EXP_POWER": 0, "ELEC_COMPR": 0 }, "geometry": { "type": "Point", "coordinates": [ -81.440079, 38.464248 ] } },
{ "type": "Feature", "properties": { "OBJECTID": 890, "GCOMPID": "GCOMP57", "NAME": "HELLERTOWN", "ADDRESS": "105 155 WOODLAND ROAD", "CITY": "HELLERTOWN", "STATE": "PA", "ZIP": "18055", "ZIP4": "NOT AVAILABLE", "TYPE": "NATURAL GAS COMPRESSOR STATION", "STATUS": "IN SERVICE", "COUNTY": "NORTHAMPTON", "COUNTYFIPS": "42095", "COUNTRY": "USA", "LATITUDE": 40.609285977, "LONGITUDE": -75.267158468000005, "NAICS_CODE": "486210", "NAICS_DESC": "BOOSTER PUMPING STATION, NATURAL GAS TRANSPORTATION", "SOURCE": "FERC FORM 2, IMAGERY", "SOURCEDATE": "Wed, 15 Jul 2020 00:00:00 GMT", "VAL_METHOD": "IMAGERY/OTHER", "VAL_DATE": "Fri, 17 Jun 2022 00:00:00 GMT", "WEBSITE": "http://www.columbiapipeinfo.com/", "PIPECO": "COLUMBIA GAS TRANSMISSION L.L.C.", "COMPID": "21", "OPERATOR": "COLUMBIA GAS TRANSMISSION L.L.C.", "POSREL": "WITHIN 40 FEET", "NUM_UNITS": 2, "CERT_HP": 2200, "PLANT_COST": 11052090, "EXP_FUEL": 273, "EXP_OTHER": 151494, "GAS_COMPRE": 160, "OP_COMP_HR": 32, "OP_NUM_COM": 2, "OP_DATE_PE": "Thu, 09 Jan 2020 00:00:00 GMT", "EXP_POWER": 7557, "ELEC_COMPR": 0 }, "geometry": { "type": "Point", "coordinates": [ -75.26715846799992, 40.60928597700007 ] } },
{ "type": "Feature", "properties": { "OBJECTID": 900, "GCOMPID": "GCOMP58", "NAME": "HUNT", "ADDRESS": "105 PATTERSON DRIVE", "CITY": "ELKVIEW", "STATE": "WV", "ZIP": "25071", "ZIP4": "NOT AVAILABLE", "TYPE": "NATURAL GAS COMPRESSOR STATION", "STATUS": "IN SERVICE", "COUNTY": "KANAWHA", "COUNTYFIPS": "54039", "COUNTRY": "USA", "LATITUDE": 38.512991, "LONGITUDE": -81.48101, "NAICS_CODE": "486210", "NAICS_DESC": "BOOSTER PUMPING STATION, NATURAL GAS TRANSPORTATION", "SOURCE": "EPA ENVIROFACTS, FERC FORM 2, CORPORATE WEBSITE", "SOURCEDATE": "Wed, 15 Jul 2020 00:00:00 GMT", "VAL_METHOD": "IMAGERY/OTHER", "VAL_DATE": "Fri, 17 Jun 2022 00:00:00 GMT", "WEBSITE": "http://www.columbiapipeinfo.com/", "PIPECO": "COLUMBIA GAS TRANSMISSION L.L.C.", "COMPID": "21", "OPERATOR": "COLUMBIA GAS TRANSMISSION L.L.C.", "POSREL": "WITHIN 40 FEET", "NUM_UNITS": 5, "CERT_HP": 37300, "PLANT_COST": 210518724, "EXP_FUEL": 2509688, "EXP_OTHER": 0, "GAS_COMPRE": 1195819, "OP_COMP_HR": 14380, "OP_NUM_COM": 0, "OP_DATE_PE": "Thu, 12 Jan 2012 00:00:00 GMT", "EXP_POWER": 0, "ELEC_COMPR": 0 }, "geometry": { "type": "Point", "coordinates": [ -81.48101, 38.512991 ] } },
{ "type": "Feature", "properties": { "OBJECTID": 910, "GCOMPID": "GCOMP589", "NAME": "LOUDOUN", "ADDRESS": "40750 COMPRESSOR LANE", "CITY": "WATSON", "STATE": "VA", "ZIP": "20175", "ZIP4": "NOT AVAILABLE", "TYPE": "NATURAL GAS COMPRESSOR STATION", "STATUS": "IN SERVICE", "COUNTY": "LOUDOUN", "COUNTYFIPS": "51107", "COUNTRY": "USA", "LATITUDE": 38.994226, "LONGITUDE": -77.592364, "NAICS_CODE": "486210", "NAICS_DESC": "BOOSTER PUMPING STATION, NATURAL GAS TRANSPORTATION", "SOURCE": "FERC FORM 2, IMAGERY", "SOURCEDATE": "Wed, 15 Jul 2020 00:00:00 GMT", "VAL_METHOD": "IMAGERY/OTHER", "VAL_DATE": "Fri, 17 Jun 2022 00:00:00 GMT", "WEBSITE": "http://www.columbiapipeinfo.com/", "PIPECO": "COLUMBIA GAS TRANSMISSION L.L.C.", "COMPID": "21", "OPERATOR": "COLUMBIA GAS TRANSMISSION L.L.C.", "POSREL": "WITHIN 40 FEET", "NUM_UNITS": 9, "CERT_HP": 15190, "PLANT_COST": 45067759, "EXP_FUEL": 27309, "EXP_OTHER": 286752, "GAS_COMPRE": 13330, "OP_COMP_HR": 805, "OP_NUM_COM": 6, "OP_DATE_PE": "Sun, 27 Dec 2020 00:00:00 GMT", "EXP_POWER": 17583, "ELEC_COMPR": 0 }, "geometry": { "type": "Point", "coordinates": [ -77.592364, 38.994226 ] } },
{ "type": "Feature", "properties": { "OBJECTID": 920, "GCOMPID": "GCOMP599", "NAME": "LOST RIVER", "ADDRESS": "419 UPPER COVE ROAD", "CITY": "MATHIAS", "STATE": "WV", "ZIP": "26812", "ZIP4": "NOT AVAILABLE", "TYPE": "NATURAL GAS COMPRESSOR STATION", "STATUS": "IN SERVICE", "COUNTY": "HARDY", "COUNTYFIPS": "54031", "COUNTRY": "USA", "LATITUDE": 38.876846672, "LONGITUDE": -78.860934549000007, "NAICS_CODE": "486210", "NAICS_DESC": "BOOSTER PUMPING STATION, NATURAL GAS TRANSPORTATION", "SOURCE": "EPA ENVIROFACTS, FERC FORM 2, CORPORATE WEBSITE", "SOURCEDATE": "Wed, 15 Jul 2020 00:00:00 GMT", "VAL_METHOD": "IMAGERY/OTHER", "VAL_DATE": "Fri, 17 Jun 2022 00:00:00 GMT", "WEBSITE": "http://www.columbiapipeinfo.com/", "PIPECO": "COLUMBIA GAS TRANSMISSION L.L.C.", "COMPID": "21", "OPERATOR": "COLUMBIA GAS TRANSMISSION L.L.C.", "POSREL": "WITHIN 40 FEET", "NUM_UNITS": 9, "CERT_HP": 58365, "PLANT_COST": 191237342, "EXP_FUEL": 2938474, "EXP_OTHER": 755973, "GAS_COMPRE": 1758147, "OP_COMP_HR": 19724, "OP_NUM_COM": 5, "OP_DATE_PE": "Fri, 17 Jan 2020 00:00:00 GMT", "EXP_POWER": 77511, "ELEC_COMPR": 0 }, "geometry": { "type": "Point", "coordinates": [ -78.86093454899995, 38.876846672000084 ] } },
{ "type": "Feature", "properties": { "OBJECTID": 937, "GCOMPID": "GCOMP613", "NAME": "LUCAS", "ADDRESS": "4307 STATE ROUTE 39", "CITY": "LUCAS", "STATE": "OH", "ZIP": "44843", "ZIP4": "NOT AVAILABLE", "TYPE": "NATURAL GAS COMPRESSOR STATION", "STATUS": "IN SERVICE", "COUNTY": "RICHLAND", "COUNTYFIPS": "39139", "COUNTRY": "USA", "LATITUDE": 40.706493, "LONGITUDE": -82.360607, "NAICS_CODE": "486210", "NAICS_DESC": "BOOSTER PUMPING STATION, NATURAL GAS TRANSPORTATION", "SOURCE": "FERC FORM 2, IMAGERY", "SOURCEDATE": "Wed, 15 Jul 2020 00:00:00 GMT", "VAL_METHOD": "IMAGERY/OTHER", "VAL_DATE": "Sat, 18 Jun 2022 00:00:00 GMT", "WEBSITE": "http://www.columbiapipeinfo.com/", "PIPECO": "COLUMBIA GAS TRANSMISSION L.L.C.", "COMPID": "21", "OPERATOR": "COLUMBIA GAS TRANSMISSION L.L.C.", "POSREL": "WITHIN 40 FEET", "NUM_UNITS": 5, "CERT_HP": 11120, "PLANT_COST": 26868461, "EXP_FUEL": 386742, "EXP_OTHER": 39315, "GAS_COMPRE": 249270, "OP_COMP_HR": 14195, "OP_NUM_COM": 5, "OP_DATE_PE": "Thu, 20 Feb 2020 00:00:00 GMT", "EXP_POWER": 0, "ELEC_COMPR": 0 }, "geometry": { "type": "Point", "coordinates": [ -82.360607, 40.706493 ] } },
{ "type": "Feature", "properties": { "OBJECTID": 940, "GCOMPID": "GCOMP616", "NAME": "CORNING", "ADDRESS": "4401 COLLEGE AVENUE", "CITY": "CORNING", "STATE": "NY", "ZIP": "14830", "ZIP4": "NOT AVAILABLE", "TYPE": "NATURAL GAS COMPRESSOR STATION", "STATUS": "IN SERVICE", "COUNTY": "STEUBEN", "COUNTYFIPS": "36101", "COUNTRY": "USA", "LATITUDE": 42.190199033, "LONGITUDE": -76.980814527999996, "NAICS_CODE": "486210", "NAICS_DESC": "BOOSTER PUMPING STATION, NATURAL GAS TRANSPORTATION", "SOURCE": "EPA ENVIROFACTS, FERC FORM 2, CORPORATE WEBSITE", "SOURCEDATE": "Wed, 15 Jul 2020 00:00:00 GMT", "VAL_METHOD": "IMAGERY/OTHER", "VAL_DATE": "Fri, 17 Jun 2022 00:00:00 GMT", "WEBSITE": "http://www.columbiapipeinfo.com/", "PIPECO": "COLUMBIA GAS TRANSMISSION L.L.C.", "COMPID": "21", "OPERATOR": "COLUMBIA GAS TRANSMISSION L.L.C.", "POSREL": "WITHIN 40 FEET", "NUM_UNITS": 1, "CERT_HP": 1000, "PLANT_COST": 2551211, "EXP_FUEL": 19620, "EXP_OTHER": 204599, "GAS_COMPRE": 11776, "OP_COMP_HR": 1503, "OP_NUM_COM": 1, "OP_DATE_PE": "Sat, 04 Jan 2020 00:00:00 GMT", "EXP_POWER": 1561, "ELEC_COMPR": 0 }, "geometry": { "type": "Point", "coordinates": [ -76.980814527999954, 42.190199033000084 ] } },
{ "type": "Feature", "properties": { "OBJECTID": 948, "GCOMPID": "GCOMP623", "NAME": "EAGLE", "ADDRESS": "446 FELLOWSHIP ROAD", "CITY": "EAGLE", "STATE": "PA", "ZIP": "15628", "ZIP4": "NOT AVAILABLE", "TYPE": "NATURAL GAS COMPRESSOR STATION", "STATUS": "IN SERVICE", "COUNTY": "CHESTER", "COUNTYFIPS": "42029", "COUNTRY": "USA", "LATITUDE": 40.097584, "LONGITUDE": -75.682315, "NAICS_CODE": "486210", "NAICS_DESC": "BOOSTER PUMPING STATION, NATURAL GAS TRANSPORTATION", "SOURCE": "FERC FORM 2, IMAGERY", "SOURCEDATE": "Wed, 15 Jul 2020 00:00:00 GMT", "VAL_METHOD": "IMAGERY/OTHER", "VAL_DATE": "Fri, 17 Jun 2022 00:00:00 GMT", "WEBSITE": "http://www.columbiapipeinfo.com/", "PIPECO": "COLUMBIA GAS TRANSMISSION L.L.C.", "COMPID": "21", "OPERATOR": "COLUMBIA GAS TRANSMISSION L.L.C.", "POSREL": "WITHIN 40 FEET", "NUM_UNITS": 4, "CERT_HP": 8050, "PLANT_COST": 34233741, "EXP_FUEL": 207379, "EXP_OTHER": 414828, "GAS_COMPRE": 122871, "OP_COMP_HR": 9332, "OP_NUM_COM": 4, "OP_DATE_PE": "Fri, 17 Jan 2020 00:00:00 GMT", "EXP_POWER": 41627, "ELEC_COMPR": 0 }, "geometry": { "type": "Point", "coordinates": [ -75.682314999999889, 40.097584 ] } },
{ "type": "Feature", "properties": { "OBJECTID": 951, "GCOMPID": "GCOMP626", "NAME": "FLAT TOP", "ADDRESS": "450 ELLISSON RIDGE ROAD", "CITY": "FLAT TOP", "STATE": "WV", "ZIP": "25841", "ZIP4": "NOT AVAILABLE", "TYPE": "NATURAL GAS COMPRESSOR STATION", "STATUS": "IN SERVICE", "COUNTY": "MERCER", "COUNTYFIPS": "54055", "COUNTRY": "USA", "LATITUDE": 37.5885768319758, "LONGITUDE": -81.091617519830194, "NAICS_CODE": "486210", "NAICS_DESC": "BOOSTER PUMPING STATION, NATURAL GAS TRANSPORTATION", "SOURCE": "EPA ENVIROFACTS, FERC FORM 2, CORPORATE WEBSITE", "SOURCEDATE": "Wed, 15 Jul 2020 00:00:00 GMT", "VAL_METHOD": "IMAGERY/OTHER", "VAL_DATE": "Fri, 24 Jun 2022 00:00:00 GMT", "WEBSITE": "http://www.columbiapipeinfo.com/", "PIPECO": "COLUMBIA GAS TRANSMISSION L.L.C.", "COMPID": "21", "OPERATOR": "COLUMBIA GAS TRANSMISSION L.L.C.", "POSREL": "WITHIN 40 FEET", "NUM_UNITS": 1, "CERT_HP": 6960, "PLANT_COST": 17159199, "EXP_FUEL": 91406, "EXP_OTHER": 260953, "GAS_COMPRE": 50747, "OP_COMP_HR": 1023, "OP_NUM_COM": 1, "OP_DATE_PE": "Tue, 07 Jan 2020 00:00:00 GMT", "EXP_POWER": 20465, "ELEC_COMPR": 0 }, "geometry": { "type": "Point", "coordinates": [ -81.091617519999886, 37.588576832000044 ] } },
{ "type": "Feature", "properties": { "OBJECTID": 961, "GCOMPID": "GCOMP635", "NAME": "DUNDEE", "ADDRESS": "4620 ROUTE 226", "CITY": "ROCK STREAM", "STATE": "NY", "ZIP": "14878", "ZIP4": "NOT AVAILABLE", "TYPE": "NATURAL GAS COMPRESSOR STATION", "STATUS": "IN SERVICE", "COUNTY": "SCHUYLER", "COUNTYFIPS": "36097", "COUNTRY": "USA", "LATITUDE": 42.456657072, "LONGITUDE": -76.977125793, "NAICS_CODE": "486210", "NAICS_DESC": "BOOSTER PUMPING STATION, NATURAL GAS TRANSPORTATION", "SOURCE": "EPA ENVIROFACTS, FERC FORM 2, CORPORATE WEBSITE", "SOURCEDATE": "Wed, 15 Jul 2020 00:00:00 GMT", "VAL_METHOD": "IMAGERY/OTHER", "VAL_DATE": "Sat, 18 Jun 2022 00:00:00 GMT", "WEBSITE": "http://www.columbiapipeinfo.com/", "PIPECO": "COLUMBIA GAS TRANSMISSION L.L.C.", "COMPID": "21", "OPERATOR": "COLUMBIA GAS TRANSMISSION L.L.C.", "POSREL": "WITHIN 40 FEET", "NUM_UNITS": 3, "CERT_HP": 1880, "PLANT_COST": 8923440, "EXP_FUEL": 20113, "EXP_OTHER": 5462, "GAS_COMPRE": 12690, "OP_COMP_HR": 2018, "OP_NUM_COM": 2, "OP_DATE_PE": "Thu, 12 Mar 2020 00:00:00 GMT", "EXP_POWER": 0, "ELEC_COMPR": 0 }, "geometry": { "type": "Point", "coordinates": [ -76.977125792999956, 42.456657072000013 ] } },
{ "type": "Feature", "properties": { "OBJECTID": 1008, "GCOMPID": "GCOMP678", "NAME": "BRINKER", "ADDRESS": "5213 LEETONIA ROAD.", "CITY": "LEETONIA", "STATE": "OH", "ZIP": "44431", "ZIP4": "NOT AVAILABLE", "TYPE": "NATURAL GAS COMPRESSOR STATION", "STATUS": "IN SERVICE", "COUNTY": "COLUMBIANA", "COUNTYFIPS": "39029", "COUNTRY": "USA", "LATITUDE": 40.824523, "LONGITUDE": -80.756401, "NAICS_CODE": "486210", "NAICS_DESC": "BOOSTER PUMPING STATION, NATURAL GAS TRANSPORTATION", "SOURCE": "EPA ENVIROFACTS, FERC FORM 2, CORPORATE WEBSITE", "SOURCEDATE": "Wed, 15 Jul 2020 00:00:00 GMT", "VAL_METHOD": "IMAGERY/OTHER", "VAL_DATE": "Fri, 17 Jun 2022 00:00:00 GMT", "WEBSITE": "http://www.columbiapipeinfo.com/", "PIPECO": "COLUMBIA GAS TRANSMISSION L.L.C.", "COMPID": "21", "OPERATOR": "COLUMBIA GAS TRANSMISSION L.L.C.", "POSREL": "WITHIN 40 FEET", "NUM_UNITS": 3, "CERT_HP": 3080, "PLANT_COST": 11839537, "EXP_FUEL": 16950, "EXP_OTHER": 3576, "GAS_COMPRE": 10383, "OP_COMP_HR": 1321, "OP_NUM_COM": 1, "OP_DATE_PE": "Wed, 19 Feb 2020 00:00:00 GMT", "EXP_POWER": 0, "ELEC_COMPR": 0 }, "geometry": { "type": "Point", "coordinates": [ -80.756401, 40.824523 ] } },
{ "type": "Feature", "properties": { "OBJECTID": 1010, "GCOMPID": "GCOMP68", "NAME": "GREENCASTLE", "ADDRESS": "10750 WELSH RUN ROAD", "CITY": "GREENSCASTLE", "STATE": "PA", "ZIP": "17225", "ZIP4": "NOT AVAILABLE", "TYPE": "NATURAL GAS COMPRESSOR STATION", "STATUS": "IN SERVICE", "COUNTY": "FRANKLIN", "COUNTYFIPS": "42055", "COUNTRY": "USA", "LATITUDE": 39.780408, "LONGITUDE": -77.832872, "NAICS_CODE": "486210", "NAICS_DESC": "BOOSTER PUMPING STATION, NATURAL GAS TRANSPORTATION", "SOURCE": "EPA ENVIROFACTS, FERC FORM 2, CORPORATE WEBSITE", "SOURCEDATE": "Wed, 15 Jul 2020 00:00:00 GMT", "VAL_METHOD": "IMAGERY/OTHER", "VAL_DATE": "Fri, 17 Jun 2022 00:00:00 GMT", "WEBSITE": "http://www.columbiapipeinfo.com/", "PIPECO": "COLUMBIA GAS TRANSMISSION L.L.C.", "COMPID": "21", "OPERATOR": "COLUMBIA GAS TRANSMISSION L.L.C.", "POSREL": "WITHIN 40 FEET", "NUM_UNITS": 5, "CERT_HP": 6860, "PLANT_COST": 28699729, "EXP_FUEL": 228665, "EXP_OTHER": 254960, "GAS_COMPRE": 131656, "OP_COMP_HR": 5315, "OP_NUM_COM": 3, "OP_DATE_PE": "Mon, 06 Jan 2020 00:00:00 GMT", "EXP_POWER": 605, "ELEC_COMPR": 0 }, "geometry": { "type": "Point", "coordinates": [ -77.832872, 39.780408000000101 ] } },
{ "type": "Feature", "properties": { "OBJECTID": 1064, "GCOMPID": "GCOMP728", "NAME": "YORK", "ADDRESS": "589 NORTH STATE ROAD", "CITY": "MEDINA", "STATE": "OH", "ZIP": "44256", "ZIP4": "1400", "TYPE": "NATURAL GAS COMPRESSOR STATION", "STATUS": "IN SERVICE", "COUNTY": "MEDINA", "COUNTYFIPS": "39103", "COUNTRY": "USA", "LATITUDE": 41.149236, "LONGITUDE": -81.880266, "NAICS_CODE": "486210", "NAICS_DESC": "BOOSTER PUMPING STATION, NATURAL GAS TRANSPORTATION", "SOURCE": "EPA ENVIROFACTS, FERC FORM 2, CORPORATE WEBSITE", "SOURCEDATE": "Wed, 15 Jul 2020 00:00:00 GMT", "VAL_METHOD": "IMAGERY/OTHER", "VAL_DATE": "Fri, 17 Jun 2022 00:00:00 GMT", "WEBSITE": "http://www.columbiapipeinfo.com/", "PIPECO": "COLUMBIA GAS TRANSMISSION L.L.C.", "COMPID": "21", "OPERATOR": "COLUMBIA GAS TRANSMISSION L.L.C.", "POSREL": "WITHIN 40 FEET", "NUM_UNITS": 3, "CERT_HP": 2000, "PLANT_COST": 3362243, "EXP_FUEL": 0, "EXP_OTHER": 17296, "GAS_COMPRE": 0, "OP_COMP_HR": 0, "OP_NUM_COM": 0, "OP_DATE_PE": "Sat, 17 Oct 2020 00:00:00 GMT", "EXP_POWER": 0, "ELEC_COMPR": 0 }, "geometry": { "type": "Point", "coordinates": [ -81.880266, 41.149236 ] } },
{ "type": "Feature", "properties": { "OBJECTID": 1081, "GCOMPID": "GCOMP743", "NAME": "MCARTHUR", "ADDRESS": "61318 MOUNT ZION ROAD.", "CITY": "MCARTHUR", "STATE": "OH", "ZIP": "45651", "ZIP4": "NOT AVAILABLE", "TYPE": "NATURAL GAS COMPRESSOR STATION", "STATUS": "IN SERVICE", "COUNTY": "VINTON", "COUNTYFIPS": "39163", "COUNTRY": "USA", "LATITUDE": 39.239313, "LONGITUDE": -82.543246, "NAICS_CODE": "486210", "NAICS_DESC": "BOOSTER PUMPING STATION, NATURAL GAS TRANSPORTATION", "SOURCE": "EPA ENVIROFACTS, FERC FORM 2, CORPORATE WEBSITE", "SOURCEDATE": "Wed, 15 Jul 2020 00:00:00 GMT", "VAL_METHOD": "IMAGERY/OTHER", "VAL_DATE": "Fri, 17 Jun 2022 00:00:00 GMT", "WEBSITE": "http://www.columbiapipeinfo.com/", "PIPECO": "COLUMBIA GAS TRANSMISSION L.L.C.", "COMPID": "21", "OPERATOR": "COLUMBIA GAS TRANSMISSION L.L.C.", "POSREL": "WITHIN 40 FEET", "NUM_UNITS": 3, "CERT_HP": 3300, "PLANT_COST": 7984583, "EXP_FUEL": 48439, "EXP_OTHER": 8759, "GAS_COMPRE": 30634, "OP_COMP_HR": 3236, "OP_NUM_COM": 2, "OP_DATE_PE": "Mon, 20 Jan 2020 00:00:00 GMT", "EXP_POWER": 0, "ELEC_COMPR": 0 }, "geometry": { "type": "Point", "coordinates": [ -82.543246, 39.239313 ] } },
{ "type": "Feature", "properties": { "OBJECTID": null, "GCOMPID": "GCOMP746", "NAME": "CRAWFORD", "ADDRESS": "6175 OLD LOGAN ROAD", "CITY": "CRAWFORD", "STATE": "OH", "ZIP": "43155", "ZIP4": "NOT AVAILABLE", "TYPE": "NATURAL GAS COMPRESSOR STATION", "STATUS": "IN SERVICE", "COUNTY": "FAIRFIELD", "COUNTYFIPS": "39045", "COUNTRY": "USA", "LATITUDE": 39.631648, "LONGITUDE": -82.556225, "NAICS_CODE": "486210", "NAICS_DESC": "BOOSTER PUMPING STATION, NATURAL GAS TRANSPORTATION", "SOURCE": "EPA ENVIROFACTS, FERC FORM 2, CORPORATE WEBSITE", "SOURCEDATE": "Wed, 15 Jul 2020 00:00:00 GMT", "VAL_METHOD": "IMAGERY/OTHER", "VAL_DATE": "Fri, 17 Jun 2022 00:00:00 GMT", "WEBSITE": "http://www.columbiapipeinfo.com/", "PIPECO": "COLUMBIA GAS TRANSMISSION L.L.C.", "COMPID": "21", "OPERATOR": "COLUMBIA GAS TRANSMISSION L.L.C.", "POSREL": "WITHIN 40 FEET", "NUM_UNITS": 14, "CERT_HP": 29880, "PLANT_COST": 109035621, "EXP_FUEL": 537710, "EXP_OTHER": 59021, "GAS_COMPRE": 328358, "OP_COMP_HR": 21740, "OP_NUM_COM": 7, "OP_DATE_PE": "Sun, 03 May 2020 00:00:00 GMT", "EXP_POWER": 0, "ELEC_COMPR": 0 }, "geometry": { "type": "Point", "coordinates": [ -82.556225, 39.631648 ] } },
{ "type": "Feature", "properties": { "OBJECTID": 1087, "GCOMPID": "GCOMP749", "NAME": "NYE", "ADDRESS": "6207 HAMLIN ROAD", "CITY": "HAMLIN", "STATE": "WV", "ZIP": "25523", "ZIP4": "NOT AVAILABLE", "TYPE": "NATURAL GAS COMPRESSOR STATION", "STATUS": "IN SERVICE", "COUNTY": "LINCOLN", "COUNTYFIPS": "54043", "COUNTRY": "USA", "LATITUDE": 38.337209, "LONGITUDE": -82.044276, "NAICS_CODE": "486210", "NAICS_DESC": "BOOSTER PUMPING STATION, NATURAL GAS TRANSPORTATION", "SOURCE": "FERC FORM 2, IMAGERY", "SOURCEDATE": "Wed, 15 Jul 2020 00:00:00 GMT", "VAL_METHOD": "IMAGERY/OTHER", "VAL_DATE": "Fri, 17 Jun 2022 00:00:00 GMT", "WEBSITE": "http://www.columbiapipeinfo.com/", "PIPECO": "COLUMBIA GAS TRANSMISSION L.L.C.", "COMPID": "21", "OPERATOR": "COLUMBIA GAS TRANSMISSION L.L.C.", "POSREL": "WITHIN 40 FEET", "NUM_UNITS": 2, "CERT_HP": 634, "PLANT_COST": 1034311, "EXP_FUEL": 33520, "EXP_OTHER": 151899, "GAS_COMPRE": 20328, "OP_COMP_HR": 8589, "OP_NUM_COM": 2, "OP_DATE_PE": "Fri, 24 Jan 2020 00:00:00 GMT", "EXP_POWER": 3839, "ELEC_COMPR": 0 }, "geometry": { "type": "Point", "coordinates": [ -82.044276, 38.337209 ] } },
{ "type": "Feature", "properties": { "OBJECTID": 1101, "GCOMPID": "GCOMP761", "NAME": "WALBRIDGE", "ADDRESS": "638 HIGHWAY 1690", "CITY": "LOUISA", "STATE": "KY", "ZIP": "41230", "ZIP4": "NOT AVAILABLE", "TYPE": "NATURAL GAS COMPRESSOR STATION", "STATUS": "IN SERVICE", "COUNTY": "LAWRENCE", "COUNTYFIPS": "21127", "COUNTRY": "USA", "LATITUDE": 38.074643, "LONGITUDE": -82.590094, "NAICS_CODE": "486210", "NAICS_DESC": "BOOSTER PUMPING STATION, NATURAL GAS TRANSPORTATION", "SOURCE": "EPA ENVIROFACTS, FERC FORM 2, CORPORATE WEBSITE", "SOURCEDATE": "Wed, 15 Jul 2020 00:00:00 GMT", "VAL_METHOD": "IMAGERY/OTHER", "VAL_DATE": "Fri, 17 Jun 2022 00:00:00 GMT", "WEBSITE": "http://www.columbiapipeinfo.com/", "PIPECO": "COLUMBIA GAS TRANSMISSION L.L.C.", "COMPID": "21", "OPERATOR": "COLUMBIA GAS TRANSMISSION L.L.C.", "POSREL": "WITHIN 40 FEET", "NUM_UNITS": 1, "CERT_HP": 500, "PLANT_COST": 872843, "EXP_FUEL": 18027, "EXP_OTHER": 115920, "GAS_COMPRE": 10900, "OP_COMP_HR": 2312, "OP_NUM_COM": 1, "OP_DATE_PE": "Wed, 01 Jan 2020 00:00:00 GMT", "EXP_POWER": 2399, "ELEC_COMPR": 0 }, "geometry": { "type": "Point", "coordinates": [ -82.590094, 38.074643 ] } },
{ "type": "Feature", "properties": { "OBJECTID": 1150, "GCOMPID": "GCOMP805", "NAME": "GUERNSEY", "ADDRESS": "68523 MOUNTAIN HERMAN ROAD", "CITY": "CAMBRIDGE", "STATE": "OH", "ZIP": "43725", "ZIP4": "NOT AVAILABLE", "TYPE": "NATURAL GAS COMPRESSOR STATION", "STATUS": "IN SERVICE", "COUNTY": "GUERNSEY", "COUNTYFIPS": "39059", "COUNTRY": "USA", "LATITUDE": 40.099552293000002, "LONGITUDE": -81.639380975999998, "NAICS_CODE": "486210", "NAICS_DESC": "BOOSTER PUMPING STATION, NATURAL GAS TRANSPORTATION", "SOURCE": "EPA ENVIROFACTS, FERC FORM 2, CORPORATE WEBSITE", "SOURCEDATE": "Wed, 15 Jul 2020 00:00:00 GMT", "VAL_METHOD": "IMAGERY/OTHER", "VAL_DATE": "Fri, 17 Jun 2022 00:00:00 GMT", "WEBSITE": "http://www.columbiapipeinfo.com/", "PIPECO": "COLUMBIA GAS TRANSMISSION L.L.C.", "COMPID": "21", "OPERATOR": "COLUMBIA GAS TRANSMISSION L.L.C.", "POSREL": "WITHIN 40 FEET", "NUM_UNITS": 2, "CERT_HP": 880, "PLANT_COST": 1259398, "EXP_FUEL": 9571, "EXP_OTHER": 4415, "GAS_COMPRE": 6381, "OP_COMP_HR": 1484, "OP_NUM_COM": 2, "OP_DATE_PE": "Fri, 31 Jan 2020 00:00:00 GMT", "EXP_POWER": 0, "ELEC_COMPR": 0 }, "geometry": { "type": "Point", "coordinates": [ -81.639380975999941, 40.099552293 ] } },
{ "type": "Feature", "properties": { "OBJECTID": 1158, "GCOMPID": "GCOMP812", "NAME": "COCO", "ADDRESS": "7 COCO ROAD", "CITY": "ELKVIEW", "STATE": "WV", "ZIP": "25071", "ZIP4": "NOT AVAILABLE", "TYPE": "NATURAL GAS COMPRESSOR STATION", "STATUS": "IN SERVICE", "COUNTY": "KANAWHA", "COUNTYFIPS": "54039", "COUNTRY": "USA", "LATITUDE": 38.402159011999998, "LONGITUDE": -81.416560335, "NAICS_CODE": "486210", "NAICS_DESC": "BOOSTER PUMPING STATION, NATURAL GAS TRANSPORTATION", "SOURCE": "EPA ENVIROFACTS, FERC FORM 2, CORPORATE WEBSITE", "SOURCEDATE": "Wed, 15 Jul 2020 00:00:00 GMT", "VAL_METHOD": "IMAGERY/OTHER", "VAL_DATE": "Fri, 17 Jun 2022 00:00:00 GMT", "WEBSITE": "http://www.columbiapipeinfo.com/", "PIPECO": "COLUMBIA GAS TRANSMISSION L.L.C.", "COMPID": "21", "OPERATOR": "COLUMBIA GAS TRANSMISSION L.L.C.", "POSREL": "WITHIN 40 FEET", "NUM_UNITS": 7, "CERT_HP": 9500, "PLANT_COST": 75306746, "EXP_FUEL": 343543, "EXP_OTHER": 75473, "GAS_COMPRE": 227731, "OP_COMP_HR": 27882, "OP_NUM_COM": 7, "OP_DATE_PE": "Sat, 28 Mar 2020 00:00:00 GMT", "EXP_POWER": 0, "ELEC_COMPR": 0 }, "geometry": { "type": "Point", "coordinates": [ -81.416560334999943, 38.402159012000048 ] } },
{ "type": "Feature", "properties": { "OBJECTID": 1161, "GCOMPID": "GCOMP815", "NAME": "MAJORSVILLE", "ADDRESS": "70 CALI'S MAJORSVILLE ROAD", "CITY": "WEST FINLEY", "STATE": "PA", "ZIP": "15377", "ZIP4": "NOT AVAILABLE", "TYPE": "NATURAL GAS COMPRESSOR STATION", "STATUS": "IN SERVICE", "COUNTY": "WASHINGTON", "COUNTYFIPS": "42125", "COUNTRY": "USA", "LATITUDE": 39.964095606999997, "LONGITUDE": -80.52117274, "NAICS_CODE": "486210", "NAICS_DESC": "BOOSTER PUMPING STATION, NATURAL GAS TRANSPORTATION", "SOURCE": "FERC FORM 2, IMAGERY", "SOURCEDATE": "Wed, 15 Jul 2020 00:00:00 GMT", "VAL_METHOD": "IMAGERY/OTHER", "VAL_DATE": "Fri, 17 Jun 2022 00:00:00 GMT", "WEBSITE": "http://www.columbiapipeinfo.com/", "PIPECO": "COLUMBIA GAS TRANSMISSION L.L.C.", "COMPID": "21", "OPERATOR": "COLUMBIA GAS TRANSMISSION L.L.C.", "POSREL": "WITHIN 40 FEET", "NUM_UNITS": 1, "CERT_HP": 360, "PLANT_COST": 1165455, "EXP_FUEL": 0, "EXP_OTHER": 252394, "GAS_COMPRE": 0, "OP_COMP_HR": 0, "OP_NUM_COM": 0, "OP_DATE_PE": "Wed, 15 Jul 2020 00:00:00 GMT", "EXP_POWER": 0, "ELEC_COMPR": 0 }, "geometry": { "type": "Point", "coordinates": [ -80.52117274, 39.964095607000047 ] } },
{ "type": "Feature", "properties": { "OBJECTID": 1187, "GCOMPID": "GCOMP839", "NAME": "MILEY", "ADDRESS": "7531 STATE ROUTE 514", "CITY": "BIG PRAIRIE", "STATE": "OH", "ZIP": "44611", "ZIP4": "NOT AVAILABLE", "TYPE": "NATURAL GAS COMPRESSOR STATION", "STATUS": "IN SERVICE", "COUNTY": "HOLMES", "COUNTYFIPS": "39075", "COUNTRY": "USA", "LATITUDE": 40.62483, "LONGITUDE": -82.088385, "NAICS_CODE": "486210", "NAICS_DESC": "BOOSTER PUMPING STATION, NATURAL GAS TRANSPORTATION", "SOURCE": "EPA ENVIROFACTS, FERC FORM 2, CORPORATE WEBSITE", "SOURCEDATE": "Mon, 28 Sep 2015 00:00:00 GMT", "VAL_METHOD": "IMAGERY/OTHER", "VAL_DATE": "Fri, 17 Jun 2022 00:00:00 GMT", "WEBSITE": "http://www.columbiapipeinfo.com/", "PIPECO": "COLUMBIA GAS TRANSMISSION L.L.C.", "COMPID": "21", "OPERATOR": "COLUMBIA GAS TRANSMISSION L.L.C.", "POSREL": "WITHIN 40 FEET", "NUM_UNITS": 3, "CERT_HP": 3250, "PLANT_COST": 4295252, "EXP_FUEL": 54514, "EXP_OTHER": 84660, "GAS_COMPRE": 33521, "OP_COMP_HR": 8635, "OP_NUM_COM": 2, "OP_DATE_PE": "Tue, 14 Jul 2020 00:00:00 GMT", "EXP_POWER": 10625, "ELEC_COMPR": 0 }, "geometry": { "type": "Point", "coordinates": [ -82.088385, 40.62483 ] } },
{ "type": "Feature", "properties": { "OBJECTID": 1251, "GCOMPID": "GCOMP897", "NAME": "IOWA", "ADDRESS": "893 IOWA ROAD", "CITY": "BROOKVILLE", "STATE": "PA", "ZIP": "15825", "ZIP4": "NOT AVAILABLE", "TYPE": "NATURAL GAS COMPRESSOR STATION", "STATUS": "IN SERVICE", "COUNTY": "JEFFERSON", "COUNTYFIPS": "42065", "COUNTRY": "USA", "LATITUDE": 41.129110547000003, "LONGITUDE": -79.008702627000005, "NAICS_CODE": "486210", "NAICS_DESC": "BOOSTER PUMPING STATION, NATURAL GAS TRANSPORTATION", "SOURCE": "EPA ENVIROFACTS, FERC FORM 2, CORPORATE WEBSITE", "SOURCEDATE": "Wed, 15 Jul 2020 00:00:00 GMT", "VAL_METHOD": "IMAGERY/OTHER", "VAL_DATE": "Fri, 17 Jun 2022 00:00:00 GMT", "WEBSITE": "http://www.columbiapipeinfo.com/", "PIPECO": "COLUMBIA GAS TRANSMISSION L.L.C.", "COMPID": "21", "OPERATOR": "COLUMBIA GAS TRANSMISSION L.L.C.", "POSREL": "WITHIN 40 FEET", "NUM_UNITS": 2, "CERT_HP": 2235, "PLANT_COST": 687478, "EXP_FUEL": 114876, "EXP_OTHER": 343179, "GAS_COMPRE": 70653, "OP_COMP_HR": 8624, "OP_NUM_COM": 2, "OP_DATE_PE": "Thu, 27 Feb 2020 00:00:00 GMT", "EXP_POWER": 0, "ELEC_COMPR": 0 }, "geometry": { "type": "Point", "coordinates": [ -79.008702626999948, 41.129110547000039 ] } },
{ "type": "Feature", "properties": { "OBJECTID": 1262, "GCOMPID": "GCOMP906", "NAME": "MINISINK", "ADDRESS": "924 NY-284", "CITY": "WESTTOWN", "STATE": "NY", "ZIP": "10998", "ZIP4": "NOT AVAILABLE", "TYPE": "NATURAL GAS COMPRESSOR STATION", "STATUS": "IN SERVICE", "COUNTY": "ORANGE", "COUNTYFIPS": "36071", "COUNTRY": "USA", "LATITUDE": 41.343557, "LONGITUDE": -74.531724, "NAICS_CODE": "486210", "NAICS_DESC": "BOOSTER PUMPING STATION, NATURAL GAS TRANSPORTATION", "SOURCE": "EPA ENVIROFACTS, FERC FORM 2, CORPORATE WEBSITE, IMAGERY", "SOURCEDATE": "Wed, 15 Jul 2020 00:00:00 GMT", "VAL_METHOD": "IMAGERY/OTHER", "VAL_DATE": "Mon, 20 Jun 2022 00:00:00 GMT", "WEBSITE": "http://www.columbiapipeinfo.com/", "PIPECO": "COLUMBIA GAS TRANSMISSION L.L.C.", "COMPID": "21", "OPERATOR": "COLUMBIA GAS TRANSMISSION L.L.C.", "POSREL": "WITHIN 40 FEET", "NUM_UNITS": 2, "CERT_HP": 12260, "PLANT_COST": -999, "EXP_FUEL": 0, "EXP_OTHER": 0, "GAS_COMPRE": 0, "OP_COMP_HR": 0, "OP_NUM_COM": 0, "OP_DATE_PE": "Wed, 15 Jul 2020 00:00:00 GMT", "EXP_POWER": 0, "ELEC_COMPR": 0 }, "geometry": { "type": "Point", "coordinates": [ -74.531724, 41.343557 ] } },
{ "type": "Feature", "properties": { "OBJECTID": 1288, "GCOMPID": "GCOMP93", "NAME": "LEBANON", "ADDRESS": "1157 STATE ROAD 122 W", "CITY": "LEBANON", "STATE": "OH", "ZIP": "45036", "ZIP4": "NOT AVAILABLE", "TYPE": "NATURAL GAS COMPRESSOR STATION", "STATUS": "IN SERVICE", "COUNTY": "WARREN", "COUNTYFIPS": "39165", "COUNTRY": "USA", "LATITUDE": 39.486236, "LONGITUDE": -84.22281, "NAICS_CODE": "486210", "NAICS_DESC": "BOOSTER PUMPING STATION, NATURAL GAS TRANSPORTATION", "SOURCE": "EPA ENVIROFACTS, FERC FORM 2, CORPORATE WEBSITE, IMAGERY", "SOURCEDATE": "Thu, 15 Oct 2015 00:00:00 GMT", "VAL_METHOD": "IMAGERY/OTHER", "VAL_DATE": "Fri, 17 Jun 2022 00:00:00 GMT", "WEBSITE": "http://www.columbiapipeinfo.com/", "PIPECO": "COLUMBIA GAS TRANSMISSION L.L.C.", "COMPID": "21", "OPERATOR": "COLUMBIA GAS TRANSMISSION L.L.C.", "POSREL": "WITHIN 40 FEET", "NUM_UNITS": 3, "CERT_HP": 610, "PLANT_COST": 807433, "EXP_FUEL": 0, "EXP_OTHER": 0, "GAS_COMPRE": 0, "OP_COMP_HR": 0, "OP_NUM_COM": 0, "OP_DATE_PE": "Fri, 31 Jan 2020 00:00:00 GMT", "EXP_POWER": 285, "ELEC_COMPR": 0 }, "geometry": { "type": "Point", "coordinates": [ -84.22281, 39.486236 ] } },
{ "type": "Feature", "properties": { "OBJECTID": 1291, "GCOMPID": "GCOMP932", "NAME": "TERRA ALTA", "ADDRESS": "AURORA PIKE AND BUCKLICK", "CITY": "TERRA ALTA", "STATE": "WV", "ZIP": "26764", "ZIP4": "NOT AVAILABLE", "TYPE": "NATURAL GAS COMPRESSOR STATION", "STATUS": "IN SERVICE", "COUNTY": "PRESTON", "COUNTYFIPS": "54077", "COUNTRY": "USA", "LATITUDE": 39.421208, "LONGITUDE": -79.546187, "NAICS_CODE": "486210", "NAICS_DESC": "BOOSTER PUMPING STATION, NATURAL GAS TRANSPORTATION", "SOURCE": "EPA ENVIROFACTS, FERC FORM 2, CORPORATE WEBSITE", "SOURCEDATE": "Wed, 15 Jul 2020 00:00:00 GMT", "VAL_METHOD": "IMAGERY/OTHER", "VAL_DATE": "Fri, 17 Jun 2022 00:00:00 GMT", "WEBSITE": "http://www.columbiapipeinfo.com/", "PIPECO": "COLUMBIA GAS TRANSMISSION L.L.C.", "COMPID": "21", "OPERATOR": "COLUMBIA GAS TRANSMISSION L.L.C.", "POSREL": "WITHIN 40 FEET", "NUM_UNITS": 5, "CERT_HP": 5500, "PLANT_COST": 26105165, "EXP_FUEL": 268224, "EXP_OTHER": 60815, "GAS_COMPRE": 176072, "OP_COMP_HR": 22467, "OP_NUM_COM": 5, "OP_DATE_PE": "Tue, 07 Apr 2020 00:00:00 GMT", "EXP_POWER": 0, "ELEC_COMPR": 0 }, "geometry": { "type": "Point", "coordinates": [ -79.546187, 39.421208 ] } },
{ "type": "Feature", "properties": { "OBJECTID": 1297, "GCOMPID": "GCOMP938", "NAME": "HORSE CREEK", "ADDRESS": "BIG HORSE CREEK COMPRESSOR STREET AND STATE ROUTE 3", "CITY": "JULIAN", "STATE": "WV", "ZIP": "25529", "ZIP4": "NOT AVAILABLE", "TYPE": "NATURAL GAS COMPRESSOR STATION", "STATUS": "IN SERVICE", "COUNTY": "BOONE", "COUNTYFIPS": "54005", "COUNTRY": "USA", "LATITUDE": 38.164084, "LONGITUDE": -81.864787, "NAICS_CODE": "486210", "NAICS_DESC": "BOOSTER PUMPING STATION, NATURAL GAS TRANSPORTATION", "SOURCE": "EPA ENVIROFACTS, FERC FORM 2, CORPORATE WEBSITE", "SOURCEDATE": "Wed, 15 Jul 2020 00:00:00 GMT", "VAL_METHOD": "IMAGERY/OTHER", "VAL_DATE": "Fri, 17 Jun 2022 00:00:00 GMT", "WEBSITE": "http://www.columbiapipeinfo.com/", "PIPECO": "COLUMBIA GAS TRANSMISSION L.L.C.", "COMPID": "21", "OPERATOR": "COLUMBIA GAS TRANSMISSION L.L.C.", "POSREL": "WITHIN 40 FEET", "NUM_UNITS": 1, "CERT_HP": 1006, "PLANT_COST": 2694624, "EXP_FUEL": 74556, "EXP_OTHER": 97971, "GAS_COMPRE": 45902, "OP_COMP_HR": 8679, "OP_NUM_COM": 1, "OP_DATE_PE": "Wed, 01 Jan 2020 00:00:00 GMT", "EXP_POWER": 4625, "ELEC_COMPR": 0 }, "geometry": { "type": "Point", "coordinates": [ -81.864787, 38.164084 ] } },
{ "type": "Feature", "properties": { "OBJECTID": 1314, "GCOMPID": "GCOMP953", "NAME": "BICKERS", "ADDRESS": "CELT ROAD AND PEA RIDGE ROAD", "CITY": "STANARDSVILLE", "STATE": "VA", "ZIP": "22973", "ZIP4": "NOT AVAILABLE", "TYPE": "NATURAL GAS COMPRESSOR STATION", "STATUS": "IN SERVICE", "COUNTY": "GREENE", "COUNTYFIPS": "51079", "COUNTRY": "USA", "LATITUDE": 38.275908, "LONGITUDE": -78.460736, "NAICS_CODE": "486210", "NAICS_DESC": "BOOSTER PUMPING STATION, NATURAL GAS TRANSPORTATION", "SOURCE": "EPA ENVIROFACTS, FERC FORM 2, CORPORATE WEBSITE", "SOURCEDATE": "Wed, 15 Jul 2020 00:00:00 GMT", "VAL_METHOD": "IMAGERY/OTHER", "VAL_DATE": "Fri, 17 Jun 2022 00:00:00 GMT", "WEBSITE": "http://www.columbiapipeinfo.com/", "PIPECO": "COLUMBIA GAS TRANSMISSION L.L.C.", "COMPID": "21", "OPERATOR": "COLUMBIA GAS TRANSMISSION L.L.C.", "POSREL": "WITHIN 40 FEET", "NUM_UNITS": 4, "CERT_HP": 12800, "PLANT_COST": 30803704, "EXP_FUEL": 237276, "EXP_OTHER": 533258, "GAS_COMPRE": 145339, "OP_COMP_HR": 8490, "OP_NUM_COM": 2, "OP_DATE_PE": "Thu, 19 Nov 2020 00:00:00 GMT", "EXP_POWER": 38907, "ELEC_COMPR": 0 }, "geometry": { "type": "Point", "coordinates": [ -78.460736, 38.275908 ] } },
{ "type": "Feature", "properties": { "OBJECTID": 1326, "GCOMPID": "GCOMP964", "NAME": "HUFF CREEK", "ADDRESS": "COUNTY HIGHWAY 8 (LITTLE HUFF CREEK ROAD)", "CITY": "HANOVER", "STATE": "WV", "ZIP": "24839", "ZIP4": "NOT AVAILABLE", "TYPE": "NATURAL GAS COMPRESSOR STATION", "STATUS": "IN SERVICE", "COUNTY": "WYOMING", "COUNTYFIPS": "54109", "COUNTRY": "USA", "LATITUDE": 37.550807, "LONGITUDE": -81.786802, "NAICS_CODE": "486210", "NAICS_DESC": "BOOSTER PUMPING STATION, NATURAL GAS TRANSPORTATION", "SOURCE": "EPA ENVIROFACTS, FERC FORM 2, CORPORATE WEBSITE", "SOURCEDATE": "Wed, 15 Jul 2020 00:00:00 GMT", "VAL_METHOD": "IMAGERY/OTHER", "VAL_DATE": "Fri, 17 Jun 2022 00:00:00 GMT", "WEBSITE": "http://www.columbiapipeinfo.com/", "PIPECO": "COLUMBIA GAS TRANSMISSION L.L.C.", "COMPID": "21", "OPERATOR": "COLUMBIA GAS TRANSMISSION L.L.C.", "POSREL": "WITHIN 40 FEET", "NUM_UNITS": 1, "CERT_HP": 3200, "PLANT_COST": 15228166, "EXP_FUEL": 217, "EXP_OTHER": 170055, "GAS_COMPRE": 106, "OP_COMP_HR": 7, "OP_NUM_COM": 1, "OP_DATE_PE": "Thu, 17 Dec 2020 00:00:00 GMT", "EXP_POWER": 111, "ELEC_COMPR": 0 }, "geometry": { "type": "Point", "coordinates": [ -81.786802, 37.550807 ] } },
{ "type": "Feature", "properties": { "OBJECTID": 1337, "GCOMPID": "GCOMP974", "NAME": "SALISBURY", "ADDRESS": "COLUMBIA DRIVE AND GAS COUNTY ROAD", "CITY": "MEYERSDALE", "STATE": "PA", "ZIP": "15558", "ZIP4": "NOT AVAILABLE", "TYPE": "NATURAL GAS COMPRESSOR STATION", "STATUS": "IN SERVICE", "COUNTY": "SOMERSET", "COUNTYFIPS": "42111", "COUNTRY": "USA", "LATITUDE": 39.723289, "LONGITUDE": -79.007855, "NAICS_CODE": "486210", "NAICS_DESC": "BOOSTER PUMPING STATION, NATURAL GAS TRANSPORTATION", "SOURCE": "EPA ENVIROFACTS, FERC FORM 2, CORPORATE WEBSITE", "SOURCEDATE": "Wed, 15 Jul 2020 00:00:00 GMT", "VAL_METHOD": "IMAGERY/OTHER", "VAL_DATE": "Fri, 17 Jun 2022 00:00:00 GMT", "WEBSITE": "http://www.columbiapipeinfo.com/", "PIPECO": "COLUMBIA GAS TRANSMISSION L.L.C.", "COMPID": "21", "OPERATOR": "COLUMBIA GAS TRANSMISSION L.L.C.", "POSREL": "WITHIN 40 FEET", "NUM_UNITS": 5, "CERT_HP": 5480, "PLANT_COST": 7137920, "EXP_FUEL": 283888, "EXP_OTHER": 337396, "GAS_COMPRE": 167565, "OP_COMP_HR": 11766, "OP_NUM_COM": 5, "OP_DATE_PE": "Wed, 01 Jan 2020 00:00:00 GMT", "EXP_POWER": 6112, "ELEC_COMPR": 0 }, "geometry": { "type": "Point", "coordinates": [ -79.007855, 39.723289000000101 ] } },
{ "type": "Feature", "properties": { "OBJECTID": 1338, "GCOMPID": "GCOMP975", "NAME": "FRAMETOWN", "ADDRESS": "COLUMBIA GAS DRIVE AND COUNTY HIGHWAY 9/12", "CITY": "FRAMETOWN", "STATE": "WV", "ZIP": "26623", "ZIP4": "NOT AVAILABLE", "TYPE": "NATURAL GAS COMPRESSOR STATION", "STATUS": "IN SERVICE", "COUNTY": "BRAXTON", "COUNTYFIPS": "54007", "COUNTRY": "USA", "LATITUDE": 38.661222656, "LONGITUDE": -80.862251094000001, "NAICS_CODE": "486210", "NAICS_DESC": "BOOSTER PUMPING STATION, NATURAL GAS TRANSPORTATION", "SOURCE": "FERC FORM 2, IMAGERY", "SOURCEDATE": "Wed, 15 Jul 2020 00:00:00 GMT", "VAL_METHOD": "IMAGERY/OTHER", "VAL_DATE": "Fri, 17 Jun 2022 00:00:00 GMT", "WEBSITE": "http://www.columbiapipeinfo.com/", "PIPECO": "COLUMBIA GAS TRANSMISSION L.L.C.", "COMPID": "21", "OPERATOR": "COLUMBIA GAS TRANSMISSION L.L.C.", "POSREL": "WITHIN 40 FEET", "NUM_UNITS": 4, "CERT_HP": 21200, "PLANT_COST": 60296787, "EXP_FUEL": 37156, "EXP_OTHER": 624784, "GAS_COMPRE": 24098, "OP_COMP_HR": 243, "OP_NUM_COM": 1, "OP_DATE_PE": "Sat, 29 Feb 2020 00:00:00 GMT", "EXP_POWER": 33081, "ELEC_COMPR": 0 }, "geometry": { "type": "Point", "coordinates": [ -80.862251094000015, 38.661222656000042 ] } },
{ "type": "Feature", "properties": { "OBJECTID": 1339, "GCOMPID": "GCOMP976", "NAME": "DONEGAL", "ADDRESS": "COMPRESSOR STATION ROAD AND GAS ROAD", "CITY": "WEST ALEXANDER", "STATE": "PA", "ZIP": "15376", "ZIP4": "NOT AVAILABLE", "TYPE": "NATURAL GAS COMPRESSOR STATION", "STATUS": "IN SERVICE", "COUNTY": "WASHINGTON", "COUNTYFIPS": "42125", "COUNTRY": "USA", "LATITUDE": 40.111648, "LONGITUDE": -80.461927, "NAICS_CODE": "486210", "NAICS_DESC": "BOOSTER PUMPING STATION, NATURAL GAS TRANSPORTATION", "SOURCE": "EPA ENVIROFACTS, FERC FORM 2, CORPORATE WEBSITE", "SOURCEDATE": "Wed, 15 Jul 2020 00:00:00 GMT", "VAL_METHOD": "IMAGERY/OTHER", "VAL_DATE": "Thu, 19 May 2022 00:00:00 GMT", "WEBSITE": "http://www.columbiapipeinfo.com/", "PIPECO": "COLUMBIA GAS TRANSMISSION L.L.C.", "COMPID": "21", "OPERATOR": "COLUMBIA GAS TRANSMISSION L.L.C.", "POSREL": "WITHIN 40 FEET", "NUM_UNITS": 2, "CERT_HP": 2000, "PLANT_COST": 11645325, "EXP_FUEL": 94276, "EXP_OTHER": 21105, "GAS_COMPRE": 59842, "OP_COMP_HR": 7797, "OP_NUM_COM": 2, "OP_DATE_PE": "Sat, 25 Apr 2020 00:00:00 GMT", "EXP_POWER": 0, "ELEC_COMPR": 0 }, "geometry": { "type": "Point", "coordinates": [ -80.461926999999889, 40.111648 ] } }
]
}
