{
"type": "FeatureCollection",
"name": "P0184-compressor-stations",
"crs": { "type": "name", "properties": { "name": "urn:ogc:def:crs:OGC:1.3:CRS84" } },
"features": [
{ "type": "Feature", "properties": { "EXP_FUEL": "131532", "NUM_UNITS": "3", "VAL_METHOD": "IMAGERY/OTHER", "COMPID": "33", "PLANT_COST": "27479742", "COUNTYFIPS": "48495", "EXP_POWER": "0", "LONGITUDE": "-103.179208", "LATITUDE": "31.768478", "OBJECTID": "1157", "COUNTRY": "USA", "STATE": "TX", "WEBSITE": "https://pipeportal.kindermorgan.com/portalui/DefaultKM.aspx?TSP=EPGD", "OP_COMP_HR": "1215", "STATUS": "IN SERVICE", "OPERATOR": "KINDER MORGAN INC.", "CERT_HP": "23100", "COUNTY": "WINKLER", "ADDRESS": "6963 COUNTY ROAD 201", "POSREL": "WITHIN 40 FEET", "VAL_DATE": "Fri, 17 Jun 2022 00:00:00 GMT", "OP_DATE_PE": "Tue, 14 Jan 2020 00:00:00 GMT", "ZIP4": "NOT AVAILABLE", "SOURCE": "EPA ENVIROFACTS, FERC FORM 2, CORPORATE WEBSITE", "OP_NUM_COM": "2", "PIPECO": "EL PASO NATURAL GAS COMPANY L.L.C.", "NAME": "WINK", "GAS_COMPRE": "94847", "NAICS_DESC": "BOOSTER PUMPING STATION, NATURAL GAS TRANSPORTATION", "ELEC_COMPR": "0", "TYPE": "NATURAL GAS COMPRESSOR STATION", "NAICS_CODE": "486210", "ZIP": "79789", "EXP_OTHER": "198782", "CITY": "WINK", "GCOMPID": "GCOMP811", "SOURCEDATE": "Wed, 15 Jul 2020 00:00:00 GMT" }, "geometry": { "type": "Point", "coordinates": [ -103.179208, 31.768478 ] } },
{ "type": "Feature", "properties": { "EXP_FUEL": "890644", "NUM_UNITS": "3", "VAL_METHOD": "IMAGERY/OTHER", "COMPID": "33", "PLANT_COST": "19618091", "COUNTYFIPS": "08067", "EXP_POWER": "0", "LONGITUDE": "-107.882771803", "LATITUDE": "37.089318428", "OBJECTID": "325", "COUNTRY": "USA", "STATE": "CO", "WEBSITE": "https://pipeportal.kindermorgan.com/portalui/DefaultKM.aspx?TSP=EPGD", "OP_COMP_HR": "18076", "STATUS": "IN SERVICE", "OPERATOR": "KINDER MORGAN INC.", "CERT_HP": "18825", "COUNTY": "LA PLATA", "ADDRESS": "SEC 24 T33N R10W IN DURANGO, 9.1 MILES OF CO", "POSREL": "WITHIN 40 FEET", "VAL_DATE": "Fri, 17 Jun 2022 00:00:00 GMT", "OP_DATE_PE": "Wed, 01 Jan 2020 00:00:00 GMT", "ZIP4": "NOT AVAILABLE", "SOURCE": "EPA ENVIROFACTS, FERC FORM 2, CORPORATE WEBSITE", "OP_NUM_COM": "3", "PIPECO": "EL PASO NATURAL GAS COMPANY L.L.C.", "NAME": "BONDAD", "GAS_COMPRE": "676044", "NAICS_DESC": "BOOSTER PUMPING STATION, NATURAL GAS TRANSPORTATION", "ELEC_COMPR": "0", "TYPE": "NATURAL GAS COMPRESSOR STATION", "NAICS_CODE": "486210", "ZIP": "81137", "EXP_OTHER": "340819", "CITY": "IGNACIO", "GCOMPID": "GCOMP1291", "SOURCEDATE": "Wed, 15 Jul 2020 00:00:00 GMT" }, "geometry": { "type": "Point", "coordinates": [ -107.882771803, 37.089318428 ] } },
{ "type": "Feature", "properties": { "EXP_FUEL": "277518", "NUM_UNITS": "5", "VAL_METHOD": "IMAGERY/OTHER", "COMPID": "33", "PLANT_COST": "5211513", "COUNTYFIPS": "48279", "EXP_POWER": "0", "LONGITUDE": "-102.326906404", "LATITUDE": "34.30540633", "OBJECTID": "44", "COUNTRY": "USA", "STATE": "TX", "WEBSITE": "https://pipeportal.kindermorgan.com/portalui/DefaultKM.aspx?TSP=EPGD", "OP_COMP_HR": "19673", "STATUS": "IN SERVICE", "OPERATOR": "KINDER MORGAN INC.", "CERT_HP": "6750", "COUNTY": "LAMB", "ADDRESS": "EL PASO CAMP ROAD/TX-199; (16 MI S OF DIMMITT ON HIGHWAY 385, THEN W 1 MILE)", "POSREL": "WITHIN 40 FEET", "VAL_DATE": "Fri, 17 Jun 2022 00:00:00 GMT", "OP_DATE_PE": "Mon, 29 Jun 2020 00:00:00 GMT", "ZIP4": "NOT AVAILABLE", "SOURCE": "EPA ENVIROFACTS, FERC FORM 2, CORPORATE WEBSITE", "OP_NUM_COM": "4", "PIPECO": "EL PASO NATURAL GAS COMPANY L.L.C.", "NAME": "DIMMITT", "GAS_COMPRE": "217541", "NAICS_DESC": "BOOSTER PUMPING STATION, NATURAL GAS TRANSPORTATION", "ELEC_COMPR": "0", "TYPE": "NATURAL GAS COMPRESSOR STATION", "NAICS_CODE": "486210", "ZIP": "79027", "EXP_OTHER": "1058753", "CITY": "DIMMITT", "GCOMPID": "GCOMP1037", "SOURCEDATE": "Wed, 15 Jul 2020 00:00:00 GMT" }, "geometry": { "type": "Point", "coordinates": [ -102.326906404, 34.30540633 ] } },
{ "type": "Feature", "properties": { "EXP_FUEL": "3084678", "NUM_UNITS": "5", "VAL_METHOD": "IMAGERY/OTHER", "COMPID": "33", "PLANT_COST": "45920524", "COUNTYFIPS": "48141", "EXP_POWER": "0", "LONGITUDE": "-106.398162668", "LATITUDE": "31.969938851", "OBJECTID": "1307", "COUNTRY": "USA", "STATE": "TX", "WEBSITE": "https://pipeportal.kindermorgan.com/portalui/DefaultKM.aspx?TSP=EPGD", "OP_COMP_HR": "8186", "STATUS": "IN SERVICE", "OPERATOR": "KINDER MORGAN INC.", "CERT_HP": "58880", "COUNTY": "EL PASO", "ADDRESS": "CALIFORNIA PIPELINE ROAD AND RANCH ROAD 2637; 12 MILES NORTHEAST OF EL PASO, 1 MILE NORTH OF US HIGHWAY 454", "POSREL": "WITHIN 40 FEET", "VAL_DATE": "Fri, 17 Jun 2022 00:00:00 GMT", "OP_DATE_PE": "Wed, 31 Oct 2012 00:00:00 GMT", "ZIP4": "NOT AVAILABLE", "SOURCE": "EPA ENVIROFACTS, FERC FORM 2, CORPORATE WEBSITE", "OP_NUM_COM": "1", "PIPECO": "EL PASO NATURAL GAS COMPANY L.L.C.", "NAME": "EL PASO", "GAS_COMPRE": "1144925", "NAICS_DESC": "BOOSTER PUMPING STATION, NATURAL GAS TRANSPORTATION", "ELEC_COMPR": "0", "TYPE": "NATURAL GAS COMPRESSOR STATION", "NAICS_CODE": "486210", "ZIP": "79978", "EXP_OTHER": "468676", "CITY": "EL PASO", "GCOMPID": "GCOMP947", "SOURCEDATE": "Wed, 15 Jul 2020 00:00:00 GMT" }, "geometry": { "type": "Point", "coordinates": [ -106.398162668, 31.969938851 ] } },
{ "type": "Feature", "properties": { "EXP_FUEL": "2590776", "NUM_UNITS": "4", "VAL_METHOD": "IMAGERY/OTHER", "COMPID": "33", "PLANT_COST": "29783258", "COUNTYFIPS": "35023", "EXP_POWER": "0", "LONGITUDE": "-108.60680025", "LATITUDE": "32.315985826", "OBJECTID": "373", "COUNTRY": "USA", "STATE": "NM", "WEBSITE": "https://pipeportal.kindermorgan.com/portalui/DefaultKM.aspx?TSP=EPGD", "OP_COMP_HR": "26072", "STATUS": "IN SERVICE", "OPERATOR": "KINDER MORGAN INC.", "CERT_HP": "39560", "COUNTY": "HIDALGO", "ADDRESS": "ULMORRIS ROAD/I-70; 7 MILE E OF LORDSBURG", "POSREL": "WITHIN 40 FEET", "VAL_DATE": "Fri, 17 Jun 2022 00:00:00 GMT", "OP_DATE_PE": "Wed, 05 Feb 2020 00:00:00 GMT", "ZIP4": "NOT AVAILABLE", "SOURCE": "FERC FORM 2, IMAGERY", "OP_NUM_COM": "4", "PIPECO": "EL PASO NATURAL GAS COMPANY L.L.C.", "NAME": "LORDSBURG", "GAS_COMPRE": "2008861", "NAICS_DESC": "BOOSTER PUMPING STATION, NATURAL GAS TRANSPORTATION", "ELEC_COMPR": "0", "TYPE": "NATURAL GAS COMPRESSOR STATION", "NAICS_CODE": "486210", "ZIP": "88030", "EXP_OTHER": "664051", "CITY": "LORDSBURG", "GCOMPID": "GCOMP1334", "SOURCEDATE": "Mon, 21 Sep 2015 00:00:00 GMT" }, "geometry": { "type": "Point", "coordinates": [ -108.60680025, 32.315985826 ] } },
{ "type": "Feature", "properties": { "EXP_FUEL": "1000878", "NUM_UNITS": "2", "VAL_METHOD": "IMAGERY/OTHER", "COMPID": "33", "PLANT_COST": "17284310", "COUNTYFIPS": "04015", "EXP_POWER": "0", "LONGITUDE": "-113.702709", "LATITUDE": "35.170894", "OBJECTID": "277", "COUNTRY": "USA", "STATE": "AZ", "WEBSITE": "https://pipeportal.kindermorgan.com/portalui/DefaultKM.aspx?TSP=EPGD", "OP_COMP_HR": "11902", "STATUS": "IN SERVICE", "OPERATOR": "KINDER MORGAN INC.", "CERT_HP": "15270", "COUNTY": "MOHAVE", "ADDRESS": "PUMP HOUSE ROAD/ROUND VALLEY ROAD; 20 MILES E OF KINGMAN", "POSREL": "WITHIN 40 FEET", "VAL_DATE": "Fri, 17 Jun 2022 00:00:00 GMT", "OP_DATE_PE": "Wed, 01 Jan 2020 00:00:00 GMT", "ZIP4": "NOT AVAILABLE", "SOURCE": "FERC FORM 2, IMAGERY", "OP_NUM_COM": "2", "PIPECO": "EL PASO NATURAL GAS COMPANY L.L.C.", "NAME": "HACKBERRY", "GAS_COMPRE": "767561", "NAICS_DESC": "BOOSTER PUMPING STATION, NATURAL GAS TRANSPORTATION", "ELEC_COMPR": "0", "TYPE": "NATURAL GAS COMPRESSOR STATION", "NAICS_CODE": "486210", "ZIP": "86411", "EXP_OTHER": "231069", "CITY": "HACKBERRY", "GCOMPID": "GCOMP1248", "SOURCEDATE": "Wed, 15 Jul 2020 00:00:00 GMT" }, "geometry": { "type": "Point", "coordinates": [ -113.702709, 35.170894 ] } },
{ "type": "Feature", "properties": { "EXP_FUEL": "763911", "NUM_UNITS": "2", "VAL_METHOD": "IMAGERY/OTHER", "COMPID": "33", "PLANT_COST": "24299668", "COUNTYFIPS": "04012", "EXP_POWER": "0", "LONGITUDE": "-113.455861", "LATITUDE": "33.539606", "OBJECTID": "45", "COUNTRY": "USA", "STATE": "AZ", "WEBSITE": "https://pipeportal.kindermorgan.com/portalui/DefaultKM.aspx?TSP=EPGD", "OP_COMP_HR": "8067", "STATUS": "IN SERVICE", "OPERATOR": "KINDER MORGAN INC.", "CERT_HP": "15760", "COUNTY": "LA PAZ", "ADDRESS": "EL PASO NATURAL GAS COMPANY ACCESS ROAD (SOUTH OF I 10 AT MP 63)", "POSREL": "WITHIN 40 FEET", "VAL_DATE": "Fri, 17 Jun 2022 00:00:00 GMT", "OP_DATE_PE": "Fri, 26 Jun 2020 00:00:00 GMT", "ZIP4": "NOT AVAILABLE", "SOURCE": "FERC FORM 2, CORPORATE WEBSITE, IMAGERY", "OP_NUM_COM": "1", "PIPECO": "EL PASO NATURAL GAS COMPANY L.L.C.", "NAME": "WENDEN", "GAS_COMPRE": "588906", "NAICS_DESC": "BOOSTER PUMPING STATION, NATURAL GAS TRANSPORTATION", "ELEC_COMPR": "0", "TYPE": "NATURAL GAS COMPRESSOR STATION", "NAICS_CODE": "486210", "ZIP": "85348", "EXP_OTHER": "751339", "CITY": "WENDEN", "GCOMPID": "GCOMP1038", "SOURCEDATE": "Wed, 15 Jul 2020 00:00:00 GMT" }, "geometry": { "type": "Point", "coordinates": [ -113.455861, 33.539606 ] } },
{ "type": "Feature", "properties": { "EXP_FUEL": "159", "NUM_UNITS": "2", "VAL_METHOD": "IMAGERY/OTHER", "COMPID": "33", "PLANT_COST": "29529523", "COUNTYFIPS": "35031", "EXP_POWER": "0", "LONGITUDE": "-108.65005", "LATITUDE": "35.895291", "OBJECTID": "90", "COUNTRY": "USA", "STATE": "NM", "WEBSITE": "https://pipeportal.kindermorgan.com/portalui/DefaultKM.aspx?TSP=EPGD", "OP_COMP_HR": "1", "STATUS": "IN SERVICE", "OPERATOR": "KINDER MORGAN INC.", "CERT_HP": "34810", "COUNTY": "MCKINLEY", "ADDRESS": "HIGHWAY 491; 7 MILES N OF TOHATCHI", "POSREL": "WITHIN 40 FEET", "VAL_DATE": "Fri, 17 Jun 2022 00:00:00 GMT", "OP_DATE_PE": "Mon, 08 Jun 2020 00:00:00 GMT", "ZIP4": "NOT AVAILABLE", "SOURCE": "EPA ENVIROFACTS, FERC FORM 2, CORPORATE WEBSITE", "OP_NUM_COM": "1", "PIPECO": "EL PASO NATURAL GAS COMPANY L.L.C.", "NAME": "GALLUP", "GAS_COMPRE": "113", "NAICS_DESC": "BOOSTER PUMPING STATION, NATURAL GAS TRANSPORTATION", "ELEC_COMPR": "0", "TYPE": "NATURAL GAS COMPRESSOR STATION", "NAICS_CODE": "486210", "ZIP": "87325", "EXP_OTHER": "161766", "CITY": "TOHATCHI", "GCOMPID": "GCOMP1079", "SOURCEDATE": "Wed, 15 Jul 2020 00:00:00 GMT" }, "geometry": { "type": "Point", "coordinates": [ -108.65005, 35.895291 ] } },
{ "type": "Feature", "properties": { "EXP_FUEL": "37863", "NUM_UNITS": "3", "VAL_METHOD": "IMAGERY/OTHER", "COMPID": "33", "PLANT_COST": "6756859", "COUNTYFIPS": "04003", "EXP_POWER": "0", "LONGITUDE": "-109.084481829", "LATITUDE": "32.214240023", "OBJECTID": "630", "COUNTRY": "USA", "STATE": "AZ", "WEBSITE": "https://pipeportal.kindermorgan.com/portalui/DefaultKM.aspx?TSP=EPGD", "OP_COMP_HR": "287", "STATUS": "IN SERVICE", "OPERATOR": "KINDER MORGAN INC.", "CERT_HP": "20010", "COUNTY": "COCHISE", "ADDRESS": "2091 CAVOT ROAD", "POSREL": "WITHIN 40 FEET", "VAL_DATE": "Fri, 17 Jun 2022 00:00:00 GMT", "OP_DATE_PE": "Wed, 04 Apr 2012 00:00:00 GMT", "ZIP4": "NOT AVAILABLE", "SOURCE": "EPA ENVIROFACTS, FERC FORM 2, CORPORATE WEBSITE", "OP_NUM_COM": "3", "PIPECO": "EL PASO NATURAL GAS COMPANY L.L.C.", "NAME": "SAN SIMON", "GAS_COMPRE": "16271", "NAICS_DESC": "BOOSTER PUMPING STATION, NATURAL GAS TRANSPORTATION", "ELEC_COMPR": "0", "TYPE": "NATURAL GAS COMPRESSOR STATION", "NAICS_CODE": "486210", "ZIP": "85632", "EXP_OTHER": "119577", "CITY": "SAN SIMON", "GCOMPID": "GCOMP335", "SOURCEDATE": "Wed, 15 Jul 2020 00:00:00 GMT" }, "geometry": { "type": "Point", "coordinates": [ -109.084481829, 32.214240023 ] } },
{ "type": "Feature", "properties": { "EXP_FUEL": "750735", "NUM_UNITS": "2", "VAL_METHOD": "IMAGERY/OTHER", "COMPID": "33", "PLANT_COST": "8663394", "COUNTYFIPS": "35061", "EXP_POWER": "0", "LONGITUDE": "-106.679062", "LATITUDE": "34.53586", "OBJECTID": "903", "COUNTRY": "USA", "STATE": "NM", "WEBSITE": "https://pipeportal.kindermorgan.com/portalui/DefaultKM.aspx?TSP=EPGD", "OP_COMP_HR": "14187", "STATUS": "IN SERVICE", "OPERATOR": "KINDER MORGAN INC.", "CERT_HP": "11400", "COUNTY": "VALENCIA", "ADDRESS": "4.5 MILES SE OF BELEN OFF HIGHWAY 47", "POSREL": "WITHIN 40 FEET", "VAL_DATE": "Fri, 17 Jun 2022 00:00:00 GMT", "OP_DATE_PE": "Tue, 07 Jan 2020 00:00:00 GMT", "ZIP4": "NOT AVAILABLE", "SOURCE": "EPA ENVIROFACTS, FERC FORM 2, CORPORATE WEBSITE", "OP_NUM_COM": "2", "PIPECO": "EL PASO NATURAL GAS COMPANY L.L.C.", "NAME": "BELEN", "GAS_COMPRE": "573387", "NAICS_DESC": "BOOSTER PUMPING STATION, NATURAL GAS TRANSPORTATION", "ELEC_COMPR": "0", "TYPE": "NATURAL GAS COMPRESSOR STATION", "NAICS_CODE": "486210", "ZIP": "87002", "EXP_OTHER": "532462", "CITY": "BELEN", "GCOMPID": "GCOMP582", "SOURCEDATE": "Wed, 15 Jul 2020 00:00:00 GMT" }, "geometry": { "type": "Point", "coordinates": [ -106.679062, 34.53586 ] } },
{ "type": "Feature", "properties": { "EXP_FUEL": "73262", "NUM_UNITS": "3", "VAL_METHOD": "IMAGERY/OTHER", "COMPID": "33", "PLANT_COST": "14666455", "COUNTYFIPS": "35045", "EXP_POWER": "0", "LONGITUDE": "-107.979807", "LATITUDE": "36.693546", "OBJECTID": "294", "COUNTRY": "USA", "STATE": "NM", "WEBSITE": "https://pipeportal.kindermorgan.com/portalui/DefaultKM.aspx?TSP=EPGD", "OP_COMP_HR": "4750", "STATUS": "IN SERVICE", "OPERATOR": "KINDER MORGAN INC.", "CERT_HP": "7820", "COUNTY": "SAN JUAN", "ADDRESS": "ROAD 4990/SOUTH OF SULLIVAN ROAD", "POSREL": "WITHIN 40 FEET", "VAL_DATE": "Fri, 17 Jun 2022 00:00:00 GMT", "OP_DATE_PE": "Wed, 08 Apr 2020 00:00:00 GMT", "ZIP4": "NOT AVAILABLE", "SOURCE": "FERC FORM 2, IMAGERY", "OP_NUM_COM": "1", "PIPECO": "EL PASO NATURAL GAS COMPANY L.L.C.", "NAME": "RIO VISTA", "GAS_COMPRE": "55313", "NAICS_DESC": "BOOSTER PUMPING STATION, NATURAL GAS TRANSPORTATION", "ELEC_COMPR": "0", "TYPE": "NATURAL GAS COMPRESSOR STATION", "NAICS_CODE": "486210", "ZIP": "87413", "EXP_OTHER": "247996", "CITY": "BLOOMFIELD", "GCOMPID": "GCOMP1263", "SOURCEDATE": "Wed, 15 Jul 2020 00:00:00 GMT" }, "geometry": { "type": "Point", "coordinates": [ -107.979807, 36.693546 ] } },
{ "type": "Feature", "properties": { "EXP_FUEL": "2518381", "NUM_UNITS": "5", "VAL_METHOD": "IMAGERY/OTHER", "COMPID": "33", "PLANT_COST": "35431623", "COUNTYFIPS": "35029", "EXP_POWER": "0", "LONGITUDE": "-107.42194965", "LATITUDE": "32.217252086", "OBJECTID": "969", "COUNTRY": "USA", "STATE": "NM", "WEBSITE": "https://pipeportal.kindermorgan.com/portalui/DefaultKM.aspx?TSP=EPGD", "OP_COMP_HR": "24285", "STATUS": "IN SERVICE", "OPERATOR": "KINDER MORGAN INC.", "CERT_HP": "46900", "COUNTY": "LUNA", "ADDRESS": "4700 GERANIO ROAD SE; 20 MILE E OF DEMING, 1 MILE S HIGHWAY 80", "POSREL": "WITHIN 40 FEET", "VAL_DATE": "Fri, 17 Jun 2022 00:00:00 GMT", "OP_DATE_PE": "Wed, 05 Feb 2020 00:00:00 GMT", "ZIP4": "NOT AVAILABLE", "SOURCE": "EPA ENVIROFACTS, FERC FORM 2, CORPORATE WEBSITE", "OP_NUM_COM": "4", "PIPECO": "EL PASO NATURAL GAS COMPANY L.L.C.", "NAME": "FLORIDA", "GAS_COMPRE": "1893275", "NAICS_DESC": "BOOSTER PUMPING STATION, NATURAL GAS TRANSPORTATION", "ELEC_COMPR": "0", "TYPE": "NATURAL GAS COMPRESSOR STATION", "NAICS_CODE": "486210", "ZIP": "88030", "EXP_OTHER": "815598", "CITY": "DEMING", "GCOMPID": "GCOMP642", "SOURCEDATE": "Wed, 15 Jul 2020 00:00:00 GMT" }, "geometry": { "type": "Point", "coordinates": [ -107.42194965, 32.217252086 ] } },
{ "type": "Feature", "properties": { "EXP_FUEL": "1099913", "NUM_UNITS": "1", "VAL_METHOD": "IMAGERY/OTHER", "COMPID": "33", "PLANT_COST": "7838447", "COUNTYFIPS": "04021", "EXP_POWER": "0", "LONGITUDE": "-110.755806", "LATITUDE": "32.62282", "OBJECTID": "193", "COUNTRY": "USA", "STATE": "AZ", "WEBSITE": "https://pipeportal.kindermorgan.com/portalui/DefaultKM.aspx?TSP=EPGD", "OP_COMP_HR": "8209", "STATUS": "IN SERVICE", "OPERATOR": "KINDER MORGAN INC.", "CERT_HP": "13450", "COUNTY": "PINAL", "ADDRESS": "N. ORACLE TURBINE STATION ROAD; 2308 S. TURBINE ROAD", "POSREL": "WITHIN 40 FEET", "VAL_DATE": "Fri, 17 Jun 2022 00:00:00 GMT", "OP_DATE_PE": "Tue, 04 Feb 2020 00:00:00 GMT", "ZIP4": "NOT AVAILABLE", "SOURCE": "EPA ENVIROFACTS, FERC FORM 2, CORPORATE WEBSITE", "OP_NUM_COM": "1", "PIPECO": "EL PASO NATURAL GAS COMPANY L.L.C.", "NAME": "ORACLE", "GAS_COMPRE": "865026", "NAICS_DESC": "BOOSTER PUMPING STATION, NATURAL GAS TRANSPORTATION", "ELEC_COMPR": "0", "TYPE": "NATURAL GAS COMPRESSOR STATION", "NAICS_CODE": "486210", "ZIP": "85623", "EXP_OTHER": "207570", "CITY": "ORACLE", "GCOMPID": "GCOMP1172", "SOURCEDATE": "Wed, 15 Jul 2020 00:00:00 GMT" }, "geometry": { "type": "Point", "coordinates": [ -110.755806, 32.62282 ] } },
{ "type": "Feature", "properties": { "EXP_FUEL": "511989", "NUM_UNITS": "2", "VAL_METHOD": "IMAGERY/OTHER", "COMPID": "33", "PLANT_COST": "30430550", "COUNTYFIPS": "04012", "EXP_POWER": "0", "LONGITUDE": "-113.610968696", "LATITUDE": "34.068134639", "OBJECTID": "1336", "COUNTRY": "USA", "STATE": "AZ", "WEBSITE": "https://pipeportal.kindermorgan.com/portalui/DefaultKM.aspx?TSP=EPGD", "OP_COMP_HR": "7216", "STATUS": "IN SERVICE", "OPERATOR": "KINDER MORGAN INC.", "CERT_HP": "20500", "COUNTY": "LA PAZ", "ADDRESS": "COLORADO RIVER ROAD (17.3 MILES NORTH OF WENDEN) NEAR ALAMO LAKE", "POSREL": "WITHIN 40 FEET", "VAL_DATE": "Fri, 17 Jun 2022 00:00:00 GMT", "OP_DATE_PE": "Thu, 11 Jun 2020 00:00:00 GMT", "ZIP4": "NOT AVAILABLE", "SOURCE": "EPA ENVIROFACTS, FERC FORM 2, IMAGERY", "OP_NUM_COM": "1", "PIPECO": "EL PASO NATURAL GAS COMPANY L.L.C.", "NAME": "ALAMO LAKE", "GAS_COMPRE": "387433", "NAICS_DESC": "BOOSTER PUMPING STATION, NATURAL GAS TRANSPORTATION", "ELEC_COMPR": "0", "TYPE": "NATURAL GAS COMPRESSOR STATION", "NAICS_CODE": "486210", "ZIP": "85357", "EXP_OTHER": "455498", "CITY": "WENDEN", "GCOMPID": "GCOMP973", "SOURCEDATE": "Wed, 15 Jul 2020 00:00:00 GMT" }, "geometry": { "type": "Point", "coordinates": [ -113.610968696, 34.068134639 ] } },
{ "type": "Feature", "properties": { "EXP_FUEL": "737291", "NUM_UNITS": "3", "VAL_METHOD": "IMAGERY/OTHER", "COMPID": "33", "PLANT_COST": "14215570", "COUNTYFIPS": "35013", "EXP_POWER": "0", "LONGITUDE": "-106.8530023", "LATITUDE": "32.113789226", "OBJECTID": "387", "COUNTRY": "USA", "STATE": "NM", "WEBSITE": "https://pipeportal.kindermorgan.com/portalui/DefaultKM.aspx?TSP=EPGD", "OP_COMP_HR": "9451", "STATUS": "IN SERVICE", "OPERATOR": "KINDER MORGAN INC.", "CERT_HP": "21450", "COUNTY": "DONA ANA", "ADDRESS": "W AFTON ROAD AND COUNTRY ROAD B009; 14 MILES WEST OF BERINO", "POSREL": "WITHIN 40 FEET", "VAL_DATE": "Tue, 14 Jun 2022 00:00:00 GMT", "OP_DATE_PE": "Sun, 23 Aug 2020 00:00:00 GMT", "ZIP4": "NOT AVAILABLE", "SOURCE": "EPA ENVIROFACTS, FERC FORM 2, CORPORATE WEBSITE", "OP_NUM_COM": "3", "PIPECO": "EL PASO NATURAL GAS COMPANY L.L.C.", "NAME": "AFTON", "GAS_COMPRE": "484636", "NAICS_DESC": "BOOSTER PUMPING STATION, NATURAL GAS TRANSPORTATION", "ELEC_COMPR": "0", "TYPE": "NATURAL GAS COMPRESSOR STATION", "NAICS_CODE": "486210", "ZIP": "88024", "EXP_OTHER": "517125", "CITY": "BERINO", "GCOMPID": "GCOMP1347", "SOURCEDATE": "Wed, 15 Jul 2020 00:00:00 GMT" }, "geometry": { "type": "Point", "coordinates": [ -106.8530023, 32.113789226 ] } },
{ "type": "Feature", "properties": { "EXP_FUEL": "8", "NUM_UNITS": "2", "VAL_METHOD": "IMAGERY/OTHER", "COMPID": "33", "PLANT_COST": "35636272", "COUNTYFIPS": "35045", "EXP_POWER": "0", "LONGITUDE": "-108.311274", "LATITUDE": "36.231549", "OBJECTID": "287", "COUNTRY": "USA", "STATE": "NM", "WEBSITE": "https://pipeportal.kindermorgan.com/portalui/DefaultKM.aspx?TSP=EPGD", "OP_COMP_HR": "0", "STATUS": "IN SERVICE", "OPERATOR": "KINDER MORGAN INC.", "CERT_HP": "23610", "COUNTY": "SAN JUAN", "ADDRESS": "ROAD 7295/WEST OF S-321 (22 MILES E OF NEWCOMB)", "POSREL": "WITHIN 40 FEET", "VAL_DATE": "Fri, 17 Jun 2022 00:00:00 GMT", "OP_DATE_PE": "Mon, 01 Jan 2001 00:00:00 GMT", "ZIP4": "NOT AVAILABLE", "SOURCE": "FERC FORM 2, CORPORATE WEBSITE, IMAGERY", "OP_NUM_COM": "0", "PIPECO": "EL PASO NATURAL GAS COMPANY L.L.C.", "NAME": "WHITE ROCK", "GAS_COMPRE": "6", "NAICS_DESC": "BOOSTER PUMPING STATION, NATURAL GAS TRANSPORTATION", "ELEC_COMPR": "0", "TYPE": "NATURAL GAS COMPRESSOR STATION", "NAICS_CODE": "486210", "ZIP": "87455", "EXP_OTHER": "182815", "CITY": "NEWCOMB", "GCOMPID": "GCOMP1257", "SOURCEDATE": "Wed, 15 Jul 2020 00:00:00 GMT" }, "geometry": { "type": "Point", "coordinates": [ -108.311274, 36.231549 ] } },
{ "type": "Feature", "properties": { "EXP_FUEL": "1766051", "NUM_UNITS": "13", "VAL_METHOD": "IMAGERY/OTHER", "COMPID": "33", "PLANT_COST": "44836855", "COUNTYFIPS": "04001", "EXP_POWER": "0", "LONGITUDE": "-109.124965645", "LATITUDE": "35.615837645", "OBJECTID": "46", "COUNTRY": "USA", "STATE": "AZ", "WEBSITE": "https://pipeportal.kindermorgan.com/portalui/DefaultKM.aspx?TSP=EPGD", "OP_COMP_HR": "61771", "STATUS": "IN SERVICE", "OPERATOR": "KINDER MORGAN INC.", "CERT_HP": "36000", "COUNTY": "APACHE", "ADDRESS": "EL PASO STATION ROAD/WEST OF INDIAN ROUTE 12", "POSREL": "WITHIN 40 FEET", "VAL_DATE": "Fri, 17 Jun 2022 00:00:00 GMT", "OP_DATE_PE": "Thu, 17 Sep 2020 00:00:00 GMT", "ZIP4": "NOT AVAILABLE", "SOURCE": "FERC FORM 2, CORPORATE WEBSITE, IMAGERY", "OP_NUM_COM": "10", "PIPECO": "EL PASO NATURAL GAS COMPANY L.L.C.", "NAME": "WINDOW ROCK", "GAS_COMPRE": "1325421", "NAICS_DESC": "BOOSTER PUMPING STATION, NATURAL GAS TRANSPORTATION", "ELEC_COMPR": "0", "TYPE": "NATURAL GAS COMPRESSOR STATION", "NAICS_CODE": "486210", "ZIP": "86511", "EXP_OTHER": "2158622", "CITY": "WINDOW ROCK", "GCOMPID": "GCOMP1039", "SOURCEDATE": "Wed, 15 Jul 2020 00:00:00 GMT" }, "geometry": { "type": "Point", "coordinates": [ -109.124965645, 35.615837645 ] } },
{ "type": "Feature", "properties": { "EXP_FUEL": "97957", "NUM_UNITS": "2", "VAL_METHOD": "IMAGERY/OTHER", "COMPID": "33", "PLANT_COST": "4875492", "COUNTYFIPS": "48381", "EXP_POWER": "0", "LONGITUDE": "-102.073626", "LATITUDE": "35.134609", "OBJECTID": "1349", "COUNTRY": "USA", "STATE": "TX", "WEBSITE": "https://pipeportal.kindermorgan.com/portalui/DefaultKM.aspx?TSP=EPGD", "OP_COMP_HR": "3629", "STATUS": "IN SERVICE", "OPERATOR": "KINDER MORGAN INC.", "CERT_HP": "5400", "COUNTY": "RANDALL", "ADDRESS": "COTTON PAVEMENT ROAD; 4 MILES SOUTH OF BUSHLAND, TX AND 1 MILE WEST ON FARMERS AVENUE", "POSREL": "WITHIN 40 FEET", "VAL_DATE": "Fri, 17 Jun 2022 00:00:00 GMT", "OP_DATE_PE": "Fri, 31 Jan 2020 00:00:00 GMT", "ZIP4": "NOT AVAILABLE", "SOURCE": "EPA ENVIROFACTS, FERC FORM 2, CORPORATE WEBSITE", "OP_NUM_COM": "1", "PIPECO": "EL PASO NATURAL GAS COMPANY L.L.C.", "NAME": "AMARILLO", "GAS_COMPRE": "86524", "NAICS_DESC": "BOOSTER PUMPING STATION, NATURAL GAS TRANSPORTATION", "ELEC_COMPR": "0", "TYPE": "NATURAL GAS COMPRESSOR STATION", "NAICS_CODE": "486210", "ZIP": "79012", "EXP_OTHER": "378029", "CITY": "BUSHLAND", "GCOMPID": "GCOMP985", "SOURCEDATE": "Wed, 15 Jul 2020 00:00:00 GMT" }, "geometry": { "type": "Point", "coordinates": [ -102.073626, 35.134609 ] } },
{ "type": "Feature", "properties": { "EXP_FUEL": "3471", "NUM_UNITS": "2", "VAL_METHOD": "IMAGERY/OTHER", "COMPID": "33", "PLANT_COST": "11169187", "COUNTYFIPS": "04005", "EXP_POWER": "0", "LONGITUDE": "-111.555893989", "LATITUDE": "35.22850021", "OBJECTID": "791", "COUNTRY": "USA", "STATE": "AZ", "WEBSITE": "https://pipeportal.kindermorgan.com/portalui/DefaultKM.aspx?TSP=EPGD", "OP_COMP_HR": "0", "STATUS": "IN SERVICE", "OPERATOR": "KINDER MORGAN INC.", "CERT_HP": "11000", "COUNTY": "COCONINO", "ADDRESS": "3 EL PASO FLAGSTAFF ROAD", "POSREL": "WITHIN 40 FEET", "VAL_DATE": "Fri, 17 Jun 2022 00:00:00 GMT", "OP_DATE_PE": "Mon, 01 Jan 2001 00:00:00 GMT", "ZIP4": "NOT AVAILABLE", "SOURCE": "EPA ENVIROFACTS, FERC FORM 2, CORPORATE WEBSITE", "OP_NUM_COM": "0", "PIPECO": "EL PASO NATURAL GAS COMPANY L.L.C.", "NAME": "FLAGSTAFF", "GAS_COMPRE": "2896", "NAICS_DESC": "BOOSTER PUMPING STATION, NATURAL GAS TRANSPORTATION", "ELEC_COMPR": "0", "TYPE": "NATURAL GAS COMPRESSOR STATION", "NAICS_CODE": "486210", "ZIP": "86004", "EXP_OTHER": "123814", "CITY": "FLAGSTAFF", "GCOMPID": "GCOMP480", "SOURCEDATE": "Wed, 15 Jul 2020 00:00:00 GMT" }, "geometry": { "type": "Point", "coordinates": [ -111.555893989, 35.22850021 ] } },
{ "type": "Feature", "properties": { "EXP_FUEL": "977890", "NUM_UNITS": "2", "VAL_METHOD": "IMAGERY/OTHER", "COMPID": "33", "PLANT_COST": "19958482", "COUNTYFIPS": "04021", "EXP_POWER": "0", "LONGITUDE": "-111.004885547", "LATITUDE": "32.728178423", "OBJECTID": "327", "COUNTRY": "USA", "STATE": "AZ", "WEBSITE": "https://pipeportal.kindermorgan.com/portalui/DefaultKM.aspx?TSP=EPGD", "OP_COMP_HR": "11634", "STATUS": "IN SERVICE", "OPERATOR": "KINDER MORGAN INC.", "CERT_HP": "20620", "COUNTY": "PINAL", "ADDRESS": "SECTION 21, TOWNSHIP 8 SOUTH, RANGE 13 EAST; 5 MILES E STATE ROUTE 79, 20 MILES E MAMMOTH", "POSREL": "WITHIN 40 FEET", "VAL_DATE": "Fri, 17 Jun 2022 00:00:00 GMT", "OP_DATE_PE": "Tue, 04 Feb 2020 00:00:00 GMT", "ZIP4": "NOT AVAILABLE", "SOURCE": "EPA ENVIROFACTS, FERC FORM 2, CORPORATE WEBSITE", "OP_NUM_COM": "2", "PIPECO": "EL PASO NATURAL GAS COMPANY L.L.C.", "NAME": "TOM MIX", "GAS_COMPRE": "754279", "NAICS_DESC": "BOOSTER PUMPING STATION, NATURAL GAS TRANSPORTATION", "ELEC_COMPR": "0", "TYPE": "NATURAL GAS COMPRESSOR STATION", "NAICS_CODE": "486210", "ZIP": "85623", "EXP_OTHER": "247263", "CITY": "TOM MIX", "GCOMPID": "GCOMP1293", "SOURCEDATE": "Wed, 15 Jul 2020 00:00:00 GMT" }, "geometry": { "type": "Point", "coordinates": [ -111.004885547, 32.728178423 ] } },
{ "type": "Feature", "properties": { "EXP_FUEL": "599332", "NUM_UNITS": "2", "VAL_METHOD": "IMAGERY/OTHER", "COMPID": "33", "PLANT_COST": "25196496", "COUNTYFIPS": "04017", "EXP_POWER": "0", "LONGITUDE": "-110.335022", "LATITUDE": "35.396403", "OBJECTID": "134", "COUNTRY": "USA", "STATE": "AZ", "WEBSITE": "https://pipeportal.kindermorgan.com/portalui/DefaultKM.aspx?TSP=EPGD", "OP_COMP_HR": "5207", "STATUS": "IN SERVICE", "OPERATOR": "KINDER MORGAN INC.", "CERT_HP": "27450", "COUNTY": "NAVAJO", "ADDRESS": "INDIAN ROUTE 60/INDIAN ROUTE 15", "POSREL": "WITHIN 40 FEET", "VAL_DATE": "Fri, 17 Jun 2022 00:00:00 GMT", "OP_DATE_PE": "Wed, 01 Jan 2020 00:00:00 GMT", "ZIP4": "NOT AVAILABLE", "SOURCE": "EPA ENVIROFACTS, FERC FORM 2, CORPORATE WEBSITE", "OP_NUM_COM": "1", "PIPECO": "EL PASO NATURAL GAS COMPANY L.L.C.", "NAME": "DILKON", "GAS_COMPRE": "456545", "NAICS_DESC": "BOOSTER PUMPING STATION, NATURAL GAS TRANSPORTATION", "ELEC_COMPR": "0", "TYPE": "NATURAL GAS COMPRESSOR STATION", "NAICS_CODE": "486210", "ZIP": "86047", "EXP_OTHER": "261506", "CITY": "DILKON", "GCOMPID": "GCOMP1119", "SOURCEDATE": "Wed, 15 Jul 2020 00:00:00 GMT" }, "geometry": { "type": "Point", "coordinates": [ -110.335022, 35.396403 ] } },
{ "type": "Feature", "properties": { "EXP_FUEL": "1588389", "NUM_UNITS": "6", "VAL_METHOD": "IMAGERY/OTHER", "COMPID": "33", "PLANT_COST": "33909744", "COUNTYFIPS": "04013", "EXP_POWER": "0", "LONGITUDE": "-112.060440743", "LATITUDE": "35.305455659", "OBJECTID": "984", "COUNTRY": "USA", "STATE": "AZ", "WEBSITE": "https://pipeportal.kindermorgan.com/portalui/DefaultKM.aspx?TSP=EPGD", "OP_COMP_HR": "17702", "STATUS": "IN SERVICE", "OPERATOR": "KINDER MORGAN INC.", "CERT_HP": "43400", "COUNTY": "MARICOPA", "ADDRESS": "5 MILES EAST OF WILLIAMS", "POSREL": "WITHIN 40 FEET", "VAL_DATE": "Fri, 17 Jun 2022 00:00:00 GMT", "OP_DATE_PE": "Tue, 29 Sep 2020 00:00:00 GMT", "ZIP4": "NOT AVAILABLE", "SOURCE": "EPA ENVIROFACTS, FERC FORM 2, CORPORATE WEBSITE", "OP_NUM_COM": "3", "PIPECO": "EL PASO NATURAL GAS COMPANY L.L.C.", "NAME": "WILLIAMS", "GAS_COMPRE": "1119031", "NAICS_DESC": "BOOSTER PUMPING STATION, NATURAL GAS TRANSPORTATION", "ELEC_COMPR": "0", "TYPE": "NATURAL GAS COMPRESSOR STATION", "NAICS_CODE": "486210", "ZIP": "85046", "EXP_OTHER": "1937622", "CITY": "WILLIAMS", "GCOMPID": "GCOMP656", "SOURCEDATE": "Wed, 15 Jul 2020 00:00:00 GMT" }, "geometry": { "type": "Point", "coordinates": [ -112.060440743, 35.305455659 ] } },
{ "type": "Feature", "properties": { "EXP_FUEL": "1008515", "NUM_UNITS": "1", "VAL_METHOD": "IMAGERY/OTHER", "COMPID": "33", "PLANT_COST": "14199514", "COUNTYFIPS": "48109", "EXP_POWER": "0", "LONGITUDE": "-104.907826", "LATITUDE": "31.773577", "OBJECTID": "222", "COUNTRY": "USA", "STATE": "TX", "WEBSITE": "https://pipeportal.kindermorgan.com/portalui/DefaultKM.aspx?TSP=EPGD", "OP_COMP_HR": "8626", "STATUS": "IN SERVICE", "OPERATOR": "KINDER MORGAN INC.", "CERT_HP": "15000", "COUNTY": "CULBERSON", "ADDRESS": "NORTH OF TX-62/3 MILES WEST OF TX-54; SECTION 17, T&P TOWNSHIP 2, BLOCK 60", "POSREL": "WITHIN 40 FEET", "VAL_DATE": "Fri, 17 Jun 2022 00:00:00 GMT", "OP_DATE_PE": "Wed, 01 Jan 2020 00:00:00 GMT", "ZIP4": "NOT AVAILABLE", "SOURCE": "FERC FORM 2, IMAGERY", "OP_NUM_COM": "1", "PIPECO": "EL PASO NATURAL GAS COMPANY L.L.C.", "NAME": "BLACK RIVER", "GAS_COMPRE": "775185", "NAICS_DESC": "BOOSTER PUMPING STATION, NATURAL GAS TRANSPORTATION", "ELEC_COMPR": "0", "TYPE": "NATURAL GAS COMPRESSOR STATION", "NAICS_CODE": "486210", "ZIP": "79847", "EXP_OTHER": "322038", "CITY": "PINE SPRINGS", "GCOMPID": "GCOMP1199", "SOURCEDATE": "Wed, 15 Jul 2020 00:00:00 GMT" }, "geometry": { "type": "Point", "coordinates": [ -104.907826, 31.773577 ] } },
{ "type": "Feature", "properties": { "EXP_FUEL": "226119", "NUM_UNITS": "2", "VAL_METHOD": "IMAGERY/OTHER", "COMPID": "33", "PLANT_COST": "24752286", "COUNTYFIPS": "04025", "EXP_POWER": "0", "LONGITUDE": "-112.754677", "LATITUDE": "35.288728", "OBJECTID": "18", "COUNTRY": "USA", "STATE": "AZ", "WEBSITE": "https://pipeportal.kindermorgan.com/portalui/DefaultKM.aspx?TSP=EPGD", "OP_COMP_HR": "2059", "STATUS": "IN SERVICE", "OPERATOR": "KINDER MORGAN INC.", "CERT_HP": "22110", "COUNTY": "YAVAPAI", "ADDRESS": "CROOKTON ROAD; 9 MI EAST OF SELIGMAN", "POSREL": "WITHIN 40 FEET", "VAL_DATE": "Fri, 17 Jun 2022 00:00:00 GMT", "OP_DATE_PE": "Fri, 22 May 2020 00:00:00 GMT", "ZIP4": "NOT AVAILABLE", "SOURCE": "EPA ENVIROFACTS, FERC FORM 2, CORPORATE WEBSITE", "OP_NUM_COM": "1", "PIPECO": "EL PASO NATURAL GAS COMPANY L.L.C.", "NAME": "SELIGMAN", "GAS_COMPRE": "159601", "NAICS_DESC": "BOOSTER PUMPING STATION, NATURAL GAS TRANSPORTATION", "ELEC_COMPR": "0", "TYPE": "NATURAL GAS COMPRESSOR STATION", "NAICS_CODE": "486210", "ZIP": "86337", "EXP_OTHER": "172569", "CITY": "SELIGMAN", "GCOMPID": "GCOMP1013", "SOURCEDATE": "Wed, 15 Jul 2020 00:00:00 GMT" }, "geometry": { "type": "Point", "coordinates": [ -112.754677, 35.288728 ] } },
{ "type": "Feature", "properties": { "EXP_FUEL": "2906", "NUM_UNITS": "14", "VAL_METHOD": "IMAGERY/OTHER", "COMPID": "33", "PLANT_COST": "53911583", "COUNTYFIPS": "35045", "EXP_POWER": "0", "LONGITUDE": "-107.961756", "LATITUDE": "36.732344", "OBJECTID": "1214", "COUNTRY": "USA", "STATE": "NM", "WEBSITE": "https://pipeportal.kindermorgan.com/portalui/DefaultKM.aspx?TSP=EPGD", "OP_COMP_HR": "26763", "STATUS": "IN SERVICE", "OPERATOR": "KINDER MORGAN INC.", "CERT_HP": "15400", "COUNTY": "SAN JUAN", "ADDRESS": "81 COUNTY ROAD 4900", "POSREL": "WITHIN 40 FEET", "VAL_DATE": "Fri, 17 Jun 2022 00:00:00 GMT", "OP_DATE_PE": "Mon, 02 Mar 2020 00:00:00 GMT", "ZIP4": "NOT AVAILABLE", "SOURCE": "EPA ENVIROFACTS, FERC FORM 2, CORPORATE WEBSITE", "OP_NUM_COM": "4", "PIPECO": "EL PASO NATURAL GAS COMPANY L.L.C.", "NAME": "BLANCO PLANT", "GAS_COMPRE": "2547", "NAICS_DESC": "BOOSTER PUMPING STATION, NATURAL GAS TRANSPORTATION", "ELEC_COMPR": "0", "TYPE": "NATURAL GAS COMPRESSOR STATION", "NAICS_CODE": "486210", "ZIP": "87413", "EXP_OTHER": "593991", "CITY": "BLOOMFIELD", "GCOMPID": "GCOMP863", "SOURCEDATE": "Wed, 15 Jul 2020 00:00:00 GMT" }, "geometry": { "type": "Point", "coordinates": [ -107.961756, 36.732344 ] } },
{ "type": "Feature", "properties": { "EXP_FUEL": "192381", "NUM_UNITS": "3", "VAL_METHOD": "IMAGERY/OTHER", "COMPID": "33", "PLANT_COST": "2597501", "COUNTYFIPS": "48065", "EXP_POWER": "0", "LONGITUDE": "-101.12399993659", "LATITUDE": "35.5601693897534", "OBJECTID": "733", "COUNTRY": "USA", "STATE": "TX", "WEBSITE": "https://pipeportal.kindermorgan.com/portalui/DefaultKM.aspx?TSP=EPGD", "OP_COMP_HR": "13209", "STATUS": "IN SERVICE", "OPERATOR": "KINDER MORGAN INC.", "CERT_HP": "6000", "COUNTY": "CARSON", "ADDRESS": "2591 COUNTY ROAD CC; (10 MILES NW OF PAMPA NEAR HIGHWAY 152)", "POSREL": "WITHIN 40 FEET", "VAL_DATE": "Fri, 24 Jun 2022 00:00:00 GMT", "OP_DATE_PE": "Wed, 01 Jan 2020 00:00:00 GMT", "ZIP4": "NOT AVAILABLE", "SOURCE": "FERC FORM 2, IMAGERY", "OP_NUM_COM": "2", "PIPECO": "EL PASO NATURAL GAS COMPANY L.L.C.", "NAME": "SCHAFER (GETTY)", "GAS_COMPRE": "153023", "NAICS_DESC": "BOOSTER PUMPING STATION, NATURAL GAS TRANSPORTATION", "ELEC_COMPR": "0", "TYPE": "NATURAL GAS COMPRESSOR STATION", "NAICS_CODE": "486210", "ZIP": "79080", "EXP_OTHER": "402182", "CITY": "SKELLYTOWN", "GCOMPID": "GCOMP428", "SOURCEDATE": "Wed, 15 Jul 2020 00:00:00 GMT" }, "geometry": { "type": "Point", "coordinates": [ -101.123999937, 35.56016939 ] } },
{ "type": "Feature", "properties": { "EXP_FUEL": "1027707", "NUM_UNITS": "1", "VAL_METHOD": "IMAGERY/OTHER", "COMPID": "33", "PLANT_COST": "14502235", "COUNTYFIPS": "04003", "EXP_POWER": "0", "LONGITUDE": "-109.68817", "LATITUDE": "32.316549", "OBJECTID": "241", "COUNTRY": "USA", "STATE": "AZ", "WEBSITE": "https://pipeportal.kindermorgan.com/portalui/DefaultKM.aspx?TSP=EPGD", "OP_COMP_HR": "7977", "STATUS": "IN SERVICE", "OPERATOR": "KINDER MORGAN INC.", "CERT_HP": "15000", "COUNTY": "COCHISE", "ADDRESS": "OFF PAGE RANGE ROAD/11.7 MILES WEST OF BOWIE", "POSREL": "WITHIN 40 FEET", "VAL_DATE": "Fri, 17 Jun 2022 00:00:00 GMT", "OP_DATE_PE": "Thu, 03 Dec 2020 00:00:00 GMT", "ZIP4": "NOT AVAILABLE", "SOURCE": "FERC FORM 2, CORPORATE WEBSITE, IMAGERY", "OP_NUM_COM": "1", "PIPECO": "EL PASO NATURAL GAS COMPANY L.L.C.", "NAME": "CIMARRON", "GAS_COMPRE": "801553", "NAICS_DESC": "BOOSTER PUMPING STATION, NATURAL GAS TRANSPORTATION", "ELEC_COMPR": "0", "TYPE": "NATURAL GAS COMPRESSOR STATION", "NAICS_CODE": "486210", "ZIP": "85605", "EXP_OTHER": "268815", "CITY": "BOWIE", "GCOMPID": "GCOMP1215", "SOURCEDATE": "Wed, 15 Jul 2020 00:00:00 GMT" }, "geometry": { "type": "Point", "coordinates": [ -109.68817, 32.316549 ] } },
{ "type": "Feature", "properties": { "EXP_FUEL": "292958", "NUM_UNITS": "3", "VAL_METHOD": "IMAGERY/OTHER", "COMPID": "33", "PLANT_COST": "5674034", "COUNTYFIPS": "35045", "EXP_POWER": "0", "LONGITUDE": "-108.367027427", "LATITUDE": "36.755186959", "OBJECTID": "295", "COUNTRY": "USA", "STATE": "NM", "WEBSITE": "https://pipeportal.kindermorgan.com/portalui/DefaultKM.aspx?TSP=EPGD", "OP_COMP_HR": "0", "STATUS": "IN SERVICE", "OPERATOR": "KINDER MORGAN INC.", "CERT_HP": "3480", "COUNTY": "SAN JUAN", "ADDRESS": "ROAD 6500; .75 MILES NORTH KIRTLAND", "POSREL": "WITHIN 40 FEET", "VAL_DATE": "Fri, 17 Jun 2022 00:00:00 GMT", "OP_DATE_PE": "Mon, 01 Jan 2001 00:00:00 GMT", "ZIP4": "NOT AVAILABLE", "SOURCE": "FERC FORM 2, IMAGERY", "OP_NUM_COM": "0", "PIPECO": "EL PASO NATURAL GAS COMPANY L.L.C.", "NAME": "SAN JUAN RIVER MAINLINE", "GAS_COMPRE": "226030", "NAICS_DESC": "BOOSTER PUMPING STATION, NATURAL GAS TRANSPORTATION", "ELEC_COMPR": "0", "TYPE": "NATURAL GAS COMPRESSOR STATION", "NAICS_CODE": "486210", "ZIP": "87416", "EXP_OTHER": "119007", "CITY": "KIRTLAND", "GCOMPID": "GCOMP1264", "SOURCEDATE": "Wed, 15 Jul 2020 00:00:00 GMT" }, "geometry": { "type": "Point", "coordinates": [ -108.367027427, 36.755186959 ] } },
{ "type": "Feature", "properties": { "EXP_FUEL": "1395181", "NUM_UNITS": "3", "VAL_METHOD": "IMAGERY/OTHER", "COMPID": "33", "PLANT_COST": "15342284", "COUNTYFIPS": "48229", "EXP_POWER": "0", "LONGITUDE": "-105.948871", "LATITUDE": "31.683734", "OBJECTID": "1350", "COUNTRY": "USA", "STATE": "TX", "WEBSITE": "https://pipeportal.kindermorgan.com/portalui/DefaultKM.aspx?TSP=EPGD", "OP_COMP_HR": "17929", "STATUS": "IN SERVICE", "OPERATOR": "KINDER MORGAN INC.", "CERT_HP": "21450", "COUNTY": "HUDSPETH", "ADDRESS": "COUNTRY ROAD; 25 MILES EAST OF EL PASO 13 MILES SOUTH HIGHWAY 62", "POSREL": "WITHIN 40 FEET", "VAL_DATE": "Fri, 17 Jun 2022 00:00:00 GMT", "OP_DATE_PE": "Wed, 05 Feb 2020 00:00:00 GMT", "ZIP4": "NOT AVAILABLE", "SOURCE": "FERC FORM 2, IMAGERY", "OP_NUM_COM": "3", "PIPECO": "EL PASO NATURAL GAS COMPANY L.L.C.", "NAME": "HUECO", "GAS_COMPRE": "1095909", "NAICS_DESC": "BOOSTER PUMPING STATION, NATURAL GAS TRANSPORTATION", "ELEC_COMPR": "0", "TYPE": "NATURAL GAS COMPRESSOR STATION", "NAICS_CODE": "486210", "ZIP": "79978", "EXP_OTHER": "639094", "CITY": "EL PASO", "GCOMPID": "GCOMP986", "SOURCEDATE": "Wed, 15 Jul 2020 00:00:00 GMT" }, "geometry": { "type": "Point", "coordinates": [ -105.948871, 31.683734 ] } },
{ "type": "Feature", "properties": { "EXP_FUEL": "630657", "NUM_UNITS": "2", "VAL_METHOD": "IMAGERY/OTHER", "COMPID": "33", "PLANT_COST": "13957416", "COUNTYFIPS": "35025", "EXP_POWER": "0", "LONGITUDE": "-103.575204416", "LATITUDE": "33.332033921", "OBJECTID": "88", "COUNTRY": "USA", "STATE": "NM", "WEBSITE": "https://pipeportal.kindermorgan.com/portalui/DefaultKM.aspx?TSP=EPGD", "OP_COMP_HR": "9090", "STATUS": "IN SERVICE", "OPERATOR": "KINDER MORGAN INC.", "CERT_HP": "12740", "COUNTY": "LEA", "ADDRESS": "HIGHWAY 380; (13 MILES NW OF TATUM)", "POSREL": "WITHIN 40 FEET", "VAL_DATE": "Fri, 17 Jun 2022 00:00:00 GMT", "OP_DATE_PE": "Sat, 12 Sep 2020 00:00:00 GMT", "ZIP4": "NOT AVAILABLE", "SOURCE": "EPA ENVIROFACTS, FERC FORM 2, CORPORATE WEBSITE", "OP_NUM_COM": "2", "PIPECO": "EL PASO NATURAL GAS COMPANY L.L.C.", "NAME": "CAPROCK", "GAS_COMPRE": "448321", "NAICS_DESC": "BOOSTER PUMPING STATION, NATURAL GAS TRANSPORTATION", "ELEC_COMPR": "0", "TYPE": "NATURAL GAS COMPRESSOR STATION", "NAICS_CODE": "486210", "ZIP": "88213", "EXP_OTHER": "302493", "CITY": "TATUM", "GCOMPID": "GCOMP1077", "SOURCEDATE": "Wed, 15 Jul 2020 00:00:00 GMT" }, "geometry": { "type": "Point", "coordinates": [ -103.575204416, 33.332033921 ] } },
{ "type": "Feature", "properties": { "EXP_FUEL": "10922", "NUM_UNITS": "5", "VAL_METHOD": "IMAGERY/OTHER", "COMPID": "33", "PLANT_COST": "36580661", "COUNTYFIPS": "48389", "EXP_POWER": "0", "LONGITUDE": "-103.10706578", "LATITUDE": "31.274403869", "OBJECTID": "792", "COUNTRY": "USA", "STATE": "TX", "WEBSITE": "https://pipeportal.kindermorgan.com/portalui/DefaultKM.aspx?TSP=EPGD", "OP_COMP_HR": "188", "STATUS": "IN SERVICE", "OPERATOR": "KINDER MORGAN INC.", "CERT_HP": "14640", "COUNTY": "REEVES", "ADDRESS": "3 MILES N.W. OF COYANOSA, TX. ON HIGHWAY 1450", "POSREL": "WITHIN 40 FEET", "VAL_DATE": "Fri, 17 Jun 2022 00:00:00 GMT", "OP_DATE_PE": "Thu, 16 Jan 2020 00:00:00 GMT", "ZIP4": "NOT AVAILABLE", "SOURCE": "FERC FORM 2, IMAGERY", "OP_NUM_COM": "1", "PIPECO": "EL PASO NATURAL GAS COMPANY L.L.C.", "NAME": "WAHA", "GAS_COMPRE": "7826", "NAICS_DESC": "BOOSTER PUMPING STATION, NATURAL GAS TRANSPORTATION", "ELEC_COMPR": "0", "TYPE": "NATURAL GAS COMPRESSOR STATION", "NAICS_CODE": "486210", "ZIP": "79730", "EXP_OTHER": "721073", "CITY": "COYANOSA", "GCOMPID": "GCOMP481", "SOURCEDATE": "Wed, 15 Jul 2020 00:00:00 GMT" }, "geometry": { "type": "Point", "coordinates": [ -103.10706578, 31.274403869 ] } },
{ "type": "Feature", "properties": { "EXP_FUEL": "3184141", "NUM_UNITS": "6", "VAL_METHOD": "IMAGERY/OTHER", "COMPID": "33", "PLANT_COST": "52201480", "COUNTYFIPS": "48229", "EXP_POWER": "0", "LONGITUDE": "-105.456257", "LATITUDE": "31.703185", "OBJECTID": "371", "COUNTRY": "USA", "STATE": "TX", "WEBSITE": "https://pipeportal.kindermorgan.com/portalui/DefaultKM.aspx?TSP=EPGD", "OP_COMP_HR": "34645", "STATUS": "IN SERVICE", "OPERATOR": "KINDER MORGAN INC.", "CERT_HP": "52330", "COUNTY": "HUDSPETH", "ADDRESS": "TX-2317; (APRX .65MLS E. OF ELPASO AND 5MLS S)", "POSREL": "WITHIN 40 FEET", "VAL_DATE": "Fri, 17 Jun 2022 00:00:00 GMT", "OP_DATE_PE": "Wed, 02 Dec 2020 00:00:00 GMT", "ZIP4": "NOT AVAILABLE", "SOURCE": "FERC FORM 2, CORPORATE WEBSITE, IMAGERY", "OP_NUM_COM": "6", "PIPECO": "EL PASO NATURAL GAS COMPANY L.L.C.", "NAME": "CORNUDAS", "GAS_COMPRE": "2421458", "NAICS_DESC": "BOOSTER PUMPING STATION, NATURAL GAS TRANSPORTATION", "ELEC_COMPR": "0", "TYPE": "NATURAL GAS COMPRESSOR STATION", "NAICS_CODE": "486210", "ZIP": "79847", "EXP_OTHER": "1006993", "CITY": "CORNUDAS", "GCOMPID": "GCOMP1332", "SOURCEDATE": "Wed, 15 Jul 2020 00:00:00 GMT" }, "geometry": { "type": "Point", "coordinates": [ -105.456257, 31.703185 ] } },
{ "type": "Feature", "properties": { "EXP_FUEL": "770705", "NUM_UNITS": "4", "VAL_METHOD": "IMAGERY/OTHER", "COMPID": "33", "PLANT_COST": "48594953", "COUNTYFIPS": "04001", "EXP_POWER": "0", "LONGITUDE": "-109.727265", "LATITUDE": "35.554986", "OBJECTID": "136", "COUNTRY": "USA", "STATE": "AZ", "WEBSITE": "https://pipeportal.kindermorgan.com/portalui/DefaultKM.aspx?TSP=EPGD", "OP_COMP_HR": "3464", "STATUS": "IN SERVICE", "OPERATOR": "KINDER MORGAN INC.", "CERT_HP": "41020", "COUNTY": "APACHE", "ADDRESS": "INDIAN ROUTE 9205 (7.6 MILES NE OF GREASEWOOD)", "POSREL": "WITHIN 40 FEET", "VAL_DATE": "Fri, 17 Jun 2022 00:00:00 GMT", "OP_DATE_PE": "Mon, 09 Apr 2012 00:00:00 GMT", "ZIP4": "NOT AVAILABLE", "SOURCE": "FERC FORM 2, CORPORATE WEBSITE, IMAGERY", "OP_NUM_COM": "2", "PIPECO": "EL PASO NATURAL GAS COMPANY L.L.C.", "NAME": "NAVAJO", "GAS_COMPRE": "289673", "NAICS_DESC": "BOOSTER PUMPING STATION, NATURAL GAS TRANSPORTATION", "ELEC_COMPR": "0", "TYPE": "NATURAL GAS COMPRESSOR STATION", "NAICS_CODE": "486210", "ZIP": "86502", "EXP_OTHER": "112510", "CITY": "GREASEWOOD", "GCOMPID": "GCOMP1120", "SOURCEDATE": "Fri, 09 Oct 2015 00:00:00 GMT" }, "geometry": { "type": "Point", "coordinates": [ -109.727265, 35.554986 ] } },
{ "type": "Feature", "properties": { "EXP_FUEL": "279536", "NUM_UNITS": "2", "VAL_METHOD": "IMAGERY/OTHER", "COMPID": "33", "PLANT_COST": "13063673", "COUNTYFIPS": "48341", "EXP_POWER": "0", "LONGITUDE": "-102.031635", "LATITUDE": "35.813106", "OBJECTID": "388", "COUNTRY": "USA", "STATE": "TX", "WEBSITE": "https://pipeportal.kindermorgan.com/portalui/DefaultKM.aspx?TSP=EPGD", "OP_COMP_HR": "5146", "STATUS": "IN SERVICE", "OPERATOR": "KINDER MORGAN INC.", "CERT_HP": "11000", "COUNTY": "MOORE", "ADDRESS": "W. 14TH STREET; 4 MILES E OF DUMAS AND 3 MILES W HIGHWAY 287", "POSREL": "WITHIN 40 FEET", "VAL_DATE": "Fri, 17 Jun 2022 00:00:00 GMT", "OP_DATE_PE": "Sun, 12 Apr 2020 00:00:00 GMT", "ZIP4": "NOT AVAILABLE", "SOURCE": "EPA ENVIROFACTS, FERC FORM 2, CORPORATE WEBSITE", "OP_NUM_COM": "1", "PIPECO": "EL PASO NATURAL GAS COMPANY L.L.C.", "NAME": "DUMAS", "GAS_COMPRE": "190541", "NAICS_DESC": "BOOSTER PUMPING STATION, NATURAL GAS TRANSPORTATION", "ELEC_COMPR": "0", "TYPE": "NATURAL GAS COMPRESSOR STATION", "NAICS_CODE": "486210", "ZIP": "79029", "EXP_OTHER": "362593", "CITY": "DUMAS", "GCOMPID": "GCOMP1348", "SOURCEDATE": "Wed, 15 Jul 2020 00:00:00 GMT" }, "geometry": { "type": "Point", "coordinates": [ -102.031635, 35.813106 ] } },
{ "type": "Feature", "properties": { "EXP_FUEL": "1791307", "NUM_UNITS": "18", "VAL_METHOD": "IMAGERY/OTHER", "COMPID": "33", "PLANT_COST": "52069274", "COUNTYFIPS": "04005", "EXP_POWER": "0", "LONGITUDE": "-111.093967", "LATITUDE": "35.30554", "OBJECTID": "170", "COUNTRY": "USA", "STATE": "AZ", "WEBSITE": "https://pipeportal.kindermorgan.com/portalui/DefaultKM.aspx?TSP=EPGD", "OP_COMP_HR": "71811", "STATUS": "IN SERVICE", "OPERATOR": "KINDER MORGAN INC.", "CERT_HP": "43260", "COUNTY": "COCONINO", "ADDRESS": "LEUPP ROAD", "POSREL": "WITHIN 40 FEET", "VAL_DATE": "Fri, 17 Jun 2022 00:00:00 GMT", "OP_DATE_PE": "Mon, 24 Aug 2020 00:00:00 GMT", "ZIP4": "NOT AVAILABLE", "SOURCE": "EPA ENVIROFACTS, FERC FORM 2, CORPORATE WEBSITE", "OP_NUM_COM": "14", "PIPECO": "EL PASO NATURAL GAS COMPANY L.L.C.", "NAME": "LEUPP", "GAS_COMPRE": "1339388", "NAICS_DESC": "BOOSTER PUMPING STATION, NATURAL GAS TRANSPORTATION", "ELEC_COMPR": "0", "TYPE": "NATURAL GAS COMPRESSOR STATION", "NAICS_CODE": "486210", "ZIP": "86035", "EXP_OTHER": "2250862", "CITY": "LEUPP", "GCOMPID": "GCOMP1151", "SOURCEDATE": "Mon, 21 Sep 2015 00:00:00 GMT" }, "geometry": { "type": "Point", "coordinates": [ -111.093967, 35.30554 ] } },
{ "type": "Feature", "properties": { "EXP_FUEL": "22", "NUM_UNITS": "1", "VAL_METHOD": "IMAGERY/OTHER", "COMPID": "33", "PLANT_COST": "9021473", "COUNTYFIPS": "48109", "EXP_POWER": "0", "LONGITUDE": "-104.198982", "LATITUDE": "31.450847", "OBJECTID": "77", "COUNTRY": "USA", "STATE": "TX", "WEBSITE": "https://pipeportal.kindermorgan.com/portalui/DefaultKM.aspx?TSP=EPGD", "OP_COMP_HR": "0", "STATUS": "IN SERVICE", "OPERATOR": "KINDER MORGAN INC.", "CERT_HP": "9800", "COUNTY": "CULBERSON", "ADDRESS": "GRESHAM ROAD; 40 MILES W. OF PECOS", "POSREL": "WITHIN 40 FEET", "VAL_DATE": "Fri, 17 Jun 2022 00:00:00 GMT", "OP_DATE_PE": "Mon, 01 Jan 2001 00:00:00 GMT", "ZIP4": "NOT AVAILABLE", "SOURCE": "FERC FORM 2, IMAGERY", "OP_NUM_COM": "0", "PIPECO": "EL PASO NATURAL GAS COMPANY L.L.C.", "NAME": "GRESHAM", "GAS_COMPRE": "14", "NAICS_DESC": "BOOSTER PUMPING STATION, NATURAL GAS TRANSPORTATION", "ELEC_COMPR": "0", "TYPE": "NATURAL GAS COMPRESSOR STATION", "NAICS_CODE": "486210", "ZIP": "79772", "EXP_OTHER": "187722", "CITY": "TOYAH", "GCOMPID": "GCOMP1067", "SOURCEDATE": "Wed, 15 Jul 2020 00:00:00 GMT" }, "geometry": { "type": "Point", "coordinates": [ -104.198982, 31.450847 ] } },
{ "type": "Feature", "properties": { "EXP_FUEL": "203512", "NUM_UNITS": "2", "VAL_METHOD": "IMAGERY/OTHER", "COMPID": "33", "PLANT_COST": "31188773", "COUNTYFIPS": "35015", "EXP_POWER": "0", "LONGITUDE": "-104.485011422", "LATITUDE": "32.082340275", "OBJECTID": "1252", "COUNTRY": "USA", "STATE": "NM", "WEBSITE": "https://pipeportal.kindermorgan.com/portalui/DefaultKM.aspx?TSP=EPGD", "OP_COMP_HR": "5229", "STATUS": "IN SERVICE", "OPERATOR": "KINDER MORGAN INC.", "CERT_HP": "9000", "COUNTY": "EDDY", "ADDRESS": "9 MILES SW OF WHITE CITY", "POSREL": "WITHIN 40 FEET", "VAL_DATE": "Fri, 17 Jun 2022 00:00:00 GMT", "OP_DATE_PE": "Thu, 22 Oct 2020 00:00:00 GMT", "ZIP4": "NOT AVAILABLE", "SOURCE": "EPA ENVIROFACTS, FERC FORM 2, CORPORATE WEBSITE", "OP_NUM_COM": "2", "PIPECO": "EL PASO NATURAL GAS COMPANY L.L.C.", "NAME": "WASHINGTON & TEXAS - STORAGE", "GAS_COMPRE": "157223", "NAICS_DESC": "BOOSTER PUMPING STATION, NATURAL GAS TRANSPORTATION", "ELEC_COMPR": "0", "TYPE": "NATURAL GAS COMPRESSOR STATION", "NAICS_CODE": "486210", "ZIP": "88268", "EXP_OTHER": "4565410", "CITY": "WHITE CITY", "GCOMPID": "GCOMP898", "SOURCEDATE": "Wed, 15 Jul 2020 00:00:00 GMT" }, "geometry": { "type": "Point", "coordinates": [ -104.485011422, 32.082340275 ] } },
{ "type": "Feature", "properties": { "EXP_FUEL": "1066375", "NUM_UNITS": "15", "VAL_METHOD": "IMAGERY/OTHER", "COMPID": "33", "PLANT_COST": "18477611", "COUNTYFIPS": "48501", "EXP_POWER": "0", "LONGITUDE": "-102.74856", "LATITUDE": "32.972446", "OBJECTID": "749", "COUNTRY": "USA", "STATE": "TX", "WEBSITE": "https://pipeportal.kindermorgan.com/portalui/DefaultKM.aspx?TSP=EPGD", "OP_COMP_HR": "68130", "STATUS": "IN SERVICE", "OPERATOR": "KINDER MORGAN INC.", "CERT_HP": "25450", "COUNTY": "YOAKUM", "ADDRESS": "2731 COUNTY ROAD 355; (APPROX 4 MILE E OF DENVER CITY, TX)", "POSREL": "WITHIN 40 FEET", "VAL_DATE": "Fri, 17 Jun 2022 00:00:00 GMT", "OP_DATE_PE": "Mon, 13 Apr 2020 00:00:00 GMT", "ZIP4": "NOT AVAILABLE", "SOURCE": "EPA ENVIROFACTS, FERC FORM 2, CORPORATE WEBSITE", "OP_NUM_COM": "11", "PIPECO": "EL PASO NATURAL GAS COMPANY L.L.C.", "NAME": "PLAINS", "GAS_COMPRE": "836817", "NAICS_DESC": "BOOSTER PUMPING STATION, NATURAL GAS TRANSPORTATION", "ELEC_COMPR": "0", "TYPE": "NATURAL GAS COMPRESSOR STATION", "NAICS_CODE": "486210", "ZIP": "79323", "EXP_OTHER": "2874206", "CITY": "DENVER CITY", "GCOMPID": "GCOMP442", "SOURCEDATE": "Wed, 15 Jul 2020 00:00:00 GMT" }, "geometry": { "type": "Point", "coordinates": [ -102.74856, 32.972446 ] } },
{ "type": "Feature", "properties": { "EXP_FUEL": "212547", "NUM_UNITS": "2", "VAL_METHOD": "IMAGERY/OTHER", "COMPID": "33", "PLANT_COST": "16956398", "COUNTYFIPS": "04015", "EXP_POWER": "0", "LONGITUDE": "-113.993329", "LATITUDE": "34.574577", "OBJECTID": "260", "COUNTRY": "USA", "STATE": "AZ", "WEBSITE": "https://pipeportal.kindermorgan.com/portalui/DefaultKM.aspx?TSP=EPGD", "OP_COMP_HR": "2666", "STATUS": "IN SERVICE", "OPERATOR": "KINDER MORGAN INC.", "CERT_HP": "12150", "COUNTY": "MOHAVE", "ADDRESS": "ON PIPELINE ROAD /SOUTH OF DUTCH FLAT ROAD", "POSREL": "WITHIN 40 FEET", "VAL_DATE": "Fri, 17 Jun 2022 00:00:00 GMT", "OP_DATE_PE": "Mon, 06 Jan 2020 00:00:00 GMT", "ZIP4": "NOT AVAILABLE", "SOURCE": "FERC FORM 2, CORPORATE WEBSITE, IMAGERY", "OP_NUM_COM": "1", "PIPECO": "EL PASO NATURAL GAS COMPANY L.L.C.", "NAME": "DUTCH FLAT", "GAS_COMPRE": "141343", "NAICS_DESC": "BOOSTER PUMPING STATION, NATURAL GAS TRANSPORTATION", "ELEC_COMPR": "0", "TYPE": "NATURAL GAS COMPRESSOR STATION", "NAICS_CODE": "486210", "ZIP": "86403", "EXP_OTHER": "181455", "CITY": "LAKE HAVASU", "GCOMPID": "GCOMP1232", "SOURCEDATE": "Wed, 15 Jul 2020 00:00:00 GMT" }, "geometry": { "type": "Point", "coordinates": [ -113.993329, 34.574577 ] } },
{ "type": "Feature", "properties": { "EXP_FUEL": "607624", "NUM_UNITS": "3", "VAL_METHOD": "IMAGERY/OTHER", "COMPID": "33", "PLANT_COST": "13749562", "COUNTYFIPS": "35031", "EXP_POWER": "0", "LONGITUDE": "-108.227804", "LATITUDE": "35.394078", "OBJECTID": "316", "COUNTRY": "USA", "STATE": "NM", "WEBSITE": "https://pipeportal.kindermorgan.com/portalui/DefaultKM.aspx?TSP=EPGD", "OP_COMP_HR": "13279", "STATUS": "IN SERVICE", "OPERATOR": "KINDER MORGAN INC.", "CERT_HP": "21000", "COUNTY": "MCKINLEY", "ADDRESS": "S IH 40 EXIT 53", "POSREL": "WITHIN 40 FEET", "VAL_DATE": "Fri, 17 Jun 2022 00:00:00 GMT", "OP_DATE_PE": "Tue, 11 Feb 2020 00:00:00 GMT", "ZIP4": "NOT AVAILABLE", "SOURCE": "EPA ENVIROFACTS, FERC FORM 2, CORPORATE WEBSITE", "OP_NUM_COM": "2", "PIPECO": "EL PASO NATURAL GAS COMPANY L.L.C.", "NAME": "BLUEWATER", "GAS_COMPRE": "471548", "NAICS_DESC": "BOOSTER PUMPING STATION, NATURAL GAS TRANSPORTATION", "ELEC_COMPR": "0", "TYPE": "NATURAL GAS COMPRESSOR STATION", "NAICS_CODE": "486210", "ZIP": "87323", "EXP_OTHER": "270687", "CITY": "THOREAU", "GCOMPID": "GCOMP1283", "SOURCEDATE": "Wed, 15 Jul 2020 00:00:00 GMT" }, "geometry": { "type": "Point", "coordinates": [ -108.227804, 35.394078 ] } },
{ "type": "Feature", "properties": { "EXP_FUEL": "277679", "NUM_UNITS": "6", "VAL_METHOD": "IMAGERY/OTHER", "COMPID": "33", "PLANT_COST": "13408811", "COUNTYFIPS": "35025", "EXP_POWER": "0", "LONGITUDE": "-103.309739035", "LATITUDE": "32.61035225", "OBJECTID": "89", "COUNTRY": "USA", "STATE": "NM", "WEBSITE": "https://pipeportal.kindermorgan.com/portalui/DefaultKM.aspx?TSP=EPGD", "OP_COMP_HR": "23614", "STATUS": "IN SERVICE", "OPERATOR": "KINDER MORGAN INC.", "CERT_HP": "8000", "COUNTY": "LEA", "ADDRESS": "HIGHWAY 46; (5 KM E OF MONUMENT W OF HIGHWAY 8)", "POSREL": "WITHIN 40 FEET", "VAL_DATE": "Fri, 17 Jun 2022 00:00:00 GMT", "OP_DATE_PE": "Tue, 29 Sep 2020 00:00:00 GMT", "ZIP4": "NOT AVAILABLE", "SOURCE": "EPA ENVIROFACTS, FERC FORM 2, CORPORATE WEBSITE", "OP_NUM_COM": "4", "PIPECO": "EL PASO NATURAL GAS COMPANY L.L.C.", "NAME": "MONUMENT", "GAS_COMPRE": "219711", "NAICS_DESC": "BOOSTER PUMPING STATION, NATURAL GAS TRANSPORTATION", "ELEC_COMPR": "0", "TYPE": "NATURAL GAS COMPRESSOR STATION", "NAICS_CODE": "486210", "ZIP": "88265", "EXP_OTHER": "918239", "CITY": "MONUMENT", "GCOMPID": "GCOMP1078", "SOURCEDATE": "Mon, 21 Sep 2015 00:00:00 GMT" }, "geometry": { "type": "Point", "coordinates": [ -103.309739035, 32.61035225 ] } },
{ "type": "Feature", "properties": { "EXP_FUEL": "1741752", "NUM_UNITS": "1", "VAL_METHOD": "IMAGERY/OTHER", "COMPID": "33", "PLANT_COST": "20507545", "COUNTYFIPS": "48109", "EXP_POWER": "0", "LONGITUDE": "-104.90751", "LATITUDE": "31.773516", "OBJECTID": "985", "COUNTRY": "USA", "STATE": "TX", "WEBSITE": "https://pipeportal.kindermorgan.com/portalui/DefaultKM.aspx?TSP=EPGD", "OP_COMP_HR": "6917", "STATUS": "IN SERVICE", "OPERATOR": "KINDER MORGAN INC.", "CERT_HP": "31050", "COUNTY": "CULBERSON", "ADDRESS": "5 TO 6 MILES FROM SALT FLAT ON HIGHWAY 62-180. STATION WILL BE ON LEFT SIDE OF HIGHWAY, 1/4 MILE OFF THE ROAD", "POSREL": "WITHIN 40 FEET", "VAL_DATE": "Fri, 17 Jun 2022 00:00:00 GMT", "OP_DATE_PE": "Sun, 31 May 2020 00:00:00 GMT", "ZIP4": "NOT AVAILABLE", "SOURCE": "FERC FORM 2, IMAGERY", "OP_NUM_COM": "1", "PIPECO": "EL PASO NATURAL GAS COMPANY L.L.C.", "NAME": "GUADALUPE", "GAS_COMPRE": "1368531", "NAICS_DESC": "BOOSTER PUMPING STATION, NATURAL GAS TRANSPORTATION", "ELEC_COMPR": "0", "TYPE": "NATURAL GAS COMPRESSOR STATION", "NAICS_CODE": "486210", "ZIP": "79901", "EXP_OTHER": "322652", "CITY": "SALT FLAT", "GCOMPID": "GCOMP657", "SOURCEDATE": "Wed, 15 Jul 2020 00:00:00 GMT" }, "geometry": { "type": "Point", "coordinates": [ -104.90751, 31.773516 ] } },
{ "type": "Feature", "properties": { "EXP_FUEL": "0", "NUM_UNITS": "3", "VAL_METHOD": "IMAGERY/OTHER", "COMPID": "33", "PLANT_COST": "7547666", "COUNTYFIPS": "04019", "EXP_POWER": "0", "LONGITUDE": "-110.80983", "LATITUDE": "32.066215", "OBJECTID": "318", "COUNTRY": "USA", "STATE": "AZ", "WEBSITE": "https://pipeportal.kindermorgan.com/portalui/DefaultKM.aspx?TSP=EPGD", "OP_COMP_HR": "0", "STATUS": "IN SERVICE", "OPERATOR": "KINDER MORGAN INC.", "CERT_HP": "20010", "COUNTY": "PIMA", "ADDRESS": "S RITA ROAD/ SOUTH OF E OLD VAIL ROAD", "POSREL": "WITHIN 40 FEET", "VAL_DATE": "Fri, 17 Jun 2022 00:00:00 GMT", "OP_DATE_PE": "Mon, 01 Jan 2001 00:00:00 GMT", "ZIP4": "NOT AVAILABLE", "SOURCE": "FERC FORM 2, CORPORATE WEBSITE, IMAGERY", "OP_NUM_COM": "0", "PIPECO": "EL PASO NATURAL GAS COMPANY L.L.C.", "NAME": "VAIL", "GAS_COMPRE": "0", "NAICS_DESC": "BOOSTER PUMPING STATION, NATURAL GAS TRANSPORTATION", "ELEC_COMPR": "0", "TYPE": "NATURAL GAS COMPRESSOR STATION", "NAICS_CODE": "486210", "ZIP": "85641", "EXP_OTHER": "148867", "CITY": "VAIL", "GCOMPID": "GCOMP1285", "SOURCEDATE": "Wed, 15 Jul 2020 00:00:00 GMT" }, "geometry": { "type": "Point", "coordinates": [ -110.809828957500002, 32.066216260799997 ] } },
{ "type": "Feature", "properties": { "EXP_FUEL": "2", "NUM_UNITS": "3", "VAL_METHOD": "IMAGERY/OTHER", "COMPID": "33", "PLANT_COST": "29449837", "COUNTYFIPS": "04021", "EXP_POWER": "0", "LONGITUDE": "-111.509205", "LATITUDE": "32.924043", "OBJECTID": "29", "COUNTRY": "USA", "STATE": "AZ", "WEBSITE": "https://pipeportal.kindermorgan.com/portalui/DefaultKM.aspx?TSP=EPGD", "OP_COMP_HR": "0", "STATUS": "IN SERVICE", "OPERATOR": "KINDER MORGAN INC.", "CERT_HP": "8290", "COUNTY": "PINAL", "ADDRESS": "E RANDOLPH ROAD/5TH AVENUE", "POSREL": "WITHIN 40 FEET", "VAL_DATE": "Fri, 17 Jun 2022 00:00:00 GMT", "OP_DATE_PE": "Mon, 01 Jan 2001 00:00:00 GMT", "ZIP4": "NOT AVAILABLE", "SOURCE": "FERC FORM 2, ARIZONA CORPORATION COMMISSION 2008 WINTER PREPAREDNESS MEETING - CORPORATE BRIEFING", "OP_NUM_COM": "0", "PIPECO": "EL PASO NATURAL GAS COMPANY L.L.C.", "NAME": "PICACHO STATION - ARIZONA", "GAS_COMPRE": "1", "NAICS_DESC": "BOOSTER PUMPING STATION, NATURAL GAS TRANSPORTATION", "ELEC_COMPR": "0", "TYPE": "NATURAL GAS COMPRESSOR STATION", "NAICS_CODE": "486210", "ZIP": "85128", "EXP_OTHER": "119505", "CITY": "RANDOLPH", "GCOMPID": "GCOMP1023", "SOURCEDATE": "Wed, 15 Jul 2020 00:00:00 GMT" }, "geometry": { "type": "Point", "coordinates": [ -111.509205, 32.924043 ] } },
{ "type": "Feature", "properties": { "EXP_FUEL": "1916236", "NUM_UNITS": "1", "VAL_METHOD": "IMAGERY/OTHER", "COMPID": "33", "PLANT_COST": "27467595", "COUNTYFIPS": "48371", "EXP_POWER": "0", "LONGITUDE": "-102.490651", "LATITUDE": "30.744548", "OBJECTID": "542", "COUNTRY": "USA", "STATE": "TX", "WEBSITE": "https://pipeportal.kindermorgan.com/portalui/DefaultKM.aspx?TSP=EPGD", "OP_COMP_HR": "5926", "STATUS": "IN SERVICE", "OPERATOR": "KINDER MORGAN INC.", "CERT_HP": "31206", "COUNTY": "PECOS", "ADDRESS": "18 MILES E ON IH10 11 MILES S ON FM2023 2 MILES E ON PLT", "POSREL": "WITHIN 40 FEET", "VAL_DATE": "Fri, 17 Jun 2022 00:00:00 GMT", "OP_DATE_PE": "Wed, 26 Dec 2012 00:00:00 GMT", "ZIP4": "NOT AVAILABLE", "SOURCE": "FERC FORM 2, IMAGERY", "OP_NUM_COM": "0", "PIPECO": "EL PASO NATURAL GAS COMPANY L.L.C.", "NAME": "PUCKETT", "GAS_COMPRE": "990220", "NAICS_DESC": "BOOSTER PUMPING STATION, NATURAL GAS TRANSPORTATION", "ELEC_COMPR": "0", "TYPE": "NATURAL GAS COMPRESSOR STATION", "NAICS_CODE": "486210", "ZIP": "79731", "EXP_OTHER": "384454", "CITY": "FORT STOCKTON", "GCOMPID": "GCOMP256", "SOURCEDATE": "Wed, 15 Jul 2020 00:00:00 GMT" }, "geometry": { "type": "Point", "coordinates": [ -102.490651, 30.744548 ] } },
{ "type": "Feature", "properties": { "EXP_FUEL": "210389", "NUM_UNITS": "4", "VAL_METHOD": "IMAGERY/OTHER", "COMPID": "33", "PLANT_COST": "51533737", "COUNTYFIPS": "35025", "EXP_POWER": "0", "LONGITUDE": "-103.287286", "LATITUDE": "32.516483", "OBJECTID": "84", "COUNTRY": "USA", "STATE": "NM", "WEBSITE": "https://pipeportal.kindermorgan.com/portalui/DefaultKM.aspx?TSP=EPGD", "OP_COMP_HR": "8394", "STATUS": "IN SERVICE", "OPERATOR": "KINDER MORGAN INC.", "CERT_HP": "21672", "COUNTY": "LEA", "ADDRESS": "HIGHWAY 175 AND HIGHWAY 26; (1 MILE N OF OIL CENTER)", "POSREL": "WITHIN 40 FEET", "VAL_DATE": "Fri, 17 Jun 2022 00:00:00 GMT", "OP_DATE_PE": "Mon, 22 Jun 2020 00:00:00 GMT", "ZIP4": "NOT AVAILABLE", "SOURCE": "FERC FORM 2, IMAGERY", "OP_NUM_COM": "1", "PIPECO": "EL PASO NATURAL GAS COMPANY L.L.C.", "NAME": "EUNICE", "GAS_COMPRE": "160899", "NAICS_DESC": "BOOSTER PUMPING STATION, NATURAL GAS TRANSPORTATION", "ELEC_COMPR": "0", "TYPE": "NATURAL GAS COMPRESSOR STATION", "NAICS_CODE": "486210", "ZIP": "88240", "EXP_OTHER": "773428", "CITY": "OIL CENTER", "GCOMPID": "GCOMP1073", "SOURCEDATE": "Wed, 15 Jul 2020 00:00:00 GMT" }, "geometry": { "type": "Point", "coordinates": [ -103.287286, 32.516483 ] } },
{ "type": "Feature", "properties": { "EXP_FUEL": "367039", "NUM_UNITS": "1", "VAL_METHOD": "IMAGERY/OTHER", "COMPID": "33", "PLANT_COST": "14882303", "COUNTYFIPS": "35027", "EXP_POWER": "0", "LONGITUDE": "-105.667532378", "LATITUDE": "34.116428218", "OBJECTID": "1351", "COUNTRY": "USA", "STATE": "NM", "WEBSITE": "https://pipeportal.kindermorgan.com/portalui/DefaultKM.aspx?TSP=EPGD", "OP_COMP_HR": "3508", "STATUS": "IN SERVICE", "OPERATOR": "KINDER MORGAN INC.", "CERT_HP": "10680", "COUNTY": "LINCOLN", "ADDRESS": "COUNTRY ROAD A035 AND ELDA ROAD; 11 MILES S OF CORONA", "POSREL": "WITHIN 40 FEET", "VAL_DATE": "Fri, 17 Jun 2022 00:00:00 GMT", "OP_DATE_PE": "Wed, 01 Jan 2020 00:00:00 GMT", "ZIP4": "NOT AVAILABLE", "SOURCE": "EPA ENVIROFACTS, FERC FORM 2, CORPORATE WEBSITE", "OP_NUM_COM": "1", "PIPECO": "EL PASO NATURAL GAS COMPANY L.L.C.", "NAME": "LINCOLN", "GAS_COMPRE": "348255", "NAICS_DESC": "BOOSTER PUMPING STATION, NATURAL GAS TRANSPORTATION", "ELEC_COMPR": "0", "TYPE": "NATURAL GAS COMPRESSOR STATION", "NAICS_CODE": "486210", "ZIP": "88318", "EXP_OTHER": "243514", "CITY": "CORONA", "GCOMPID": "GCOMP987", "SOURCEDATE": "Wed, 15 Jul 2020 00:00:00 GMT" }, "geometry": { "type": "Point", "coordinates": [ -105.667532378, 34.116428218 ] } },
{ "type": "Feature", "properties": { "EXP_FUEL": "1570", "NUM_UNITS": "1", "VAL_METHOD": "IMAGERY/OTHER", "COMPID": "33", "PLANT_COST": "4355991", "COUNTYFIPS": "04005", "EXP_POWER": "0", "LONGITUDE": "-114.1857", "LATITUDE": "33.5368", "OBJECTID": "557", "COUNTRY": "USA", "STATE": "AZ", "WEBSITE": "https://pipeportal.kindermorgan.com/portalui/DefaultKM.aspx?TSP=EPGD", "OP_COMP_HR": "93", "STATUS": "IN SERVICE", "OPERATOR": "KINDER MORGAN INC.", "CERT_HP": "1590", "COUNTY": "COCONINO", "ADDRESS": "1.5 MILES SOUTH OF QUARTZSITE", "POSREL": "WITHIN 40 FEET", "VAL_DATE": "Fri, 17 Jun 2022 00:00:00 GMT", "OP_DATE_PE": "Thu, 12 Mar 2020 00:00:00 GMT", "ZIP4": "NOT AVAILABLE", "SOURCE": "EPA ENVIROFACTS, FERC FORM 2, IMAGERY", "OP_NUM_COM": "1", "PIPECO": "EL PASO NATURAL GAS COMPANY L.L.C.", "NAME": "CASTLE DOME", "GAS_COMPRE": "1422", "NAICS_DESC": "BOOSTER PUMPING STATION, NATURAL GAS TRANSPORTATION", "ELEC_COMPR": "0", "TYPE": "NATURAL GAS COMPRESSOR STATION", "NAICS_CODE": "486210", "ZIP": "85346", "EXP_OTHER": "101530", "CITY": "QUARTZSITE", "GCOMPID": "GCOMP27", "SOURCEDATE": "Wed, 15 Jul 2020 00:00:00 GMT" }, "geometry": { "type": "Point", "coordinates": [ -114.1857, 33.5368 ] } },
{ "type": "Feature", "properties": { "EXP_FUEL": "285802", "NUM_UNITS": "5", "VAL_METHOD": "IMAGERY/OTHER", "COMPID": "33", "PLANT_COST": "28375578", "COUNTYFIPS": "04021", "EXP_POWER": "0", "LONGITUDE": "-112.06417", "LATITUDE": "32.92972", "OBJECTID": "898", "COUNTRY": "USA", "STATE": "AZ", "WEBSITE": "https://pipeportal.kindermorgan.com/portalui/DefaultKM.aspx?TSP=EPGD", "OP_COMP_HR": "4054", "STATUS": "IN SERVICE", "OPERATOR": "KINDER MORGAN INC.", "CERT_HP": "33710", "COUNTY": "PINAL", "ADDRESS": "4 MILES N OF HIGHWAY 84 AND 17 MILES W OF CASA GRANDE", "POSREL": "WITHIN 40 FEET", "VAL_DATE": "Fri, 17 Jun 2022 00:00:00 GMT", "OP_DATE_PE": "Wed, 05 Feb 2020 00:00:00 GMT", "ZIP4": "NOT AVAILABLE", "SOURCE": "EPA ENVIROFACTS, FERC FORM 2, IMAGERY", "OP_NUM_COM": "2", "PIPECO": "EL PASO NATURAL GAS COMPANY L.L.C.", "NAME": "CASA GRANDE", "GAS_COMPRE": "228965", "NAICS_DESC": "BOOSTER PUMPING STATION, NATURAL GAS TRANSPORTATION", "ELEC_COMPR": "0", "TYPE": "NATURAL GAS COMPRESSOR STATION", "NAICS_CODE": "486210", "ZIP": "85139", "EXP_OTHER": "433931", "CITY": "MARICOPA", "GCOMPID": "GCOMP578", "SOURCEDATE": "Wed, 15 Jul 2020 00:00:00 GMT" }, "geometry": { "type": "Point", "coordinates": [ -112.06417, 32.92972 ] } },
{ "type": "Feature", "properties": { "EXP_FUEL": "522049", "NUM_UNITS": "3", "VAL_METHOD": "IMAGERY/OTHER", "COMPID": "33", "PLANT_COST": "14131334", "COUNTYFIPS": "35005", "EXP_POWER": "0", "LONGITUDE": "-104.549165", "LATITUDE": "33.711879", "OBJECTID": "289", "COUNTRY": "USA", "STATE": "NM", "WEBSITE": "https://pipeportal.kindermorgan.com/portalui/DefaultKM.aspx?TSP=EPGD", "OP_COMP_HR": "15577", "STATUS": "IN SERVICE", "OPERATOR": "KINDER MORGAN INC.", "CERT_HP": "10200", "COUNTY": "CHAVES", "ADDRESS": "RED BLUFF ROAD AND HIGHWAY 100; 6 PETRO DRIVE", "POSREL": "WITHIN 40 FEET", "VAL_DATE": "Fri, 17 Jun 2022 00:00:00 GMT", "OP_DATE_PE": "Mon, 02 Mar 2020 00:00:00 GMT", "ZIP4": "NOT AVAILABLE", "SOURCE": "EPA ENVIROFACTS, FERC FORM 2, CORPORATE WEBSITE", "OP_NUM_COM": "3", "PIPECO": "EL PASO NATURAL GAS COMPANY L.L.C.", "NAME": "ROSWELL", "GAS_COMPRE": "404105", "NAICS_DESC": "BOOSTER PUMPING STATION, NATURAL GAS TRANSPORTATION", "ELEC_COMPR": "0", "TYPE": "NATURAL GAS COMPRESSOR STATION", "NAICS_CODE": "486210", "ZIP": "88201", "EXP_OTHER": "1089733", "CITY": "ROSWELL", "GCOMPID": "GCOMP1259", "SOURCEDATE": "Wed, 15 Jul 2020 00:00:00 GMT" }, "geometry": { "type": "Point", "coordinates": [ -104.549165, 33.711879 ] } },
{ "type": "Feature", "properties": { "EXP_FUEL": "16346", "NUM_UNITS": "3", "VAL_METHOD": "IMAGERY/OTHER", "COMPID": "33", "PLANT_COST": "9706431", "COUNTYFIPS": "35006", "EXP_POWER": "0", "LONGITUDE": "-107.315775", "LATITUDE": "34.993438", "OBJECTID": "137", "COUNTRY": "USA", "STATE": "NM", "WEBSITE": "https://pipeportal.kindermorgan.com/portalui/DefaultKM.aspx?TSP=EPGD", "OP_COMP_HR": "334", "STATUS": "IN SERVICE", "OPERATOR": "KINDER MORGAN INC.", "CERT_HP": "10200", "COUNTY": "CIBOLA", "ADDRESS": "INDIAN SERVICE ROUTE 522; 6 MILES EAST OF NEW LAGUNA", "POSREL": "WITHIN 40 FEET", "VAL_DATE": "Fri, 17 Jun 2022 00:00:00 GMT", "OP_DATE_PE": "Thu, 30 Jul 2020 00:00:00 GMT", "ZIP4": "NOT AVAILABLE", "SOURCE": "EPA ENVIROFACTS, FERC FORM 2, CORPORATE WEBSITE", "OP_NUM_COM": "2", "PIPECO": "EL PASO NATURAL GAS COMPANY L.L.C.", "NAME": "LAGUNA", "GAS_COMPRE": "12703", "NAICS_DESC": "BOOSTER PUMPING STATION, NATURAL GAS TRANSPORTATION", "ELEC_COMPR": "0", "TYPE": "NATURAL GAS COMPRESSOR STATION", "NAICS_CODE": "486210", "ZIP": "87038", "EXP_OTHER": "411721", "CITY": "MESITA", "GCOMPID": "GCOMP1121", "SOURCEDATE": "Mon, 21 Sep 2015 00:00:00 GMT" }, "geometry": { "type": "Point", "coordinates": [ -107.315775, 34.993438 ] } }
]
}
