{
"type": "FeatureCollection",
"name": "P0194-compressor-stations",
"crs": { "type": "name", "properties": { "name": "urn:ogc:def:crs:OGC:1.3:CRS84" } },
"features": [
{ "type": "Feature", "properties": { "OBJECTID": 65, "GCOMPID": "GCOMP1056", "NAME": "IRON RIVER", "ADDRESS": "FR-420/FR-242; 3 MILES NORTH OF 13975 US-2, IRON RIVER, WI 54847", "CITY": "ASHLAND", "STATE": "WI", "ZIP": "54806", "ZIP4": "NOT AVAILABLE", "TYPE": "NATURAL GAS COMPRESSOR STATION", "STATUS": "IN SERVICE", "COUNTY": "BAYFIELD", "COUNTYFIPS": "55007", "COUNTRY": "USA", "LATITUDE": 46.584569, "LONGITUDE": -91.25592, "NAICS_CODE": "486210", "NAICS_DESC": "BOOSTER PUMPING STATION, NATURAL GAS TRANSPORTATION", "SOURCE": "EPA ENVIROFACTS, FERC FORM 2, CORPORATE WEBSITE", "SOURCEDATE": "Wed, 15 Jul 2020 00:00:00 GMT", "VAL_METHOD": "IMAGERY/OTHER", "VAL_DATE": "Fri, 17 Jun 2022 00:00:00 GMT", "WEBSITE": "https://www.tcenergy.com/operations/natural-gas/great-lakes-gas-transmission/", "PIPECO": "GREAT LAKES GAS TRANSMISSION L.P.", "COMPID": "51", "OPERATOR": "GREAT LAKES GAS TRANSMISSION L.P.", "POSREL": "WITHIN 40 FEET", "NUM_UNITS": 2, "CERT_HP": 31300, "PLANT_COST": 31772427, "EXP_FUEL": 284647, "EXP_OTHER": 364160, "GAS_COMPRE": 177022, "OP_COMP_HR": 1700, "OP_NUM_COM": 2, "OP_DATE_PE": "Fri, 10 Jul 2020 00:00:00 GMT", "EXP_POWER": 0, "ELEC_COMPR": 0 }, "geometry": { "type": "Point", "coordinates": [ -91.255919999916742, 46.584568999949731 ] } },
{ "type": "Feature", "properties": { "OBJECTID": 76, "GCOMPID": "GCOMP1066", "NAME": "WAKEFIELD", "ADDRESS": "GREAT LAKES ROAD; CORNER OF GREAT LAKES ROAD AND DUMP ROAD", "CITY": "WAKEFIELD", "STATE": "MI", "ZIP": "49968", "ZIP4": "NOT AVAILABLE", "TYPE": "NATURAL GAS COMPRESSOR STATION", "STATUS": "IN SERVICE", "COUNTY": "GOGEBIC", "COUNTYFIPS": "26053", "COUNTRY": "USA", "LATITUDE": 46.44032517, "LONGITUDE": -89.825054799, "NAICS_CODE": "486210", "NAICS_DESC": "BOOSTER PUMPING STATION, NATURAL GAS TRANSPORTATION", "SOURCE": "EPA ENVIROFACTS, FERC FORM 2, CORPORATE WEBSITE", "SOURCEDATE": "Wed, 15 Jul 2020 00:00:00 GMT", "VAL_METHOD": "IMAGERY/OTHER", "VAL_DATE": "Fri, 17 Jun 2022 00:00:00 GMT", "WEBSITE": "https://www.tcenergy.com/operations/natural-gas/great-lakes-gas-transmission/", "PIPECO": "GREAT LAKES GAS TRANSMISSION L.P.", "COMPID": "51", "OPERATOR": "GREAT LAKES GAS TRANSMISSION L.P.", "POSREL": "WITHIN 40 FEET", "NUM_UNITS": 2, "CERT_HP": 32500, "PLANT_COST": 31116162, "EXP_FUEL": 694569, "EXP_OTHER": 461073, "GAS_COMPRE": 334373, "OP_COMP_HR": 2403, "OP_NUM_COM": 1, "OP_DATE_PE": "Wed, 22 Apr 2020 00:00:00 GMT", "EXP_POWER": 0, "ELEC_COMPR": 0 }, "geometry": { "type": "Point", "coordinates": [ -89.825054798378119, 46.44032516952479 ] } },
{ "type": "Feature", "properties": { "OBJECTID": 204, "GCOMPID": "GCOMP1182", "NAME": "NAUBINWAY", "ADDRESS": "N6725 NAUBINWAY ROAD", "CITY": "ENGADINE", "STATE": "MI", "ZIP": "49827", "ZIP4": "NOT AVAILABLE", "TYPE": "NATURAL GAS COMPRESSOR STATION", "STATUS": "IN SERVICE", "COUNTY": "MACKINAC", "COUNTYFIPS": "26097", "COUNTRY": "USA", "LATITUDE": 46.115473753000003, "LONGITUDE": -85.445153511000001, "NAICS_CODE": "486210", "NAICS_DESC": "BOOSTER PUMPING STATION, NATURAL GAS TRANSPORTATION", "SOURCE": "EPA ENVIROFACTS, FERC FORM 2, CORPORATE WEBSITE", "SOURCEDATE": "Wed, 15 Jul 2020 00:00:00 GMT", "VAL_METHOD": "IMAGERY/OTHER", "VAL_DATE": "Fri, 17 Jun 2022 00:00:00 GMT", "WEBSITE": "https://www.tcenergy.com/operations/natural-gas/great-lakes-gas-transmission/", "PIPECO": "GREAT LAKES GAS TRANSMISSION L.P.", "COMPID": "51", "OPERATOR": "GREAT LAKES GAS TRANSMISSION L.P.", "POSREL": "WITHIN 40 FEET", "NUM_UNITS": 2, "CERT_HP": 25000, "PLANT_COST": 22491047, "EXP_FUEL": 798015, "EXP_OTHER": 629264, "GAS_COMPRE": 437688, "OP_COMP_HR": 3609, "OP_NUM_COM": 2, "OP_DATE_PE": "Sun, 09 Aug 2020 00:00:00 GMT", "EXP_POWER": 0, "ELEC_COMPR": 0 }, "geometry": { "type": "Point", "coordinates": [ -85.445153509752544, 46.115473752867864 ] } },
{ "type": "Feature", "properties": { "OBJECTID": 470, "GCOMPID": "GCOMP191", "NAME": "CRYSTAL FALLS", "ADDRESS": "151 OSS ROAD", "CITY": "CRYSTAL FALLS", "STATE": "MI", "ZIP": "49920", "ZIP4": "NOT AVAILABLE", "TYPE": "NATURAL GAS COMPRESSOR STATION", "STATUS": "IN SERVICE", "COUNTY": "IRON", "COUNTYFIPS": "26071", "COUNTRY": "USA", "LATITUDE": 46.1006, "LONGITUDE": -88.4687, "NAICS_CODE": "486210", "NAICS_DESC": "BOOSTER PUMPING STATION, NATURAL GAS TRANSPORTATION", "SOURCE": "EPA ENVIROFACTS, FERC FORM 2, CORPORATE WEBSITE", "SOURCEDATE": "Wed, 15 Jul 2020 00:00:00 GMT", "VAL_METHOD": "IMAGERY/OTHER", "VAL_DATE": "Fri, 17 Jun 2022 00:00:00 GMT", "WEBSITE": "https://www.tcenergy.com/operations/natural-gas/great-lakes-gas-transmission/", "PIPECO": "GREAT LAKES GAS TRANSMISSION L.P.", "COMPID": "51", "OPERATOR": "GREAT LAKES GAS TRANSMISSION L.P.", "POSREL": "WITHIN 40 FEET", "NUM_UNITS": 3, "CERT_HP": 43800, "PLANT_COST": 59047232, "EXP_FUEL": 770091, "EXP_OTHER": 620875, "GAS_COMPRE": 463039, "OP_COMP_HR": 4530, "OP_NUM_COM": 2, "OP_DATE_PE": "Fri, 03 Jul 2020 00:00:00 GMT", "EXP_POWER": 0, "ELEC_COMPR": 0 }, "geometry": { "type": "Point", "coordinates": [ -88.46870000031511, 46.1005999998197 ] } },
{ "type": "Feature", "properties": { "OBJECTID": 750, "GCOMPID": "GCOMP443", "NAME": "SHEVLIN", "ADDRESS": "27399 400TH STREET", "CITY": "SHEVLIN", "STATE": "MN", "ZIP": "56676", "ZIP4": "NOT AVAILABLE", "TYPE": "NATURAL GAS COMPRESSOR STATION", "STATUS": "IN SERVICE", "COUNTY": "CLEARWATER", "COUNTYFIPS": "27029", "COUNTRY": "USA", "LATITUDE": 47.585325513000001, "LONGITUDE": -95.205233602000007, "NAICS_CODE": "486210", "NAICS_DESC": "BOOSTER PUMPING STATION, NATURAL GAS TRANSPORTATION", "SOURCE": "EPA ENVIROFACTS, FERC FORM 2, CORPORATE WEBSITE", "SOURCEDATE": "Wed, 15 Jul 2020 00:00:00 GMT", "VAL_METHOD": "IMAGERY/OTHER", "VAL_DATE": "Fri, 17 Jun 2022 00:00:00 GMT", "WEBSITE": "https://www.tcenergy.com/operations/natural-gas/great-lakes-gas-transmission/", "PIPECO": "GREAT LAKES GAS TRANSMISSION L.P.", "COMPID": "51", "OPERATOR": "GREAT LAKES GAS TRANSMISSION L.P.", "POSREL": "WITHIN 40 FEET", "NUM_UNITS": 3, "CERT_HP": 50700, "PLANT_COST": 48904229, "EXP_FUEL": 171996, "EXP_OTHER": 409610, "GAS_COMPRE": 103584, "OP_COMP_HR": 701, "OP_NUM_COM": 1, "OP_DATE_PE": "Mon, 24 Feb 2020 00:00:00 GMT", "EXP_POWER": 0, "ELEC_COMPR": 0 }, "geometry": { "type": "Point", "coordinates": [ -95.205233602012584, 47.58532551357218 ] } },
{ "type": "Feature", "properties": { "OBJECTID": 816, "GCOMPID": "GCOMP502", "NAME": "DEER RIVER", "ADDRESS": "31641 GREAT LAKES ROAD", "CITY": "DEER RIVER", "STATE": "MN", "ZIP": "56636", "ZIP4": "NOT AVAILABLE", "TYPE": "NATURAL GAS COMPRESSOR STATION", "STATUS": "IN SERVICE", "COUNTY": "ITASCA", "COUNTYFIPS": "27061", "COUNTRY": "USA", "LATITUDE": 47.332877544, "LONGITUDE": -93.849533385000001, "NAICS_CODE": "486210", "NAICS_DESC": "BOOSTER PUMPING STATION, NATURAL GAS TRANSPORTATION", "SOURCE": "EPA ENVIROFACTS, FERC FORM 2, CORPORATE WEBSITE", "SOURCEDATE": "Wed, 15 Jul 2020 00:00:00 GMT", "VAL_METHOD": "IMAGERY/OTHER", "VAL_DATE": "Fri, 17 Jun 2022 00:00:00 GMT", "WEBSITE": "https://www.tcenergy.com/operations/natural-gas/great-lakes-gas-transmission/", "PIPECO": "GREAT LAKES GAS TRANSMISSION L.P.", "COMPID": "51", "OPERATOR": "GREAT LAKES GAS TRANSMISSION L.P.", "POSREL": "WITHIN 40 FEET", "NUM_UNITS": 2, "CERT_HP": 31300, "PLANT_COST": 43413183, "EXP_FUEL": 1303646, "EXP_OTHER": 827200, "GAS_COMPRE": 695406, "OP_COMP_HR": 5796, "OP_NUM_COM": 2, "OP_DATE_PE": "Sun, 26 Jul 2020 00:00:00 GMT", "EXP_POWER": 0, "ELEC_COMPR": 0 }, "geometry": { "type": "Point", "coordinates": [ -93.849533383737963, 47.332877543804535 ] } },
{ "type": "Feature", "properties": { "OBJECTID": 846, "GCOMPID": "GCOMP53", "NAME": "BOYNE FALLS", "ADDRESS": "10339 GREAT LAKES ROAD", "CITY": "BOYNE FALLS", "STATE": "MI", "ZIP": "49713", "ZIP4": "NOT AVAILABLE", "TYPE": "NATURAL GAS COMPRESSOR STATION", "STATUS": "IN SERVICE", "COUNTY": "CHARLEVOIX", "COUNTYFIPS": "26029", "COUNTRY": "USA", "LATITUDE": 45.261264982999997, "LONGITUDE": -84.768108498000004, "NAICS_CODE": "486210", "NAICS_DESC": "BOOSTER PUMPING STATION, NATURAL GAS TRANSPORTATION", "SOURCE": "EPA ENVIROFACTS, FERC FORM 2, CORPORATE WEBSITE", "SOURCEDATE": "Wed, 15 Jul 2020 00:00:00 GMT", "VAL_METHOD": "IMAGERY/OTHER", "VAL_DATE": "Fri, 17 Jun 2022 00:00:00 GMT", "WEBSITE": "https://www.tcenergy.com/operations/natural-gas/great-lakes-gas-transmission/", "PIPECO": "GREAT LAKES GAS TRANSMISSION L.P.", "COMPID": "51", "OPERATOR": "GREAT LAKES GAS TRANSMISSION L.P.", "POSREL": "WITHIN 40 FEET", "NUM_UNITS": 2, "CERT_HP": 25000, "PLANT_COST": 40759777, "EXP_FUEL": 369364, "EXP_OTHER": 534096, "GAS_COMPRE": 221870, "OP_COMP_HR": 1709, "OP_NUM_COM": 2, "OP_DATE_PE": "Thu, 16 Jan 2020 00:00:00 GMT", "EXP_POWER": 0, "ELEC_COMPR": 0 }, "geometry": { "type": "Point", "coordinates": [ -84.768108497956362, 45.261264982284153 ] } },
{ "type": "Feature", "properties": { "OBJECTID": 870, "GCOMPID": "GCOMP551", "NAME": "FARWELL", "ADDRESS": "3700 HICKORY AVENUE", "CITY": "LAKE GEORGE", "STATE": "MI", "ZIP": "48632", "ZIP4": "NOT AVAILABLE", "TYPE": "NATURAL GAS COMPRESSOR STATION", "STATUS": "IN SERVICE", "COUNTY": "CLARE", "COUNTYFIPS": "26035", "COUNTRY": "USA", "LATITUDE": 43.9357, "LONGITUDE": -84.9383, "NAICS_CODE": "486210", "NAICS_DESC": "BOOSTER PUMPING STATION, NATURAL GAS TRANSPORTATION", "SOURCE": "EPA ENVIROFACTS, FERC FORM 2, CORPORATE WEBSITE", "SOURCEDATE": "Wed, 15 Jul 2020 00:00:00 GMT", "VAL_METHOD": "IMAGERY/OTHER", "VAL_DATE": "Fri, 17 Jun 2022 00:00:00 GMT", "WEBSITE": "https://www.tcenergy.com/operations/natural-gas/great-lakes-gas-transmission/", "PIPECO": "GREAT LAKES GAS TRANSMISSION L.P.", "COMPID": "51", "OPERATOR": "GREAT LAKES GAS TRANSMISSION L.P.", "POSREL": "WITHIN 40 FEET", "NUM_UNITS": 6, "CERT_HP": 29330, "PLANT_COST": 63550346, "EXP_FUEL": 489801, "EXP_OTHER": 1507289, "GAS_COMPRE": 284266, "OP_COMP_HR": 10356, "OP_NUM_COM": 4, "OP_DATE_PE": "Fri, 10 Jan 2020 00:00:00 GMT", "EXP_POWER": 0, "ELEC_COMPR": 0 }, "geometry": { "type": "Point", "coordinates": [ -84.93830000016537, 43.9356999999046 ] } },
{ "type": "Feature", "properties": { "OBJECTID": 873, "GCOMPID": "GCOMP554", "NAME": "CLOQUET", "ADDRESS": "3741 BRANDON ROAD", "CITY": "CLOQUET", "STATE": "MN", "ZIP": "55720", "ZIP4": "NOT AVAILABLE", "TYPE": "NATURAL GAS COMPRESSOR STATION", "STATUS": "IN SERVICE", "COUNTY": "CARLTON", "COUNTYFIPS": "27017", "COUNTRY": "USA", "LATITUDE": 46.785565214000002, "LONGITUDE": -92.702328271, "NAICS_CODE": "486210", "NAICS_DESC": "BOOSTER PUMPING STATION, NATURAL GAS TRANSPORTATION", "SOURCE": "EPA ENVIROFACTS, FERC FORM 2, CORPORATE WEBSITE", "SOURCEDATE": "Wed, 15 Jul 2020 00:00:00 GMT", "VAL_METHOD": "IMAGERY/OTHER", "VAL_DATE": "Fri, 17 Jun 2022 00:00:00 GMT", "WEBSITE": "https://www.tcenergy.com/operations/natural-gas/great-lakes-gas-transmission/", "PIPECO": "GREAT LAKES GAS TRANSMISSION L.P.", "COMPID": "51", "OPERATOR": "GREAT LAKES GAS TRANSMISSION L.P.", "POSREL": "WITHIN 40 FEET", "NUM_UNITS": 3, "CERT_HP": 48200, "PLANT_COST": 42282610, "EXP_FUEL": 801633, "EXP_OTHER": 622529, "GAS_COMPRE": 440305, "OP_COMP_HR": 4423, "OP_NUM_COM": 2, "OP_DATE_PE": "Thu, 10 Dec 2020 00:00:00 GMT", "EXP_POWER": 0, "ELEC_COMPR": 0 }, "geometry": { "type": "Point", "coordinates": [ -92.702328270799796, 46.785565213508058 ] } },
{ "type": "Feature", "properties": { "OBJECTID": 916, "GCOMPID": "GCOMP594", "NAME": "SAINT VINCENT", "ADDRESS": "4094 180TH AVENUE", "CITY": "SAINT VINCENT", "STATE": "MN", "ZIP": "56755", "ZIP4": "9566", "TYPE": "NATURAL GAS COMPRESSOR STATION", "STATUS": "IN SERVICE", "COUNTY": "KITTSON", "COUNTYFIPS": "27069", "COUNTRY": "USA", "LATITUDE": 48.990623692, "LONGITUDE": -97.060293021999996, "NAICS_CODE": "486210", "NAICS_DESC": "BOOSTER PUMPING STATION, NATURAL GAS TRANSPORTATION", "SOURCE": "EPA ENVIROFACTS, FERC FORM 2, CORPORATE WEBSITE", "SOURCEDATE": "Wed, 15 Jul 2020 00:00:00 GMT", "VAL_METHOD": "IMAGERY/OTHER", "VAL_DATE": "Fri, 17 Jun 2022 00:00:00 GMT", "WEBSITE": "https://www.tcenergy.com/operations/natural-gas/great-lakes-gas-transmission/", "PIPECO": "GREAT LAKES GAS TRANSMISSION L.P.", "COMPID": "51", "OPERATOR": "GREAT LAKES GAS TRANSMISSION L.P.", "POSREL": "WITHIN 40 FEET", "NUM_UNITS": 5, "CERT_HP": 32330, "PLANT_COST": 68313780, "EXP_FUEL": 646, "EXP_OTHER": 421372, "GAS_COMPRE": 327, "OP_COMP_HR": 0, "OP_NUM_COM": 0, "OP_DATE_PE": "Mon, 01 Jan 2001 00:00:00 GMT", "EXP_POWER": 0, "ELEC_COMPR": 0 }, "geometry": { "type": "Point", "coordinates": [ -97.060293021651688, 48.990623692268947 ] } },
{ "type": "Feature", "properties": { "OBJECTID": 1002, "GCOMPID": "GCOMP672", "NAME": "BREVORT", "ADDRESS": "514 WORTH ROAD", "CITY": "BREVORT", "STATE": "MI", "ZIP": "49760", "ZIP4": "NOT AVAILABLE", "TYPE": "NATURAL GAS COMPRESSOR STATION", "STATUS": "IN SERVICE", "COUNTY": "MACKINAC", "COUNTYFIPS": "26097", "COUNTRY": "USA", "LATITUDE": 46.030762, "LONGITUDE": -85.03127, "NAICS_CODE": "486210", "NAICS_DESC": "BOOSTER PUMPING STATION, NATURAL GAS TRANSPORTATION", "SOURCE": "FERC FORM 2, IMAGERY", "SOURCEDATE": "Wed, 15 Jul 2020 00:00:00 GMT", "VAL_METHOD": "IMAGERY/OTHER", "VAL_DATE": "Fri, 17 Jun 2022 00:00:00 GMT", "WEBSITE": "https://www.tcenergy.com/operations/natural-gas/great-lakes-gas-transmission/", "PIPECO": "GREAT LAKES GAS TRANSMISSION L.P.", "COMPID": "51", "OPERATOR": "GREAT LAKES GAS TRANSMISSION L.P.", "POSREL": "WITHIN 40 FEET", "NUM_UNITS": 2, "CERT_HP": 2200, "PLANT_COST": 9560489, "EXP_FUEL": 102553, "EXP_OTHER": 350664, "GAS_COMPRE": 56970, "OP_COMP_HR": 3562, "OP_NUM_COM": 2, "OP_DATE_PE": "Thu, 13 Feb 2020 00:00:00 GMT", "EXP_POWER": 0, "ELEC_COMPR": 0 }, "geometry": { "type": "Point", "coordinates": [ -85.031269999663294, 46.030762000186876 ] } },
{ "type": "Feature", "properties": { "OBJECTID": 1044, "GCOMPID": "GCOMP71", "NAME": "RAPID RIVER", "ADDRESS": "10888 T-65 PIPELINE ROAD", "CITY": "RAPID RIVER", "STATE": "MI", "ZIP": "49878", "ZIP4": "NOT AVAILABLE", "TYPE": "NATURAL GAS COMPRESSOR STATION", "STATUS": "IN SERVICE", "COUNTY": "DELTA", "COUNTYFIPS": "26041", "COUNTRY": "USA", "LATITUDE": 45.940577, "LONGITUDE": -86.960271, "NAICS_CODE": "486210", "NAICS_DESC": "BOOSTER PUMPING STATION, NATURAL GAS TRANSPORTATION", "SOURCE": "FERC FORM 2, IMAGERY", "SOURCEDATE": "Wed, 15 Jul 2020 00:00:00 GMT", "VAL_METHOD": "IMAGERY/OTHER", "VAL_DATE": "Fri, 17 Jun 2022 00:00:00 GMT", "WEBSITE": "https://www.tcenergy.com/operations/natural-gas/great-lakes-gas-transmission/", "PIPECO": "GREAT LAKES GAS TRANSMISSION L.P.", "COMPID": "51", "OPERATOR": "GREAT LAKES GAS TRANSMISSION L.P.", "POSREL": "WITHIN 40 FEET", "NUM_UNITS": 1, "CERT_HP": 12500, "PLANT_COST": 10573057, "EXP_FUEL": 38975, "EXP_OTHER": 255814, "GAS_COMPRE": 22612, "OP_COMP_HR": 162, "OP_NUM_COM": 1, "OP_DATE_PE": "Sat, 18 Jul 2020 00:00:00 GMT", "EXP_POWER": 0, "ELEC_COMPR": 0 }, "geometry": { "type": "Point", "coordinates": [ -86.960270999295204, 45.940576999794068 ] } },
{ "type": "Feature", "properties": { "OBJECTID": 1055, "GCOMPID": "GCOMP72", "NAME": "THIEF RIVER", "ADDRESS": "10950 260TH STREET NE", "CITY": "NEWFOLDEN", "STATE": "MN", "ZIP": "56738", "ZIP4": "9376", "TYPE": "NATURAL GAS COMPRESSOR STATION", "STATUS": "IN SERVICE", "COUNTY": "MARSHALL", "COUNTYFIPS": "27089", "COUNTRY": "USA", "LATITUDE": 48.255806567999997, "LONGITUDE": -96.238249750999998, "NAICS_CODE": "486210", "NAICS_DESC": "BOOSTER PUMPING STATION, NATURAL GAS TRANSPORTATION", "SOURCE": "EPA ENVIROFACTS, FERC FORM 2, CORPORATE WEBSITE", "SOURCEDATE": "Wed, 15 Jul 2020 00:00:00 GMT", "VAL_METHOD": "IMAGERY/OTHER", "VAL_DATE": "Fri, 17 Jun 2022 00:00:00 GMT", "WEBSITE": "https://www.tcenergy.com/operations/natural-gas/great-lakes-gas-transmission/", "PIPECO": "GREAT LAKES GAS TRANSMISSION L.P.", "COMPID": "51", "OPERATOR": "GREAT LAKES GAS TRANSMISSION L.P.", "POSREL": "WITHIN 40 FEET", "NUM_UNITS": 2, "CERT_HP": 28500, "PLANT_COST": 29891194, "EXP_FUEL": 948585, "EXP_OTHER": 613480, "GAS_COMPRE": 507628, "OP_COMP_HR": 4889, "OP_NUM_COM": 1, "OP_DATE_PE": "Mon, 20 Apr 2020 00:00:00 GMT", "EXP_POWER": 0, "ELEC_COMPR": 0 }, "geometry": { "type": "Point", "coordinates": [ -96.238249750998321, 48.255806567868746 ] } },
{ "type": "Feature", "properties": { "OBJECTID": 1185, "GCOMPID": "GCOMP837", "NAME": "OTISVILLE", "ADDRESS": "7500 EAST DODGE ROAD", "CITY": "MOUNT MORRIS", "STATE": "MI", "ZIP": "48458", "ZIP4": "NOT AVAILABLE", "TYPE": "NATURAL GAS COMPRESSOR STATION", "STATUS": "IN SERVICE", "COUNTY": "GENESEE", "COUNTYFIPS": "26049", "COUNTRY": "USA", "LATITUDE": 43.1519, "LONGITUDE": -83.5625, "NAICS_CODE": "486210", "NAICS_DESC": "BOOSTER PUMPING STATION, NATURAL GAS TRANSPORTATION", "SOURCE": "EPA ENVIROFACTS, FERC FORM 2, CORPORATE WEBSITE", "SOURCEDATE": "Wed, 15 Jul 2020 00:00:00 GMT", "VAL_METHOD": "IMAGERY/OTHER", "VAL_DATE": "Fri, 17 Jun 2022 00:00:00 GMT", "WEBSITE": "https://www.tcenergy.com/operations/natural-gas/great-lakes-gas-transmission/", "PIPECO": "GREAT LAKES GAS TRANSMISSION L.P.", "COMPID": "51", "OPERATOR": "GREAT LAKES GAS TRANSMISSION L.P.", "POSREL": "WITHIN 40 FEET", "NUM_UNITS": 3, "CERT_HP": 40700, "PLANT_COST": 49000120, "EXP_FUEL": 817401, "EXP_OTHER": 616460, "GAS_COMPRE": 450347, "OP_COMP_HR": 3362, "OP_NUM_COM": 2, "OP_DATE_PE": "Tue, 28 Apr 2020 00:00:00 GMT", "EXP_POWER": 0, "ELEC_COMPR": 0 }, "geometry": { "type": "Point", "coordinates": [ -83.562500000442554, 43.151899999362399 ] } }
]
}
