{
"type": "FeatureCollection",
"name": "P0197-compressor-stations",
"crs": { "type": "name", "properties": { "name": "urn:ogc:def:crs:OGC:1.3:CRS84" } },
"features": [
{ "type": "Feature", "properties": { "OBJECTID": 25, "GCOMPID": "GCOMP102", "NAME": "WHITE OAK ELECTRIC", "ADDRESS": "1182 E OLD HIGHWAY 80", "CITY": "LONGVIEW", "STATE": "TX", "ZIP": "75604", "ZIP4": "NOT AVAILABLE", "TYPE": "NATURAL GAS COMPRESSOR STATION", "STATUS": "IN SERVICE", "COUNTY": "GREGG", "COUNTYFIPS": "48183", "COUNTRY": "USA", "LATITUDE": 32.518251265000004, "LONGITUDE": -94.844123135000004, "NAICS_CODE": "486210", "NAICS_DESC": "BOOSTER PUMPING STATION, NATURAL GAS TRANSPORTATION", "SOURCE": "FERC FORM 2, CORPORATE WEBSITE", "SOURCEDATE": "Wed, 15 Jul 2020 00:00:00 GMT", "VAL_METHOD": "IMAGERY/OTHER", "VAL_DATE": "Fri, 17 Jun 2022 00:00:00 GMT", "WEBSITE": "https://www.gulfsouthpl.com/about-us/subsidiaries/gulf-south-pipeline-company-lp/default.aspx", "PIPECO": "GULF SOUTH PIPELINE COMPANY L.P.", "COMPID": "11", "OPERATOR": "GULF SOUTH PIPELINE COMPANY L.P.", "POSREL": "WITHIN 40 FEET", "NUM_UNITS": 4, "CERT_HP": 12800, "PLANT_COST": 40685421, "EXP_FUEL": 10036, "EXP_OTHER": 655341, "GAS_COMPRE": 7042, "OP_COMP_HR": 14, "OP_NUM_COM": 1, "OP_DATE_PE": "Tue, 04 Feb 2020 00:00:00 GMT", "EXP_POWER": 373024, "ELEC_COMPR": 5439600 }, "geometry": { "type": "Point", "coordinates": [ -94.844123135, 32.518251265000103 ] } },
{ "type": "Feature", "properties": { "OBJECTID": 92, "GCOMPID": "GCOMP1080", "NAME": "CARTHAGE JCT", "ADDRESS": "HIGHWAY 59", "CITY": "CARTHAGE", "STATE": "TX", "ZIP": "75633", "ZIP4": "NOT AVAILABLE", "TYPE": "NATURAL GAS COMPRESSOR STATION", "STATUS": "IN SERVICE", "COUNTY": "PANOLA", "COUNTYFIPS": "48365", "COUNTRY": "USA", "LATITUDE": 32.11936029, "LONGITUDE": -94.337845544999993, "NAICS_CODE": "486210", "NAICS_DESC": "BOOSTER PUMPING STATION, NATURAL GAS TRANSPORTATION", "SOURCE": "EPA ENVIROFACTS, FERC FORM 2, CORPORATE WEBSITE", "SOURCEDATE": "Wed, 15 Jul 2020 00:00:00 GMT", "VAL_METHOD": "IMAGERY/OTHER", "VAL_DATE": "Fri, 17 Jun 2022 00:00:00 GMT", "WEBSITE": "https://www.gulfsouthpl.com/about-us/subsidiaries/gulf-south-pipeline-company-lp/default.aspx", "PIPECO": "GULF SOUTH PIPELINE COMPANY L.P.", "COMPID": "11", "OPERATOR": "GULF SOUTH PIPELINE COMPANY L.P.", "POSREL": "EXCEEDS 1 MILE", "NUM_UNITS": 4, "CERT_HP": 8650, "PLANT_COST": 15364771, "EXP_FUEL": 912028, "EXP_OTHER": 481301, "GAS_COMPRE": 437209, "OP_COMP_HR": 5501, "OP_NUM_COM": 2, "OP_DATE_PE": "Sun, 15 Mar 2020 00:00:00 GMT", "EXP_POWER": 0, "ELEC_COMPR": 0 }, "geometry": { "type": "Point", "coordinates": [ -94.337845544999894, 32.11936029 ] } },
{ "type": "Feature", "properties": { "OBJECTID": 131, "GCOMPID": "GCOMP1116", "NAME": "BAYOU SALE", "ADDRESS": "HIGHWAY 90 E SERVICE ROAD", "CITY": "CENTERVILLE", "STATE": "LA", "ZIP": "70522", "ZIP4": "NOT AVAILABLE", "TYPE": "NATURAL GAS COMPRESSOR STATION", "STATUS": "IN SERVICE", "COUNTY": "SAINT MARY PARISH", "COUNTYFIPS": "22101", "COUNTRY": "USA", "LATITUDE": 29.730387355000001, "LONGITUDE": -91.420024577999996, "NAICS_CODE": "486210", "NAICS_DESC": "BOOSTER PUMPING STATION, NATURAL GAS TRANSPORTATION", "SOURCE": "EPA ENVIROFACTS, FERC FORM 2, CORPORATE WEBSITE", "SOURCEDATE": "Wed, 15 Jul 2020 00:00:00 GMT", "VAL_METHOD": "IMAGERY/OTHER", "VAL_DATE": "Fri, 17 Jun 2022 00:00:00 GMT", "WEBSITE": "https://www.gulfsouthpl.com/about-us/subsidiaries/gulf-south-pipeline-company-lp/default.aspx", "PIPECO": "GULF SOUTH PIPELINE COMPANY L.P.", "COMPID": "11", "OPERATOR": "GULF SOUTH PIPELINE COMPANY L.P.", "POSREL": "WITHIN 40 FEET", "NUM_UNITS": 2, "CERT_HP": 4000, "PLANT_COST": 2656013, "EXP_FUEL": 0, "EXP_OTHER": 1162, "GAS_COMPRE": 0, "OP_COMP_HR": 0, "OP_NUM_COM": 0, "OP_DATE_PE": "Mon, 01 Jan 2001 00:00:00 GMT", "EXP_POWER": 0, "ELEC_COMPR": 0 }, "geometry": { "type": "Point", "coordinates": [ -91.420024578, 29.730387355000101 ] } },
{ "type": "Feature", "properties": { "OBJECTID": 165, "GCOMPID": "GCOMP1147", "NAME": "PETAL # 1", "ADDRESS": "LEEVILLE ROAD/CHAPEL HILL ROAD", "CITY": "PETAL", "STATE": "MS", "ZIP": "39439", "ZIP4": "NOT AVAILABLE", "TYPE": "NATURAL GAS COMPRESSOR STATION", "STATUS": "IN SERVICE", "COUNTY": "JASPER", "COUNTYFIPS": "28061", "COUNTRY": "USA", "LATITUDE": 31.369743, "LONGITUDE": -89.260801, "NAICS_CODE": "486210", "NAICS_DESC": "BOOSTER PUMPING STATION, NATURAL GAS TRANSPORTATION", "SOURCE": "EPA ENVIROFACTS, FERC FORM 2, CORPORATE WEBSITE", "SOURCEDATE": "Wed, 15 Jul 2020 00:00:00 GMT", "VAL_METHOD": "IMAGERY/OTHER", "VAL_DATE": "Fri, 17 Jun 2022 00:00:00 GMT", "WEBSITE": "http://infopost.bwpmlp.com/", "PIPECO": "GULF SOUTH PIPELINE COMPANY L.P.", "COMPID": "63", "OPERATOR": "GULF SOUTH PIPELINE COMPANY L.P.", "POSREL": "WITHIN 40 FEET", "NUM_UNITS": 5, "CERT_HP": 10435, "PLANT_COST": 17539435, "EXP_FUEL": 321235, "EXP_OTHER": 689757, "GAS_COMPRE": 154711, "OP_COMP_HR": 12154, "OP_NUM_COM": 5, "OP_DATE_PE": "Sun, 14 Oct 2012 00:00:00 GMT", "EXP_POWER": 0, "ELEC_COMPR": 0 }, "geometry": { "type": "Point", "coordinates": [ -89.260801, 31.369743 ] } },
{ "type": "Feature", "properties": { "OBJECTID": 166, "GCOMPID": "GCOMP1148", "NAME": "PETAL #2", "ADDRESS": "LEEVILLE ROAD/CHAPEL HILL ROAD", "CITY": "PETAL", "STATE": "MS", "ZIP": "39439", "ZIP4": "NOT AVAILABLE", "TYPE": "NATURAL GAS COMPRESSOR STATION", "STATUS": "IN SERVICE", "COUNTY": "JASPER", "COUNTYFIPS": "28061", "COUNTRY": "USA", "LATITUDE": 31.371773, "LONGITUDE": -89.264065, "NAICS_CODE": "486210", "NAICS_DESC": "BOOSTER PUMPING STATION, NATURAL GAS TRANSPORTATION", "SOURCE": "EPA ENVIROFACTS, FERC FORM 2, CORPORATE WEBSITE", "SOURCEDATE": "Wed, 15 Jul 2020 00:00:00 GMT", "VAL_METHOD": "IMAGERY/OTHER", "VAL_DATE": "Fri, 17 Jun 2022 00:00:00 GMT", "WEBSITE": "http://infopost.bwpmlp.com/", "PIPECO": "GULF SOUTH PIPELINE COMPANY L.P.", "COMPID": "63", "OPERATOR": "GULF SOUTH PIPELINE COMPANY L.P.", "POSREL": "WITHIN 40 FEET", "NUM_UNITS": 5, "CERT_HP": 25000, "PLANT_COST": 38564253, "EXP_FUEL": 64262, "EXP_OTHER": 1394573, "GAS_COMPRE": 28137, "OP_COMP_HR": 6744, "OP_NUM_COM": 5, "OP_DATE_PE": "Tue, 25 Dec 2012 00:00:00 GMT", "EXP_POWER": 285395, "ELEC_COMPR": 2552699 }, "geometry": { "type": "Point", "coordinates": [ -89.264065, 31.3717730000001 ] } },
{ "type": "Feature", "properties": { "OBJECTID": 167, "GCOMPID": "GCOMP1149", "NAME": "PETAL #3", "ADDRESS": "LEEVILLE ROAD/CHAPEL HILL ROAD", "CITY": "HEIDELBERG", "STATE": "MS", "ZIP": "39439", "ZIP4": "NOT AVAILABLE", "TYPE": "NATURAL GAS COMPRESSOR STATION", "STATUS": "IN SERVICE", "COUNTY": "JASPER", "COUNTYFIPS": "28061", "COUNTRY": "USA", "LATITUDE": 31.378217, "LONGITUDE": -89.260868, "NAICS_CODE": "486210", "NAICS_DESC": "BOOSTER PUMPING STATION, NATURAL GAS TRANSPORTATION", "SOURCE": "EPA ENVIROFACTS, FERC FORM 2, CORPORATE WEBSITE", "SOURCEDATE": "Wed, 15 Jul 2020 00:00:00 GMT", "VAL_METHOD": "IMAGERY/OTHER", "VAL_DATE": "Fri, 17 Jun 2022 00:00:00 GMT", "WEBSITE": "https://www.txgt.com/about-us/subsidiaries/texas-gas-transmission-llc/default.aspx", "PIPECO": "GULF SOUTH PIPELINE COMPANY L.P.", "COMPID": "63", "OPERATOR": "GULF SOUTH PIPELINE COMPANY L.P.", "POSREL": "WITHIN 40 FEET", "NUM_UNITS": 5, "CERT_HP": 25000, "PLANT_COST": 102168950, "EXP_FUEL": 0, "EXP_OTHER": 1111617, "GAS_COMPRE": 0, "OP_COMP_HR": 6374, "OP_NUM_COM": 4, "OP_DATE_PE": "Sat, 24 Mar 2012 00:00:00 GMT", "EXP_POWER": 206493, "ELEC_COMPR": 1846962 }, "geometry": { "type": "Point", "coordinates": [ -89.260868, 31.378217 ] } },
{ "type": "Feature", "properties": { "OBJECTID": 236, "GCOMPID": "GCOMP1210", "NAME": "TALLULAH", "ADDRESS": "OFF HIGHWAY 602 SE OF", "CITY": "TALLULAH", "STATE": "LA", "ZIP": "70000", "ZIP4": "NOT AVAILABLE", "TYPE": "NATURAL GAS COMPRESSOR STATION", "STATUS": "IN SERVICE", "COUNTY": "MADISON PARISH", "COUNTYFIPS": "22065", "COUNTRY": "USA", "LATITUDE": 32.372198894999997, "LONGITUDE": -91.186842502000005, "NAICS_CODE": "486210", "NAICS_DESC": "BOOSTER PUMPING STATION, NATURAL GAS TRANSPORTATION", "SOURCE": "EPA ENVIROFACTS, FERC FORM 2, CORPORATE WEBSITE", "SOURCEDATE": "Wed, 15 Jul 2020 00:00:00 GMT", "VAL_METHOD": "IMAGERY/OTHER", "VAL_DATE": "Fri, 17 Jun 2022 00:00:00 GMT", "WEBSITE": "https://www.gulfsouthpl.com/about-us/subsidiaries/gulf-south-pipeline-company-lp/default.aspx", "PIPECO": "GULF SOUTH PIPELINE COMPANY L.P.", "COMPID": "11", "OPERATOR": "GULF SOUTH PIPELINE COMPANY L.P.", "POSREL": "WITHIN 40 FEET", "NUM_UNITS": 4, "CERT_HP": 60802, "PLANT_COST": 104404314, "EXP_FUEL": 6640140, "EXP_OTHER": 3469872, "GAS_COMPRE": 3133958, "OP_COMP_HR": 26414, "OP_NUM_COM": 4, "OP_DATE_PE": "Wed, 01 Jan 2020 00:00:00 GMT", "EXP_POWER": 0, "ELEC_COMPR": 0 }, "geometry": { "type": "Point", "coordinates": [ -91.1873509, 32.3729795 ] } },
{ "type": "Feature", "properties": { "OBJECTID": 238, "GCOMPID": "GCOMP1212", "NAME": "CASTOR", "ADDRESS": "OFF LITTLE HOPE ROAD, 8.6 MILE NE", "CITY": "CASTOR", "STATE": "LA", "ZIP": "70000", "ZIP4": "NOT AVAILABLE", "TYPE": "NATURAL GAS COMPRESSOR STATION", "STATUS": "IN SERVICE", "COUNTY": "BIENVILLE PARISH", "COUNTYFIPS": "22013", "COUNTRY": "USA", "LATITUDE": 32.291324949, "LONGITUDE": -93.066264036000007, "NAICS_CODE": "486210", "NAICS_DESC": "BOOSTER PUMPING STATION, NATURAL GAS TRANSPORTATION", "SOURCE": "FERC FORM 2, IMAGERY", "SOURCEDATE": "Wed, 15 Jul 2020 00:00:00 GMT", "VAL_METHOD": "IMAGERY/OTHER", "VAL_DATE": "Fri, 17 Jun 2022 00:00:00 GMT", "WEBSITE": "https://www.gulfsouthpl.com/about-us/subsidiaries/gulf-south-pipeline-company-lp/default.aspx", "PIPECO": "GULF SOUTH PIPELINE COMPANY L.P.", "COMPID": "11", "OPERATOR": "GULF SOUTH PIPELINE COMPANY L.P.", "POSREL": "WITHIN 40 FEET", "NUM_UNITS": 1, "CERT_HP": 1350, "PLANT_COST": 3781249, "EXP_FUEL": 0, "EXP_OTHER": 3898, "GAS_COMPRE": 0, "OP_COMP_HR": 0, "OP_NUM_COM": 0, "OP_DATE_PE": "Wed, 01 Jan 2020 00:00:00 GMT", "EXP_POWER": 0, "ELEC_COMPR": 0 }, "geometry": { "type": "Point", "coordinates": [ -93.066264036, 32.291324949000099 ] } },
{ "type": "Feature", "properties": { "OBJECTID": 258, "GCOMPID": "GCOMP1230", "NAME": "AIRPORT ROAD", "ADDRESS": "ON AIRPORT ROAD EAST OF GRAND BAY WILMER ROAD", "CITY": "MOBILE", "STATE": "AL", "ZIP": "36608", "ZIP4": "NOT AVAILABLE", "TYPE": "NATURAL GAS COMPRESSOR STATION", "STATUS": "IN SERVICE", "COUNTY": "MOBILE", "COUNTYFIPS": "01097", "COUNTRY": "USA", "LATITUDE": 30.635287884, "LONGITUDE": -88.363105411000006, "NAICS_CODE": "486210", "NAICS_DESC": "BOOSTER PUMPING STATION, NATURAL GAS TRANSPORTATION", "SOURCE": "FERC FORM 2, CORPORATE WEBSITE", "SOURCEDATE": "Wed, 15 Jul 2020 00:00:00 GMT", "VAL_METHOD": "IMAGERY/OTHER", "VAL_DATE": "Fri, 17 Jun 2022 00:00:00 GMT", "WEBSITE": "https://www.gulfsouthpl.com/about-us/subsidiaries/gulf-south-pipeline-company-lp/default.aspx", "PIPECO": "GULF SOUTH PIPELINE COMPANY L.P.", "COMPID": "11", "OPERATOR": "GULF SOUTH PIPELINE COMPANY L.P.", "POSREL": "WITHIN 40 FEET", "NUM_UNITS": 2, "CERT_HP": 7105, "PLANT_COST": 31489628, "EXP_FUEL": 426085, "EXP_OTHER": 669037, "GAS_COMPRE": 212696, "OP_COMP_HR": 9733, "OP_NUM_COM": 2, "OP_DATE_PE": "Sat, 19 Sep 2020 00:00:00 GMT", "EXP_POWER": 0, "ELEC_COMPR": 0 }, "geometry": { "type": "Point", "coordinates": [ -88.363105410999907, 30.635287884 ] } },
{ "type": "Feature", "properties": { "OBJECTID": 362, "GCOMPID": "GCOMP1324", "NAME": "OPELOUSAS", "ADDRESS": "TOULOUSE ROAD; EAST OF HIGHWAY 743 3.5 MILENE", "CITY": "OPELOUSAS", "STATE": "LA", "ZIP": "70570", "ZIP4": "NOT AVAILABLE", "TYPE": "NATURAL GAS COMPRESSOR STATION", "STATUS": "IN SERVICE", "COUNTY": "SAINT LANDRY PARISH", "COUNTYFIPS": "22097", "COUNTRY": "USA", "LATITUDE": 30.567994584000001, "LONGITUDE": -92.011161963000006, "NAICS_CODE": "486210", "NAICS_DESC": "BOOSTER PUMPING STATION, NATURAL GAS TRANSPORTATION", "SOURCE": "FERC FORM 2, IMAGERY", "SOURCEDATE": "Wed, 15 Jul 2020 00:00:00 GMT", "VAL_METHOD": "IMAGERY/OTHER", "VAL_DATE": "Fri, 17 Jun 2022 00:00:00 GMT", "WEBSITE": "https://www.gulfsouthpl.com/about-us/subsidiaries/gulf-south-pipeline-company-lp/default.aspx", "PIPECO": "GULF SOUTH PIPELINE COMPANY L.P.", "COMPID": "11", "OPERATOR": "GULF SOUTH PIPELINE COMPANY L.P.", "POSREL": "WITHIN 40 FEET", "NUM_UNITS": 2, "CERT_HP": 2398, "PLANT_COST": 1346349, "EXP_FUEL": 0, "EXP_OTHER": 3599, "GAS_COMPRE": 0, "OP_COMP_HR": 0, "OP_NUM_COM": 0, "OP_DATE_PE": "Mon, 01 Jan 2001 00:00:00 GMT", "EXP_POWER": 0, "ELEC_COMPR": 0 }, "geometry": { "type": "Point", "coordinates": [ -92.011161963, 30.5679945840001 ] } },
{ "type": "Feature", "properties": { "OBJECTID": 461, "GCOMPID": "GCOMP183", "NAME": "STERLINGTON #2", "ADDRESS": "1476 KEYSTONE ROAD", "CITY": "STERLINGTON", "STATE": "LA", "ZIP": "71280", "ZIP4": "3102", "TYPE": "NATURAL GAS COMPRESSOR STATION", "STATUS": "IN SERVICE", "COUNTY": "OUACHITA PARISH", "COUNTYFIPS": "22073", "COUNTRY": "USA", "LATITUDE": 32.671849418000079, "LONGITUDE": -92.087054622999972, "NAICS_CODE": "486210", "NAICS_DESC": "BOOSTER PUMPING STATION, NATURAL GAS TRANSPORTATION", "SOURCE": "EPA ENVIROFACTS, FERC FORM 2, CORPORATE WEBSITE", "SOURCEDATE": "Wed, 15 Jul 2020 00:00:00 GMT", "VAL_METHOD": "IMAGERY/OTHER", "VAL_DATE": "Fri, 17 Jun 2022 00:00:00 GMT", "WEBSITE": "https://www.gulfsouthpl.com/about-us/subsidiaries/gulf-south-pipeline-company-lp/default.aspx", "PIPECO": "GULF SOUTH PIPELINE COMPANY L.P.", "COMPID": "11", "OPERATOR": "GULF SOUTH PIPELINE COMPANY L.P.", "POSREL": "WITHIN 1 MILE", "NUM_UNITS": 3, "CERT_HP": 3070, "PLANT_COST": 2828600, "EXP_FUEL": 0, "EXP_OTHER": 266694, "GAS_COMPRE": 0, "OP_COMP_HR": 0, "OP_NUM_COM": 0, "OP_DATE_PE": "Mon, 01 Jan 2001 00:00:00 GMT", "EXP_POWER": 0, "ELEC_COMPR": 0 }, "geometry": { "type": "Point", "coordinates": [ -92.087054623, 32.6718494180001 ] } },
{ "type": "Feature", "properties": { "OBJECTID": 530, "GCOMPID": "GCOMP245", "NAME": "KILN", "ADDRESS": "17281 BOBINGER ROAD", "CITY": "KILN", "STATE": "MS", "ZIP": "39556", "ZIP4": "8358", "TYPE": "NATURAL GAS COMPRESSOR STATION", "STATUS": "IN SERVICE", "COUNTY": "HANCOCK", "COUNTYFIPS": "28045", "COUNTRY": "USA", "LATITUDE": 30.429611, "LONGITUDE": -89.459611, "NAICS_CODE": "486210", "NAICS_DESC": "BOOSTER PUMPING STATION, NATURAL GAS TRANSPORTATION", "SOURCE": "EPA ENVIROFACTS, FERC FORM 2, CORPORATE WEBSITE", "SOURCEDATE": "Wed, 15 Jul 2020 00:00:00 GMT", "VAL_METHOD": "IMAGERY/OTHER", "VAL_DATE": "Fri, 17 Jun 2022 00:00:00 GMT", "WEBSITE": "https://www.gulfsouthpl.com/about-us/subsidiaries/gulf-south-pipeline-company-lp/default.aspx", "PIPECO": "GULF SOUTH PIPELINE COMPANY L.P.", "COMPID": "11", "OPERATOR": "GULF SOUTH PIPELINE COMPANY L.P.", "POSREL": "WITHIN 40 FEET", "NUM_UNITS": 2, "CERT_HP": 9400, "PLANT_COST": 10913995, "EXP_FUEL": 772981, "EXP_OTHER": 304652, "GAS_COMPRE": 434187, "OP_COMP_HR": 10148, "OP_NUM_COM": 2, "OP_DATE_PE": "Thu, 17 Sep 2020 00:00:00 GMT", "EXP_POWER": 0, "ELEC_COMPR": 0 }, "geometry": { "type": "Point", "coordinates": [ -89.459610999999896, 30.429611000000101 ] } },
{ "type": "Feature", "properties": { "OBJECTID": 570, "GCOMPID": "GCOMP281", "NAME": "OLLA", "ADDRESS": "190 TURBINE ROAD", "CITY": "OLLA", "STATE": "LA", "ZIP": "71465", "ZIP4": "NOT AVAILABLE", "TYPE": "NATURAL GAS COMPRESSOR STATION", "STATUS": "IN SERVICE", "COUNTY": "LA SALLE PARISH", "COUNTYFIPS": "22059", "COUNTRY": "USA", "LATITUDE": 31.875689472000001, "LONGITUDE": -92.261989811999996, "NAICS_CODE": "486210", "NAICS_DESC": "BOOSTER PUMPING STATION, NATURAL GAS TRANSPORTATION", "SOURCE": "EPA ENVIROFACTS, FERC FORM 2, CORPORATE WEBSITE", "SOURCEDATE": "Wed, 15 Jul 2020 00:00:00 GMT", "VAL_METHOD": "IMAGERY/OTHER", "VAL_DATE": "Fri, 17 Jun 2022 00:00:00 GMT", "WEBSITE": "https://www.gulfsouthpl.com/about-us/subsidiaries/gulf-south-pipeline-company-lp/default.aspx", "PIPECO": "GULF SOUTH PIPELINE COMPANY L.P.", "COMPID": "11", "OPERATOR": "GULF SOUTH PIPELINE COMPANY L.P.", "POSREL": "WITHIN 40 FEET", "NUM_UNITS": 2, "CERT_HP": 15000, "PLANT_COST": 16671860, "EXP_FUEL": 1152255, "EXP_OTHER": 416088, "GAS_COMPRE": 536296, "OP_COMP_HR": 9250, "OP_NUM_COM": 2, "OP_DATE_PE": "Sun, 27 Dec 2020 00:00:00 GMT", "EXP_POWER": 0, "ELEC_COMPR": 0 }, "geometry": { "type": "Point", "coordinates": [ -92.261989812, 31.875689472 ] } },
{ "type": "Feature", "properties": { "OBJECTID": 582, "GCOMPID": "GCOMP292", "NAME": "MARKSVILLE", "ADDRESS": "195 UNITED GAS LANE", "CITY": "PINEVILLE", "STATE": "LA", "ZIP": "71360", "ZIP4": "1109", "TYPE": "NATURAL GAS COMPRESSOR STATION", "STATUS": "IN SERVICE", "COUNTY": "RAPIDES PARISH", "COUNTYFIPS": "22009", "COUNTRY": "USA", "LATITUDE": 31.163281182, "LONGITUDE": -92.201220506, "NAICS_CODE": "486210", "NAICS_DESC": "BOOSTER PUMPING STATION, NATURAL GAS TRANSPORTATION", "SOURCE": "EPA ENVIROFACTS, FERC FORM 2, CORPORATE WEBSITE", "SOURCEDATE": "Wed, 15 Jul 2020 00:00:00 GMT", "VAL_METHOD": "IMAGERY/OTHER", "VAL_DATE": "Fri, 17 Jun 2022 00:00:00 GMT", "WEBSITE": "https://www.gulfsouthpl.com/about-us/subsidiaries/gulf-south-pipeline-company-lp/default.aspx", "PIPECO": "GULF SOUTH PIPELINE COMPANY L.P.", "COMPID": "11", "OPERATOR": "GULF SOUTH PIPELINE COMPANY L.P.", "POSREL": "WITHIN 40 FEET", "NUM_UNITS": 4, "CERT_HP": 13200, "PLANT_COST": 10516121, "EXP_FUEL": 1285042, "EXP_OTHER": 841004, "GAS_COMPRE": 636291, "OP_COMP_HR": 26259, "OP_NUM_COM": 4, "OP_DATE_PE": "Wed, 03 Jun 2020 00:00:00 GMT", "EXP_POWER": 0, "ELEC_COMPR": 0 }, "geometry": { "type": "Point", "coordinates": [ -92.201220506, 31.163281182000102 ] } },
{ "type": "Feature", "properties": { "OBJECTID": 672, "GCOMPID": "GCOMP373", "NAME": "GOODRICH #2", "ADDRESS": "228 EAST FM ROAD 1988", "CITY": "GOODRICH", "STATE": "TX", "ZIP": "77335", "ZIP4": "NOT AVAILABLE", "TYPE": "NATURAL GAS COMPRESSOR STATION", "STATUS": "IN SERVICE", "COUNTY": "POLK", "COUNTYFIPS": "48373", "COUNTRY": "USA", "LATITUDE": 30.608471568, "LONGITUDE": -94.938501364000004, "NAICS_CODE": "486210", "NAICS_DESC": "BOOSTER PUMPING STATION, NATURAL GAS TRANSPORTATION", "SOURCE": "EPA ENVIROFACTS, FERC FORM 2, CORPORATE WEBSITE", "SOURCEDATE": "Wed, 15 Jul 2020 00:00:00 GMT", "VAL_METHOD": "IMAGERY/OTHER", "VAL_DATE": "Fri, 17 Jun 2022 00:00:00 GMT", "WEBSITE": "https://www.gulfsouthpl.com/about-us/subsidiaries/gulf-south-pipeline-company-lp/default.aspx", "PIPECO": "GULF SOUTH PIPELINE COMPANY L.P.", "COMPID": "11", "OPERATOR": "GULF SOUTH PIPELINE COMPANY L.P.", "POSREL": "WITHIN 40 FEET", "NUM_UNITS": 7, "CERT_HP": 22109, "PLANT_COST": 64681500, "EXP_FUEL": 951291, "EXP_OTHER": 1111337, "GAS_COMPRE": 401646, "OP_COMP_HR": 12469, "OP_NUM_COM": 6, "OP_DATE_PE": "Fri, 28 Feb 2020 00:00:00 GMT", "EXP_POWER": 0, "ELEC_COMPR": 0 }, "geometry": { "type": "Point", "coordinates": [ -94.938501364, 30.608471568 ] } },
{ "type": "Feature", "properties": { "OBJECTID": 747, "GCOMPID": "GCOMP440", "NAME": "LONGVIEW #2", "ADDRESS": "2728 S GREEN", "CITY": "LONGVIEW", "STATE": "TX", "ZIP": "75602", "ZIP4": "NOT AVAILABLE", "TYPE": "NATURAL GAS COMPRESSOR STATION", "STATUS": "IN SERVICE", "COUNTY": "GREGG", "COUNTYFIPS": "48183", "COUNTRY": "USA", "LATITUDE": 32.456546163000041, "LONGITUDE": -94.726005371999975, "NAICS_CODE": "486210", "NAICS_DESC": "BOOSTER PUMPING STATION, NATURAL GAS TRANSPORTATION", "SOURCE": "EPA ENVIROFACTS, FERC FORM 2, CORPORATE WEBSITE", "SOURCEDATE": "Wed, 15 Jul 2020 00:00:00 GMT", "VAL_METHOD": "IMAGERY/OTHER", "VAL_DATE": "Fri, 17 Jun 2022 00:00:00 GMT", "WEBSITE": "https://www.gulfsouthpl.com/about-us/subsidiaries/gulf-south-pipeline-company-lp/default.aspx", "PIPECO": "GULF SOUTH PIPELINE COMPANY L.P.", "COMPID": "11", "OPERATOR": "GULF SOUTH PIPELINE COMPANY L.P.", "POSREL": "WITHIN 40 FEET", "NUM_UNITS": 5, "CERT_HP": 37300, "PLANT_COST": 210518724, "EXP_FUEL": 2509688, "EXP_OTHER": 0, "GAS_COMPRE": 1195819, "OP_COMP_HR": 14380, "OP_NUM_COM": 0, "OP_DATE_PE": "Mon, 01 Jan 2001 00:00:00 GMT", "EXP_POWER": 0, "ELEC_COMPR": 0 }, "geometry": { "type": "Point", "coordinates": [ -94.726005372, 32.456546163 ] } },
{ "type": "Feature", "properties": { "OBJECTID": 748, "GCOMPID": "GCOMP441", "NAME": "LONGVIEW #1", "ADDRESS": "2728 S GREEN", "CITY": "LONGVIEW", "STATE": "TX", "ZIP": "75602", "ZIP4": "NOT AVAILABLE", "TYPE": "NATURAL GAS COMPRESSOR STATION", "STATUS": "IN SERVICE", "COUNTY": "GREGG", "COUNTYFIPS": "48183", "COUNTRY": "USA", "LATITUDE": 32.456622627000101, "LONGITUDE": -94.726014547999966, "NAICS_CODE": "486210", "NAICS_DESC": "BOOSTER PUMPING STATION, NATURAL GAS TRANSPORTATION", "SOURCE": "EPA ENVIROFACTS, FERC FORM 2, CORPORATE WEBSITE", "SOURCEDATE": "Wed, 15 Jul 2020 00:00:00 GMT", "VAL_METHOD": "IMAGERY/OTHER", "VAL_DATE": "Fri, 17 Jun 2022 00:00:00 GMT", "WEBSITE": "https://www.gulfsouthpl.com/about-us/subsidiaries/gulf-south-pipeline-company-lp/default.aspx", "PIPECO": "GULF SOUTH PIPELINE COMPANY L.P.", "COMPID": "11", "OPERATOR": "GULF SOUTH PIPELINE COMPANY L.P.", "POSREL": "WITHIN 40 FEET", "NUM_UNITS": 4, "CERT_HP": 45400, "PLANT_COST": 127350667, "EXP_FUEL": 1802108, "EXP_OTHER": 0, "GAS_COMPRE": 778108, "OP_COMP_HR": 9046, "OP_NUM_COM": 0, "OP_DATE_PE": "Sat, 04 Jul 2020 00:00:00 GMT", "EXP_POWER": 0, "ELEC_COMPR": 0 }, "geometry": { "type": "Point", "coordinates": [ -94.726014548, 32.456622627000101 ] } },
{ "type": "Feature", "properties": { "OBJECTID": 757, "GCOMPID": "GCOMP45", "NAME": "JACKSON", "ADDRESS": "1020 NORTH FOXHALL ROAD", "CITY": "FLOWOOD", "STATE": "MS", "ZIP": "39232", "ZIP4": "2201", "TYPE": "NATURAL GAS COMPRESSOR STATION", "STATUS": "IN SERVICE", "COUNTY": "RANKIN", "COUNTYFIPS": "28121", "COUNTRY": "USA", "LATITUDE": 32.301665094999997, "LONGITUDE": -90.09292094, "NAICS_CODE": "486210", "NAICS_DESC": "BOOSTER PUMPING STATION, NATURAL GAS TRANSPORTATION", "SOURCE": "EPA ENVIROFACTS, FERC FORM 2, CORPORATE WEBSITE", "SOURCEDATE": "Wed, 15 Jul 2020 00:00:00 GMT", "VAL_METHOD": "IMAGERY/OTHER", "VAL_DATE": "Fri, 17 Jun 2022 00:00:00 GMT", "WEBSITE": "https://www.gulfsouthpl.com/about-us/subsidiaries/gulf-south-pipeline-company-lp/default.aspx", "PIPECO": "GULF SOUTH PIPELINE COMPANY L.P.", "COMPID": "11", "OPERATOR": "GULF SOUTH PIPELINE COMPANY L.P.", "POSREL": "WITHIN 40 FEET", "NUM_UNITS": 5, "CERT_HP": 37300, "PLANT_COST": 210518724, "EXP_FUEL": 2509688, "EXP_OTHER": 0, "GAS_COMPRE": 1195819, "OP_COMP_HR": 14380, "OP_NUM_COM": 0, "OP_DATE_PE": "Sun, 22 Mar 2020 00:00:00 GMT", "EXP_POWER": 0, "ELEC_COMPR": 0 }, "geometry": { "type": "Point", "coordinates": [ -90.0929209399999, 32.301665095 ] } },
{ "type": "Feature", "properties": { "OBJECTID": 783, "GCOMPID": "GCOMP473", "NAME": "CLARENCE", "ADDRESS": "2958 MAMMY TRAIL ROAD", "CITY": "GOLDONNA", "STATE": "LA", "ZIP": "71031", "ZIP4": "NOT AVAILABLE", "TYPE": "NATURAL GAS COMPRESSOR STATION", "STATUS": "IN SERVICE", "COUNTY": "NATCHITOCHES PARISH", "COUNTYFIPS": "22069", "COUNTRY": "USA", "LATITUDE": 31.898019245, "LONGITUDE": -92.9660139, "NAICS_CODE": "486210", "NAICS_DESC": "BOOSTER PUMPING STATION, NATURAL GAS TRANSPORTATION", "SOURCE": "EPA ENVIROFACTS, FERC FORM 2, CORPORATE WEBSITE", "SOURCEDATE": "Wed, 15 Jul 2020 00:00:00 GMT", "VAL_METHOD": "IMAGERY/OTHER", "VAL_DATE": "Fri, 17 Jun 2022 00:00:00 GMT", "WEBSITE": "https://www.gulfsouthpl.com/about-us/subsidiaries/gulf-south-pipeline-company-lp/default.aspx", "PIPECO": "GULF SOUTH PIPELINE COMPANY L.P.", "COMPID": "11", "OPERATOR": "GULF SOUTH PIPELINE COMPANY L.P.", "POSREL": "WITHIN 40 FEET", "NUM_UNITS": 5, "CERT_HP": 37300, "PLANT_COST": 210518724, "EXP_FUEL": 2509688, "EXP_OTHER": 0, "GAS_COMPRE": 1195819, "OP_COMP_HR": 14380, "OP_NUM_COM": 0, "OP_DATE_PE": "Thu, 26 Nov 2020 00:00:00 GMT", "EXP_POWER": 0, "ELEC_COMPR": 0 }, "geometry": { "type": "Point", "coordinates": [ -92.966013899999894, 31.8980192450001 ] } },
{ "type": "Feature", "properties": { "OBJECTID": 798, "GCOMPID": "GCOMP487", "NAME": "ARNAUDVILLE", "ADDRESS": "304 KOCH ROAD, 2 MILES EAST HIGHWAY 31", "CITY": "ARNAUDVILLE", "STATE": "LA", "ZIP": "70512", "ZIP4": "NOT AVAILABLE", "TYPE": "NATURAL GAS COMPRESSOR STATION", "STATUS": "IN SERVICE", "COUNTY": "SAINT LANDRY PARISH", "COUNTYFIPS": "22097", "COUNTRY": "USA", "LATITUDE": 30.414453, "LONGITUDE": -91.896835, "NAICS_CODE": "486210", "NAICS_DESC": "BOOSTER PUMPING STATION, NATURAL GAS TRANSPORTATION", "SOURCE": "FERC FORM 2, IMAGERY", "SOURCEDATE": "Wed, 15 Jul 2020 00:00:00 GMT", "VAL_METHOD": "IMAGERY/OTHER", "VAL_DATE": "Fri, 17 Jun 2022 00:00:00 GMT", "WEBSITE": "https://www.gulfsouthpl.com/about-us/subsidiaries/gulf-south-pipeline-company-lp/default.aspx", "PIPECO": "GULF SOUTH PIPELINE COMPANY L.P.", "COMPID": "11", "OPERATOR": "GULF SOUTH PIPELINE COMPANY L.P.", "POSREL": "WITHIN 40 FEET", "NUM_UNITS": 4, "CERT_HP": 45400, "PLANT_COST": 127350667, "EXP_FUEL": 1802108, "EXP_OTHER": 0, "GAS_COMPRE": 778108, "OP_COMP_HR": 9046, "OP_NUM_COM": 0, "OP_DATE_PE": "Sat, 08 Aug 2020 00:00:00 GMT", "EXP_POWER": 0, "ELEC_COMPR": 0 }, "geometry": { "type": "Point", "coordinates": [ -91.896835, 30.414453 ] } },
{ "type": "Feature", "properties": { "OBJECTID": 832, "GCOMPID": "GCOMP517", "NAME": "WHISTLER JCT.", "ADDRESS": "3350 SUNCREST ROAD-EIGHT MILE BR", "CITY": "MOBILE", "STATE": "AL", "ZIP": "36613", "ZIP4": "NOT AVAILABLE", "TYPE": "NATURAL GAS COMPRESSOR STATION", "STATUS": "IN SERVICE", "COUNTY": "MOBILE", "COUNTYFIPS": "01097", "COUNTRY": "USA", "LATITUDE": 30.758979, "LONGITUDE": -88.153686, "NAICS_CODE": "486210", "NAICS_DESC": "BOOSTER PUMPING STATION, NATURAL GAS TRANSPORTATION", "SOURCE": "EPA ENVIROFACTS, FERC FORM 2, CORPORATE WEBSITE", "SOURCEDATE": "Wed, 15 Jul 2020 00:00:00 GMT", "VAL_METHOD": "IMAGERY/OTHER", "VAL_DATE": "Fri, 17 Jun 2022 00:00:00 GMT", "WEBSITE": "https://www.gulfsouthpl.com/about-us/subsidiaries/gulf-south-pipeline-company-lp/default.aspx", "PIPECO": "GULF SOUTH PIPELINE COMPANY L.P.", "COMPID": "11", "OPERATOR": "GULF SOUTH PIPELINE COMPANY L.P.", "POSREL": "WITHIN 40 FEET", "NUM_UNITS": 4, "CERT_HP": 45400, "PLANT_COST": 127350667, "EXP_FUEL": 1802108, "EXP_OTHER": 0, "GAS_COMPRE": 778108, "OP_COMP_HR": 9046, "OP_NUM_COM": 0, "OP_DATE_PE": "Mon, 01 Jan 2001 00:00:00 GMT", "EXP_POWER": 0, "ELEC_COMPR": 0 }, "geometry": { "type": "Point", "coordinates": [ -88.153740305568888, 30.758975147587471 ] } },
{ "type": "Feature", "properties": { "OBJECTID": 869, "GCOMPID": "GCOMP550", "NAME": "MCCOMB", "ADDRESS": "37 ALEXANDER ROAD", "CITY": "JAYESS", "STATE": "MS", "ZIP": "39641", "ZIP4": "8255", "TYPE": "NATURAL GAS COMPRESSOR STATION", "STATUS": "IN SERVICE", "COUNTY": "LAWRENCE", "COUNTYFIPS": "28077", "COUNTRY": "USA", "LATITUDE": 31.331735509000001, "LONGITUDE": -90.219366456000003, "NAICS_CODE": "486210", "NAICS_DESC": "BOOSTER PUMPING STATION, NATURAL GAS TRANSPORTATION", "SOURCE": "EPA ENVIROFACTS, FERC FORM 2, CORPORATE WEBSITE", "SOURCEDATE": "Wed, 15 Jul 2020 00:00:00 GMT", "VAL_METHOD": "IMAGERY/OTHER", "VAL_DATE": "Fri, 17 Jun 2022 00:00:00 GMT", "WEBSITE": "https://www.gulfsouthpl.com/about-us/subsidiaries/gulf-south-pipeline-company-lp/default.aspx", "PIPECO": "GULF SOUTH PIPELINE COMPANY L.P.", "COMPID": "11", "OPERATOR": "GULF SOUTH PIPELINE COMPANY L.P.", "POSREL": "WITHIN 40 FEET", "NUM_UNITS": 5, "CERT_HP": 37300, "PLANT_COST": 210518724, "EXP_FUEL": 2509688, "EXP_OTHER": 0, "GAS_COMPRE": 1195819, "OP_COMP_HR": 14380, "OP_NUM_COM": 0, "OP_DATE_PE": "Thu, 10 Sep 2020 00:00:00 GMT", "EXP_POWER": 0, "ELEC_COMPR": 0 }, "geometry": { "type": "Point", "coordinates": [ -90.219366456, 31.331735509 ] } },
{ "type": "Feature", "properties": { "OBJECTID": 909, "GCOMPID": "GCOMP588", "NAME": "HALL SUMMIT", "ADDRESS": "407 HIGHWAY 371", "CITY": "RINGGOLD", "STATE": "LA", "ZIP": "71068", "ZIP4": "7209", "TYPE": "NATURAL GAS COMPRESSOR STATION", "STATUS": "IN SERVICE", "COUNTY": "BIENVILLE PARISH", "COUNTYFIPS": "22013", "COUNTRY": "USA", "LATITUDE": 32.247143133999998, "LONGITUDE": -93.282970832999993, "NAICS_CODE": "486210", "NAICS_DESC": "BOOSTER PUMPING STATION, NATURAL GAS TRANSPORTATION", "SOURCE": "EPA ENVIROFACTS, FERC FORM 2, CORPORATE WEBSITE", "SOURCEDATE": "Wed, 15 Jul 2020 00:00:00 GMT", "VAL_METHOD": "IMAGERY/OTHER", "VAL_DATE": "Fri, 17 Jun 2022 00:00:00 GMT", "WEBSITE": "https://www.gulfsouthpl.com/about-us/subsidiaries/gulf-south-pipeline-company-lp/default.aspx", "PIPECO": "GULF SOUTH PIPELINE COMPANY L.P.", "COMPID": "11", "OPERATOR": "GULF SOUTH PIPELINE COMPANY L.P.", "POSREL": "WITHIN 40 FEET", "NUM_UNITS": 1, "CERT_HP": 8180, "PLANT_COST": 24504779, "EXP_FUEL": 123977, "EXP_OTHER": 166568, "GAS_COMPRE": 65472, "OP_COMP_HR": 1239, "OP_NUM_COM": 1, "OP_DATE_PE": "Thu, 09 Jul 2020 00:00:00 GMT", "EXP_POWER": 0, "ELEC_COMPR": 0 }, "geometry": { "type": "Point", "coordinates": [ -93.282971249247225, 32.247273166048302 ] } },
{ "type": "Feature", "properties": { "OBJECTID": 919, "GCOMPID": "GCOMP598", "NAME": "KORAN #2", "ADDRESS": "4135 CAMP JOY ROAD", "CITY": "HAUGHTON", "STATE": "LA", "ZIP": "71037", "ZIP4": "NOT AVAILABLE", "TYPE": "NATURAL GAS COMPRESSOR STATION", "STATUS": "IN SERVICE", "COUNTY": "BOSSIER PARISH", "COUNTYFIPS": "22015", "COUNTRY": "USA", "LATITUDE": 32.417211668999997, "LONGITUDE": -93.442255379000002, "NAICS_CODE": "486210", "NAICS_DESC": "BOOSTER PUMPING STATION, NATURAL GAS TRANSPORTATION", "SOURCE": "EPA ENVIROFACTS, FERC FORM 2, CORPORATE WEBSITE", "SOURCEDATE": "Wed, 15 Jul 2020 00:00:00 GMT", "VAL_METHOD": "IMAGERY/OTHER", "VAL_DATE": "Fri, 17 Jun 2022 00:00:00 GMT", "WEBSITE": "https://www.gulfsouthpl.com/about-us/subsidiaries/gulf-south-pipeline-company-lp/default.aspx", "PIPECO": "GULF SOUTH PIPELINE COMPANY L.P.", "COMPID": "11", "OPERATOR": "GULF SOUTH PIPELINE COMPANY L.P.", "POSREL": "WITHIN 40 FEET", "NUM_UNITS": 4, "CERT_HP": 4000, "PLANT_COST": 3351, "EXP_FUEL": 41013, "EXP_OTHER": 465075, "GAS_COMPRE": 20963, "OP_COMP_HR": 2136, "OP_NUM_COM": 1, "OP_DATE_PE": "Mon, 01 Jan 2001 00:00:00 GMT", "EXP_POWER": 0, "ELEC_COMPR": 0 }, "geometry": { "type": "Point", "coordinates": [ -93.442255379, 32.417211669 ] } },
{ "type": "Feature", "properties": { "OBJECTID": 946, "GCOMPID": "GCOMP621", "NAME": "HARRISVILLE#1 - RECIP", "ADDRESS": "444A TWIN LAKES ROAD", "CITY": "FLORENCE", "STATE": "MS", "ZIP": "39073", "ZIP4": "NOT AVAILABLE", "TYPE": "NATURAL GAS COMPRESSOR STATION", "STATUS": "IN SERVICE", "COUNTY": "RANKIN", "COUNTYFIPS": "28121", "COUNTRY": "USA", "LATITUDE": 32.029177262000076, "LONGITUDE": -90.143743736999966, "NAICS_CODE": "486210", "NAICS_DESC": "BOOSTER PUMPING STATION, NATURAL GAS TRANSPORTATION", "SOURCE": "EPA ENVIROFACTS, FERC FORM 2, CORPORATE WEBSITE", "SOURCEDATE": "Wed, 15 Jul 2020 00:00:00 GMT", "VAL_METHOD": "IMAGERY/OTHER", "VAL_DATE": "Fri, 17 Jun 2022 00:00:00 GMT", "WEBSITE": "https://www.gulfsouthpl.com/about-us/subsidiaries/gulf-south-pipeline-company-lp/default.aspx", "PIPECO": "GULF SOUTH PIPELINE COMPANY L.P.", "COMPID": "11", "OPERATOR": "GULF SOUTH PIPELINE COMPANY L.P.", "POSREL": "WITHIN 40 FEET", "NUM_UNITS": 4, "CERT_HP": 18940, "PLANT_COST": 60099372, "EXP_FUEL": 1893986, "EXP_OTHER": 628367, "GAS_COMPRE": 894901, "OP_COMP_HR": 26967, "OP_NUM_COM": 4, "OP_DATE_PE": "Tue, 01 Sep 2020 00:00:00 GMT", "EXP_POWER": 0, "ELEC_COMPR": 0 }, "geometry": { "type": "Point", "coordinates": [ -90.143743737, 32.029177262000097 ] } },
{ "type": "Feature", "properties": { "OBJECTID": 947, "GCOMPID": "GCOMP622", "NAME": "HARRISVILLE#2 - TURBINE", "ADDRESS": "444A TWIN LAKES ROAD", "CITY": "FLORENCE", "STATE": "MS", "ZIP": "39073", "ZIP4": "NOT AVAILABLE", "TYPE": "NATURAL GAS COMPRESSOR STATION", "STATUS": "IN SERVICE", "COUNTY": "RANKIN", "COUNTYFIPS": "28121", "COUNTRY": "USA", "LATITUDE": 32.029096254000024, "LONGITUDE": -90.142508912999972, "NAICS_CODE": "486210", "NAICS_DESC": "BOOSTER PUMPING STATION, NATURAL GAS TRANSPORTATION", "SOURCE": "EPA ENVIROFACTS, FERC FORM 2, CORPORATE WEBSITE", "SOURCEDATE": "Wed, 15 Jul 2020 00:00:00 GMT", "VAL_METHOD": "IMAGERY/OTHER", "VAL_DATE": "Fri, 17 Jun 2022 00:00:00 GMT", "WEBSITE": "https://www.gulfsouthpl.com/about-us/subsidiaries/gulf-south-pipeline-company-lp/default.aspx", "PIPECO": "GULF SOUTH PIPELINE COMPANY L.P.", "COMPID": "11", "OPERATOR": "GULF SOUTH PIPELINE COMPANY L.P.", "POSREL": "WITHIN 40 FEET", "NUM_UNITS": 2, "CERT_HP": 26660, "PLANT_COST": 46308913, "EXP_FUEL": 3872644, "EXP_OTHER": 5772822, "GAS_COMPRE": 1822787, "OP_COMP_HR": 16409, "OP_NUM_COM": 2, "OP_DATE_PE": "Sun, 29 Nov 2020 00:00:00 GMT", "EXP_POWER": 0, "ELEC_COMPR": 0 }, "geometry": { "type": "Point", "coordinates": [ -90.142508913, 32.029096254 ] } },
{ "type": "Feature", "properties": { "OBJECTID": 973, "GCOMPID": "GCOMP646", "NAME": "MONTPELIER", "ADDRESS": "477 HIGHWAY 441", "CITY": "MONTPELIER", "STATE": "LA", "ZIP": "70422", "ZIP4": "NOT AVAILABLE", "TYPE": "NATURAL GAS COMPRESSOR STATION", "STATUS": "IN SERVICE", "COUNTY": "SAINT HELENA PARISH", "COUNTYFIPS": "22091", "COUNTRY": "USA", "LATITUDE": 30.655202252, "LONGITUDE": -90.662612054999997, "NAICS_CODE": "486210", "NAICS_DESC": "BOOSTER PUMPING STATION, NATURAL GAS TRANSPORTATION", "SOURCE": "FERC FORM 2, IMAGERY", "SOURCEDATE": "Wed, 15 Jul 2020 00:00:00 GMT", "VAL_METHOD": "IMAGERY/OTHER", "VAL_DATE": "Fri, 17 Jun 2022 00:00:00 GMT", "WEBSITE": "https://www.gulfsouthpl.com/about-us/subsidiaries/gulf-south-pipeline-company-lp/default.aspx", "PIPECO": "GULF SOUTH PIPELINE COMPANY L.P.", "COMPID": "11", "OPERATOR": "GULF SOUTH PIPELINE COMPANY L.P.", "POSREL": "WITHIN 40 FEET", "NUM_UNITS": 8, "CERT_HP": 12500, "PLANT_COST": 13490819, "EXP_FUEL": 2829, "EXP_OTHER": 644048, "GAS_COMPRE": 1550, "OP_COMP_HR": 103, "OP_NUM_COM": 1, "OP_DATE_PE": "Wed, 20 May 2020 00:00:00 GMT", "EXP_POWER": 0, "ELEC_COMPR": 0 }, "geometry": { "type": "Point", "coordinates": [ -90.662612054999897, 30.655202252 ] } },
{ "type": "Feature", "properties": { "OBJECTID": 1074, "GCOMPID": "GCOMP737", "NAME": "CARTHAGE #2", "ADDRESS": "606 S. SHELBY", "CITY": "CARTHAGE", "STATE": "TX", "ZIP": "75633", "ZIP4": "3026", "TYPE": "NATURAL GAS COMPRESSOR STATION", "STATUS": "IN SERVICE", "COUNTY": "PANOLA", "COUNTYFIPS": "48365", "COUNTRY": "USA", "LATITUDE": 32.138437, "LONGITUDE": -94.334898, "NAICS_CODE": "486210", "NAICS_DESC": "BOOSTER PUMPING STATION, NATURAL GAS TRANSPORTATION", "SOURCE": "FERC FORM 2, IMAGERY", "SOURCEDATE": "Wed, 15 Jul 2020 00:00:00 GMT", "VAL_METHOD": "IMAGERY/OTHER", "VAL_DATE": "Fri, 17 Jun 2022 00:00:00 GMT", "WEBSITE": "https://www.gulfsouthpl.com/about-us/subsidiaries/gulf-south-pipeline-company-lp/default.aspx", "PIPECO": "GULF SOUTH PIPELINE COMPANY L.P.", "COMPID": "11", "OPERATOR": "GULF SOUTH PIPELINE COMPANY L.P.", "POSREL": "WITHIN 40 FEET", "NUM_UNITS": 3, "CERT_HP": 35603, "PLANT_COST": 58995939, "EXP_FUEL": 2736084, "EXP_OTHER": 496967, "GAS_COMPRE": 1311626, "OP_COMP_HR": 16336, "OP_NUM_COM": 2, "OP_DATE_PE": "Fri, 24 Jan 2020 00:00:00 GMT", "EXP_POWER": 0, "ELEC_COMPR": 0 }, "geometry": { "type": "Point", "coordinates": [ -94.334898, 32.138437000000103 ] } },
{ "type": "Feature", "properties": { "OBJECTID": 1143, "GCOMPID": "GCOMP8", "NAME": "COCODRIE", "ADDRESS": ".86 MILES SW OF COCODRIE", "CITY": "COCODRIE", "STATE": "LA", "ZIP": "70344", "ZIP4": "NOT AVAILABLE", "TYPE": "NATURAL GAS COMPRESSOR STATION", "STATUS": "IN SERVICE", "COUNTY": "TERREBONNE PARISH", "COUNTYFIPS": "22109", "COUNTRY": "USA", "LATITUDE": 29.236547, "LONGITUDE": -90.668458, "NAICS_CODE": "486210", "NAICS_DESC": "BOOSTER PUMPING STATION, NATURAL GAS TRANSPORTATION", "SOURCE": "FERC FORM 2, IMAGERY", "SOURCEDATE": "Wed, 15 Jul 2020 00:00:00 GMT", "VAL_METHOD": "IMAGERY/OTHER", "VAL_DATE": "Fri, 17 Jun 2022 00:00:00 GMT", "WEBSITE": "https://www.gulfsouthpl.com/about-us/subsidiaries/gulf-south-pipeline-company-lp/default.aspx", "PIPECO": "GULF SOUTH PIPELINE COMPANY L.P.", "COMPID": "11", "OPERATOR": "GULF SOUTH PIPELINE COMPANY L.P.", "POSREL": "WITHIN 40 FEET", "NUM_UNITS": 1, "CERT_HP": 3594, "PLANT_COST": 1163456, "EXP_FUEL": 0, "EXP_OTHER": 0, "GAS_COMPRE": 0, "OP_COMP_HR": 0, "OP_NUM_COM": 0, "OP_DATE_PE": "Mon, 01 Jan 2001 00:00:00 GMT", "EXP_POWER": 0, "ELEC_COMPR": 0 }, "geometry": { "type": "Point", "coordinates": [ -90.668458, 29.236547 ] } },
{ "type": "Feature", "properties": { "OBJECTID": 1213, "GCOMPID": "GCOMP862", "NAME": "NAPOLEONVILLE", "ADDRESS": "808 HIGHWAY 401", "CITY": "NAPOLEONVILLE", "STATE": "LA", "ZIP": "70390", "ZIP4": "NOT AVAILABLE", "TYPE": "NATURAL GAS COMPRESSOR STATION", "STATUS": "IN SERVICE", "COUNTY": "ASSUMPTION PARISH", "COUNTYFIPS": "22007", "COUNTRY": "USA", "LATITUDE": 29.905822289, "LONGITUDE": -91.061809065000006, "NAICS_CODE": "486210", "NAICS_DESC": "BOOSTER PUMPING STATION, NATURAL GAS TRANSPORTATION", "SOURCE": "EPA ENVIROFACTS, FERC FORM 2, CORPORATE WEBSITE", "SOURCEDATE": "Wed, 15 Jul 2020 00:00:00 GMT", "VAL_METHOD": "IMAGERY/OTHER", "VAL_DATE": "Fri, 17 Jun 2022 00:00:00 GMT", "WEBSITE": "https://www.gulfsouthpl.com/about-us/subsidiaries/gulf-south-pipeline-company-lp/default.aspx", "PIPECO": "GULF SOUTH PIPELINE COMPANY L.P.", "COMPID": "11", "OPERATOR": "GULF SOUTH PIPELINE COMPANY L.P.", "POSREL": "WITHIN 40 FEET", "NUM_UNITS": 2, "CERT_HP": 2200, "PLANT_COST": 45340, "EXP_FUEL": 0, "EXP_OTHER": 1093, "GAS_COMPRE": 0, "OP_COMP_HR": 0, "OP_NUM_COM": 0, "OP_DATE_PE": "Mon, 01 Jan 2001 00:00:00 GMT", "EXP_POWER": 0, "ELEC_COMPR": 0 }, "geometry": { "type": "Point", "coordinates": [ -91.061809065, 29.905822289000099 ] } },
{ "type": "Feature", "properties": { "OBJECTID": 1223, "GCOMPID": "GCOMP871", "NAME": "MINEOLA", "ADDRESS": "824 COUNTY ROAD 2231", "CITY": "MINEOLA", "STATE": "TX", "ZIP": "75773", "ZIP4": "NOT AVAILABLE", "TYPE": "NATURAL GAS COMPRESSOR STATION", "STATUS": "IN SERVICE", "COUNTY": "WOOD", "COUNTYFIPS": "48499", "COUNTRY": "USA", "LATITUDE": 32.682299, "LONGITUDE": -95.542408, "NAICS_CODE": "486210", "NAICS_DESC": "BOOSTER PUMPING STATION, NATURAL GAS TRANSPORTATION", "SOURCE": "FERC FORM 2, CORPORATE WEBSITE", "SOURCEDATE": "Wed, 15 Jul 2020 00:00:00 GMT", "VAL_METHOD": "IMAGERY/OTHER", "VAL_DATE": "Fri, 17 Jun 2022 00:00:00 GMT", "WEBSITE": "https://www.gulfsouthpl.com/about-us/subsidiaries/gulf-south-pipeline-company-lp/default.aspx", "PIPECO": "GULF SOUTH PIPELINE COMPANY L.P.", "COMPID": "11", "OPERATOR": "GULF SOUTH PIPELINE COMPANY L.P.", "POSREL": "WITHIN 40 FEET", "NUM_UNITS": 2, "CERT_HP": 660, "PLANT_COST": 548395, "EXP_FUEL": 0, "EXP_OTHER": 0, "GAS_COMPRE": 0, "OP_COMP_HR": 0, "OP_NUM_COM": 0, "OP_DATE_PE": "Mon, 01 Jan 2001 00:00:00 GMT", "EXP_POWER": 0, "ELEC_COMPR": 0 }, "geometry": { "type": "Point", "coordinates": [ -95.542408, 32.6822990000001 ] } },
{ "type": "Feature", "properties": { "OBJECTID": 1245, "GCOMPID": "GCOMP891", "NAME": "SLIGO - 20%", "ADDRESS": "860 UNION TEXAS ROAD", "CITY": "HAUGHTON", "STATE": "LA", "ZIP": "71037", "ZIP4": "NOT AVAILABLE", "TYPE": "NATURAL GAS COMPRESSOR STATION", "STATUS": "IN SERVICE", "COUNTY": "BOSSIER PARISH", "COUNTYFIPS": "22015", "COUNTRY": "USA", "LATITUDE": 32.517108993999997, "LONGITUDE": -93.531529766000006, "NAICS_CODE": "486210", "NAICS_DESC": "BOOSTER PUMPING STATION, NATURAL GAS TRANSPORTATION", "SOURCE": "EPA ENVIROFACTS, FERC FORM 2, CORPORATE WEBSITE", "SOURCEDATE": "Wed, 15 Jul 2020 00:00:00 GMT", "VAL_METHOD": "IMAGERY/OTHER", "VAL_DATE": "Fri, 17 Jun 2022 00:00:00 GMT", "WEBSITE": "https://www.gulfsouthpl.com/about-us/subsidiaries/gulf-south-pipeline-company-lp/default.aspx", "PIPECO": "GULF SOUTH PIPELINE COMPANY L.P.", "COMPID": "11", "OPERATOR": "GULF SOUTH PIPELINE COMPANY L.P.", "POSREL": "WITHIN 40 FEET", "NUM_UNITS": 4, "CERT_HP": 2640, "PLANT_COST": 262311, "EXP_FUEL": 0, "EXP_OTHER": 0, "GAS_COMPRE": 0, "OP_COMP_HR": 0, "OP_NUM_COM": 0, "OP_DATE_PE": "Mon, 01 Jan 2001 00:00:00 GMT", "EXP_POWER": 0, "ELEC_COMPR": 0 }, "geometry": { "type": "Point", "coordinates": [ -93.531529765999906, 32.517108994000097 ] } },
{ "type": "Feature", "properties": { "OBJECTID": 1255, "GCOMPID": "GCOMP90", "NAME": "VIXEN", "ADDRESS": "115 LUCAS WYATT ROAD", "CITY": "WEST MONROE", "STATE": "LA", "ZIP": "71292", "ZIP4": "NOT AVAILABLE", "TYPE": "NATURAL GAS COMPRESSOR STATION", "STATUS": "IN SERVICE", "COUNTY": "OUACHITA PARISH", "COUNTYFIPS": "22073", "COUNTRY": "USA", "LATITUDE": 32.319655142000002, "LONGITUDE": -92.276422612000005, "NAICS_CODE": "486210", "NAICS_DESC": "BOOSTER PUMPING STATION, NATURAL GAS TRANSPORTATION", "SOURCE": "FERC FORM 2, IMAGERY", "SOURCEDATE": "Wed, 15 Jul 2020 00:00:00 GMT", "VAL_METHOD": "IMAGERY/OTHER", "VAL_DATE": "Fri, 17 Jun 2022 00:00:00 GMT", "WEBSITE": "https://www.gulfsouthpl.com/about-us/subsidiaries/gulf-south-pipeline-company-lp/default.aspx", "PIPECO": "GULF SOUTH PIPELINE COMPANY L.P.", "COMPID": "11", "OPERATOR": "GULF SOUTH PIPELINE COMPANY L.P.", "POSREL": "WITHIN 40 FEET", "NUM_UNITS": 2, "CERT_HP": 26660, "PLANT_COST": 50477533, "EXP_FUEL": 4002732, "EXP_OTHER": 3391441, "GAS_COMPRE": 1928235, "OP_COMP_HR": 17014, "OP_NUM_COM": 2, "OP_DATE_PE": "Fri, 28 Feb 2020 00:00:00 GMT", "EXP_POWER": 0, "ELEC_COMPR": 0 }, "geometry": { "type": "Point", "coordinates": [ -92.276422612, 32.319655142 ] } },
{ "type": "Feature", "properties": { "OBJECTID": 1285, "GCOMPID": "GCOMP927", "NAME": "DELHI", "ADDRESS": "ACROSS FROM 7296 HIGHWAY 17", "CITY": "DELHI", "STATE": "LA", "ZIP": "71232", "ZIP4": "NOT AVAILABLE", "TYPE": "NATURAL GAS COMPRESSOR STATION", "STATUS": "IN SERVICE", "COUNTY": "RICHLAND PARISH", "COUNTYFIPS": "22083", "COUNTRY": "USA", "LATITUDE": 32.409447, "LONGITUDE": -91.491998, "NAICS_CODE": "486210", "NAICS_DESC": "BOOSTER PUMPING STATION, NATURAL GAS TRANSPORTATION", "SOURCE": "EPA ENVIROFACTS, FERC FORM 2, CORPORATE WEBSITE", "SOURCEDATE": "Wed, 15 Jul 2020 00:00:00 GMT", "VAL_METHOD": "IMAGERY/OTHER", "VAL_DATE": "Fri, 17 Jun 2022 00:00:00 GMT", "WEBSITE": "https://www.gulfsouthpl.com/about-us/subsidiaries/gulf-south-pipeline-company-lp/default.aspx", "PIPECO": "GULF SOUTH PIPELINE COMPANY L.P.", "COMPID": "11", "OPERATOR": "GULF SOUTH PIPELINE COMPANY L.P.", "POSREL": "WITHIN 1 MILE", "NUM_UNITS": 2, "CERT_HP": 4740, "PLANT_COST": 30726556, "EXP_FUEL": 414946, "EXP_OTHER": 596722, "GAS_COMPRE": 196280, "OP_COMP_HR": 13190, "OP_NUM_COM": 2, "OP_DATE_PE": "Fri, 20 Mar 2020 00:00:00 GMT", "EXP_POWER": 0, "ELEC_COMPR": 0 }, "geometry": { "type": "Point", "coordinates": [ -91.4911964, 32.409798 ] } },
{ "type": "Feature", "properties": { "OBJECTID": 1304, "GCOMPID": "GCOMP944", "NAME": "BISTINEAU", "ADDRESS": "BP-439 (UNITED GAS ROAD)/5.8 MILES NW OF RINGGOLD", "CITY": "RINGGOLD", "STATE": "LA", "ZIP": "71068", "ZIP4": "NOT AVAILABLE", "TYPE": "NATURAL GAS COMPRESSOR STATION", "STATUS": "IN SERVICE", "COUNTY": "BIENVILLE PARISH", "COUNTYFIPS": "22013", "COUNTRY": "USA", "LATITUDE": 32.378072, "LONGITUDE": -93.359377, "NAICS_CODE": "486210", "NAICS_DESC": "BOOSTER PUMPING STATION, NATURAL GAS TRANSPORTATION", "SOURCE": "FERC FORM 2, IMAGERY", "SOURCEDATE": "Wed, 15 Jul 2020 00:00:00 GMT", "VAL_METHOD": "IMAGERY/OTHER", "VAL_DATE": "Fri, 17 Jun 2022 00:00:00 GMT", "WEBSITE": "https://www.gulfsouthpl.com/about-us/subsidiaries/gulf-south-pipeline-company-lp/default.aspx", "PIPECO": "GULF SOUTH PIPELINE COMPANY L.P.", "COMPID": "11", "OPERATOR": "GULF SOUTH PIPELINE COMPANY L.P.", "POSREL": "WITHIN 40 FEET", "NUM_UNITS": 5, "CERT_HP": 34000, "PLANT_COST": 37017749, "EXP_FUEL": 527853, "EXP_OTHER": 2812553, "GAS_COMPRE": 325836, "OP_COMP_HR": 10073, "OP_NUM_COM": 4, "OP_DATE_PE": "Fri, 24 Apr 2020 00:00:00 GMT", "EXP_POWER": 0, "ELEC_COMPR": 0 }, "geometry": { "type": "Point", "coordinates": [ -93.359376999999895, 32.378072 ] } },
{ "type": "Feature", "properties": { "OBJECTID": 1361, "GCOMPID": "GCOMP996", "NAME": "DESTIN", "ADDRESS": "COUNTY ROAD 250/COUNTY ROAD 270", "CITY": "SHUBUTA", "STATE": "MS", "ZIP": "39360", "ZIP4": "NOT AVAILABLE", "TYPE": "NATURAL GAS COMPRESSOR STATION", "STATUS": "IN SERVICE", "COUNTY": "CLARKE", "COUNTYFIPS": "28023", "COUNTRY": "USA", "LATITUDE": 31.912659777999998, "LONGITUDE": -88.793387061999994, "NAICS_CODE": "486210", "NAICS_DESC": "BOOSTER PUMPING STATION, NATURAL GAS TRANSPORTATION", "SOURCE": "FERC FORM 2, IMAGERY", "SOURCEDATE": "Wed, 15 Jul 2020 00:00:00 GMT", "VAL_METHOD": "IMAGERY/OTHER", "VAL_DATE": "Fri, 17 Jun 2022 00:00:00 GMT", "WEBSITE": "https://www.gulfsouthpl.com/about-us/subsidiaries/gulf-south-pipeline-company-lp/default.aspx", "PIPECO": "GULF SOUTH PIPELINE COMPANY L.P.", "COMPID": "11", "OPERATOR": "GULF SOUTH PIPELINE COMPANY L.P.", "POSREL": "WITHIN 40 FEET", "NUM_UNITS": 1, "CERT_HP": 3550, "PLANT_COST": 23079092, "EXP_FUEL": 9409, "EXP_OTHER": 93629, "GAS_COMPRE": 3672, "OP_COMP_HR": 210, "OP_NUM_COM": 1, "OP_DATE_PE": "Sat, 12 Sep 2020 00:00:00 GMT", "EXP_POWER": 0, "ELEC_COMPR": 0 }, "geometry": { "type": "Point", "coordinates": [ -88.793387062, 31.912659778 ] } }
]
}
