{
"type": "FeatureCollection",
"name": "P0205-compressor-stations",
"crs": { "type": "name", "properties": { "name": "urn:ogc:def:crs:EPSG::3857" } },
"features": [
{ "type": "Feature", "properties": { "OBJECTID": 396, "GCOMPID": "GCOMP1355", "NAME": "WRIGHT", "ADDRESS": "WESTFALL ROAD", "CITY": "DELANSON-WRIGHT", "STATE": "NY", "ZIP": "12053", "ZIP4": "NOT AVAILABLE", "TYPE": "NATURAL GAS COMPRESSOR STATION", "STATUS": "IN SERVICE", "COUNTY": "SCHENECTADY", "COUNTYFIPS": "36095", "COUNTRY": "USA", "LATITUDE": 42.698085, "LONGITUDE": -74.232637, "NAICS_CODE": "486210", "NAICS_DESC": "BOOSTER PUMPING STATION, NATURAL GAS TRANSPORTATION", "SOURCE": "EPA ENVIROFACTS, FERC FORM 2, CORPORATE WEBSITE", "SOURCEDATE": "Thu, 17 Sep 2015 00:00:00 GMT", "VAL_METHOD": "IMAGERY/OTHER", "VAL_DATE": "Fri, 17 Jun 2022 00:00:00 GMT", "WEBSITE": "http://www.iroquois.com/", "PIPECO": "IPOC AS AGENT/IROQUOIS GAS TRANSMISSION SYSTEM L.P.", "COMPID": "110", "OPERATOR": "IPOC AS AGENT/IROQUOIS GAS TRANSMISSION SYSTEM L.P.", "POSREL": "WITHIN 40 FEET", "NUM_UNITS": 2, "CERT_HP": 14302, "PLANT_COST": 29106869, "EXP_FUEL": 0, "EXP_OTHER": 411343, "GAS_COMPRE": 245661, "OP_COMP_HR": 4149, "OP_NUM_COM": 2, "OP_DATE_PE": "Wed, 30 Dec 2020 00:00:00 GMT", "EXP_POWER": 0, "ELEC_COMPR": 425680 }, "geometry": { "type": "Point", "coordinates": [ -8263539.351081909611821, 5266129.631356350146234 ] } },
{ "type": "Feature", "properties": { "OBJECTID": 555, "GCOMPID": "GCOMP268", "NAME": "DOVER", "ADDRESS": "186 DOVER FURNACE ROAD", "CITY": "DOVER", "STATE": "NY", "ZIP": "12522", "ZIP4": "NOT AVAILABLE", "TYPE": "NATURAL GAS COMPRESSOR STATION", "STATUS": "IN SERVICE", "COUNTY": "DUTCHESS", "COUNTYFIPS": "36027", "COUNTRY": "USA", "LATITUDE": 41.687184035999998, "LONGITUDE": -73.586746851000001, "NAICS_CODE": "486210", "NAICS_DESC": "BOOSTER PUMPING STATION, NATURAL GAS TRANSPORTATION", "SOURCE": "EPA ENVIROFACTS, FERC FORM 2, CORPORATE WEBSITE", "SOURCEDATE": "Wed, 15 Jul 2020 00:00:00 GMT", "VAL_METHOD": "IMAGERY/OTHER", "VAL_DATE": "Fri, 17 Jun 2022 00:00:00 GMT", "WEBSITE": "http://www.iroquois.com/", "PIPECO": "IPOC AS AGENT/IROQUOIS GAS TRANSMISSION SYSTEM L.P.", "COMPID": "110", "OPERATOR": "IPOC AS AGENT/IROQUOIS GAS TRANSMISSION SYSTEM L.P.", "POSREL": "WITHIN 40 FEET", "NUM_UNITS": 1, "CERT_HP": 18371, "PLANT_COST": 35651507, "EXP_FUEL": 0, "EXP_OTHER": 345196, "GAS_COMPRE": 242106, "OP_COMP_HR": 1686, "OP_NUM_COM": 1, "OP_DATE_PE": "Thu, 09 Jan 2020 00:00:00 GMT", "EXP_POWER": 0, "ELEC_COMPR": 569287 }, "geometry": { "type": "Point", "coordinates": [ -8191639.188586849719286, 5114235.697846179828048 ] } },
{ "type": "Feature", "properties": { "OBJECTID": 830, "GCOMPID": "GCOMP515", "NAME": "BOONVILLE", "ADDRESS": "3338 EAST ROAD", "CITY": "BOONVILLE", "STATE": "NY", "ZIP": "13309", "ZIP4": "NOT AVAILABLE", "TYPE": "NATURAL GAS COMPRESSOR STATION", "STATUS": "IN SERVICE", "COUNTY": "ONEIDA", "COUNTYFIPS": "36065", "COUNTRY": "USA", "LATITUDE": 43.512545072999998, "LONGITUDE": -75.329203769000003, "NAICS_CODE": "486210", "NAICS_DESC": "BOOSTER PUMPING STATION, NATURAL GAS TRANSPORTATION", "SOURCE": "FERC FORM 2, IMAGERY", "SOURCEDATE": "Wed, 15 Jul 2020 00:00:00 GMT", "VAL_METHOD": "IMAGERY/OTHER", "VAL_DATE": "Fri, 17 Jun 2022 00:00:00 GMT", "WEBSITE": "http://www.iroquois.com/", "PIPECO": "IPOC AS AGENT/IROQUOIS GAS TRANSMISSION SYSTEM L.P.", "COMPID": "110", "OPERATOR": "IPOC AS AGENT/IROQUOIS GAS TRANSMISSION SYSTEM L.P.", "POSREL": "WITHIN 40 FEET", "NUM_UNITS": 1, "CERT_HP": 18371, "PLANT_COST": 26524451, "EXP_FUEL": 0, "EXP_OTHER": 262827, "GAS_COMPRE": 127613, "OP_COMP_HR": 883, "OP_NUM_COM": 1, "OP_DATE_PE": "Tue, 07 Jan 2020 00:00:00 GMT", "EXP_POWER": 0, "ELEC_COMPR": 604560 }, "geometry": { "type": "Point", "coordinates": [ -8385608.605427820235491, 5390314.700995289720595 ] } },
{ "type": "Feature", "properties": { "OBJECTID": 1137, "GCOMPID": "GCOMP794", "NAME": "BROOKFIELD", "ADDRESS": "68 HIGH MEADOW ROAD", "CITY": "BROOKFIELD", "STATE": "CT", "ZIP": "06804", "ZIP4": "NOT AVAILABLE", "TYPE": "NATURAL GAS COMPRESSOR STATION", "STATUS": "IN SERVICE", "COUNTY": "FAIRFIELD", "COUNTYFIPS": "09001", "COUNTRY": "USA", "LATITUDE": 41.433573084000002, "LONGITUDE": -73.373388110999997, "NAICS_CODE": "486210", "NAICS_DESC": "BOOSTER PUMPING STATION, NATURAL GAS TRANSPORTATION", "SOURCE": "EPA ENVIROFACTS, FERC FORM 2, CORPORATE WEBSITE", "SOURCEDATE": "Wed, 15 Jul 2020 00:00:00 GMT", "VAL_METHOD": "IMAGERY/OTHER", "VAL_DATE": "Fri, 17 Jun 2022 00:00:00 GMT", "WEBSITE": "http://www.iroquois.com/", "PIPECO": "IPOC AS AGENT/IROQUOIS GAS TRANSMISSION SYSTEM L.P.", "COMPID": "110", "OPERATOR": "IPOC AS AGENT/IROQUOIS GAS TRANSMISSION SYSTEM L.P.", "POSREL": "WITHIN 40 FEET", "NUM_UNITS": 2, "CERT_HP": 18010, "PLANT_COST": 55458341, "EXP_FUEL": 0, "EXP_OTHER": 428916, "GAS_COMPRE": 1019224, "OP_COMP_HR": 15093, "OP_NUM_COM": 2, "OP_DATE_PE": "Sat, 28 Mar 2020 00:00:00 GMT", "EXP_POWER": 0, "ELEC_COMPR": 912384 }, "geometry": { "type": "Point", "coordinates": [ -8167888.202293749898672, 5076505.479386949911714 ] } },
{ "type": "Feature", "properties": { "OBJECTID": 1175, "GCOMPID": "GCOMP828", "NAME": "CROGHAN", "ADDRESS": "7267 OLD STATE ROAD", "CITY": "CROGHAN", "STATE": "NY", "ZIP": "13327", "ZIP4": "NOT AVAILABLE", "TYPE": "NATURAL GAS COMPRESSOR STATION", "STATUS": "IN SERVICE", "COUNTY": "LEWIS", "COUNTYFIPS": "36049", "COUNTRY": "USA", "LATITUDE": 43.935209, "LONGITUDE": -75.35818, "NAICS_CODE": "486210", "NAICS_DESC": "BOOSTER PUMPING STATION, NATURAL GAS TRANSPORTATION", "SOURCE": "EPA ENVIROFACTS, FERC FORM 2, CORPORATE WEBSITE", "SOURCEDATE": "Wed, 15 Jul 2020 00:00:00 GMT", "VAL_METHOD": "IMAGERY/OTHER", "VAL_DATE": "Fri, 17 Jun 2022 00:00:00 GMT", "WEBSITE": "http://www.iroquois.com/", "PIPECO": "IPOC AS AGENT/IROQUOIS GAS TRANSMISSION SYSTEM L.P.", "COMPID": "110", "OPERATOR": "IPOC AS AGENT/IROQUOIS GAS TRANSMISSION SYSTEM L.P.", "POSREL": "WITHIN 40 FEET", "NUM_UNITS": 2, "CERT_HP": 17180, "PLANT_COST": 30296267, "EXP_FUEL": 0, "EXP_OTHER": 308919, "GAS_COMPRE": 158797, "OP_COMP_HR": 1768, "OP_NUM_COM": 2, "OP_DATE_PE": "Mon, 20 Jan 2020 00:00:00 GMT", "EXP_POWER": 0, "ELEC_COMPR": 603520 }, "geometry": { "type": "Point", "coordinates": [ -8388834.22470784932375, 5455421.095321149565279 ] } },
{ "type": "Feature", "properties": { "OBJECTID": 1259, "GCOMPID": "GCOMP903", "NAME": "ATHENS", "ADDRESS": "915 SCHOHARIE TURNPIKE COUNTY ROAD 28", "CITY": "ATHENS", "STATE": "NY", "ZIP": "12015", "ZIP4": "NOT AVAILABLE", "TYPE": "NATURAL GAS COMPRESSOR STATION", "STATUS": "IN SERVICE", "COUNTY": "GREENE", "COUNTYFIPS": "36039", "COUNTRY": "USA", "LATITUDE": 42.280909399000002, "LONGITUDE": -73.847206194999998, "NAICS_CODE": "486210", "NAICS_DESC": "BOOSTER PUMPING STATION, NATURAL GAS TRANSPORTATION", "SOURCE": "FERC FORM 2, IMAGERY", "SOURCEDATE": "Wed, 15 Jul 2020 00:00:00 GMT", "VAL_METHOD": "IMAGERY/OTHER", "VAL_DATE": "Fri, 17 Jun 2022 00:00:00 GMT", "WEBSITE": "http://www.iroquois.com/", "PIPECO": "IPOC AS AGENT/IROQUOIS GAS TRANSMISSION SYSTEM L.P.", "COMPID": "110", "OPERATOR": "IPOC AS AGENT/IROQUOIS GAS TRANSMISSION SYSTEM L.P.", "POSREL": "WITHIN 40 FEET", "NUM_UNITS": 1, "CERT_HP": 10028, "PLANT_COST": 25499510, "EXP_FUEL": 0, "EXP_OTHER": 232281, "GAS_COMPRE": 178744, "OP_COMP_HR": 2362, "OP_NUM_COM": 1, "OP_DATE_PE": "Wed, 09 Dec 2020 00:00:00 GMT", "EXP_POWER": 0, "ELEC_COMPR": 283680 }, "geometry": { "type": "Point", "coordinates": [ -8220633.390133270062506, 5203151.631924539804459 ] } },
{ "type": "Feature", "properties": { "OBJECTID": 1276, "GCOMPID": "GCOMP919", "NAME": "MILFORD", "ADDRESS": "969 ORONOQUE ROAD", "CITY": "MILFORD", "STATE": "CT", "ZIP": "06460", "ZIP4": "NOT AVAILABLE", "TYPE": "NATURAL GAS COMPRESSOR STATION", "STATUS": "IN SERVICE", "COUNTY": "NEW HAVEN", "COUNTYFIPS": "09009", "COUNTRY": "USA", "LATITUDE": 41.236511696999997, "LONGITUDE": -73.098153441999997, "NAICS_CODE": "486210", "NAICS_DESC": "BOOSTER PUMPING STATION, NATURAL GAS TRANSPORTATION", "SOURCE": "FERC FORM 2, CORPORATE WEBSITE", "SOURCEDATE": "Wed, 15 Jul 2020 00:00:00 GMT", "VAL_METHOD": "IMAGERY/OTHER", "VAL_DATE": "Fri, 17 Jun 2022 00:00:00 GMT", "WEBSITE": "http://www.iroquois.com/", "PIPECO": "IPOC AS AGENT/IROQUOIS GAS TRANSMISSION SYSTEM L.P.", "COMPID": "110", "OPERATOR": "IPOC AS AGENT/IROQUOIS GAS TRANSMISSION SYSTEM L.P.", "POSREL": "WITHIN 40 FEET", "NUM_UNITS": 2, "CERT_HP": 20620, "PLANT_COST": 41679568, "EXP_FUEL": 0, "EXP_OTHER": 224067, "GAS_COMPRE": 222432, "OP_COMP_HR": 2830, "OP_NUM_COM": 2, "OP_DATE_PE": "Mon, 20 Jan 2020 00:00:00 GMT", "EXP_POWER": 0, "ELEC_COMPR": 450600 }, "geometry": { "type": "Point", "coordinates": [ -8137249.219092009589076, 5047289.925114300101995 ] } }
]
}
