{
"type": "FeatureCollection",
"name": "P0207-compressor-station",
"crs": { "type": "name", "properties": { "name": "urn:ogc:def:crs:OGC:1.3:CRS84" } },
"features": [
{ "type": "Feature", "properties": { "OBJECTID": 384, "GCOMPID": "GCOMP1344", "NAME": "MILFORD", "ADDRESS": "UT-21/SOUTH OF 5300 S", "CITY": "MILFORD", "STATE": "UT", "ZIP": "84751", "ZIP4": "NOT AVAILABLE", "TYPE": "NATURAL GAS COMPRESSOR STATION", "STATUS": "IN SERVICE", "COUNTY": "BEAVER", "COUNTYFIPS": "49001", "COUNTRY": "USA", "LATITUDE": 38.305197778, "LONGITUDE": -112.96982196099999, "NAICS_CODE": "486210", "NAICS_DESC": "BOOSTER PUMPING STATION, NATURAL GAS TRANSPORTATION", "SOURCE": "FERC FORM 2, CORPORATE WEBSITE", "SOURCEDATE": "Wed, 15 Jul 2020 00:00:00 GMT", "VAL_METHOD": "IMAGERY/OTHER", "VAL_DATE": "Fri, 17 Jun 2022 00:00:00 GMT", "WEBSITE": "https://www.kernrivergas.com/", "PIPECO": "KERN RIVER GAS TRANSMISSION COMPANY", "COMPID": "99", "OPERATOR": "SEA ROBIN PIPELINE COMPANY L.L.C.", "POSREL": "WITHIN 40 FEET", "NUM_UNITS": 1, "CERT_HP": 30000, "PLANT_COST": 62266076, "EXP_FUEL": 923207, "EXP_OTHER": 348435, "GAS_COMPRE": 445979, "OP_COMP_HR": 2972, "OP_NUM_COM": 1, "OP_DATE_PE": "Tue, 04 Feb 2020 00:00:00 GMT", "EXP_POWER": 0, "ELEC_COMPR": 972240 }, "geometry": { "type": "Point", "coordinates": [ -112.969821961000036, 38.305197778000057 ] } },
{ "type": "Feature", "properties": { "OBJECTID": 409, "GCOMPID": "GCOMP1367", "NAME": "COYOTE CREEK", "ADDRESS": "YELLOW CREEK ROAD (COUNTY ROAD 153)/WEST OF COUNTY ROAD 155 126 COMMERCE DRIVE; SE1 4SW1 4 OF SECTION 36", "CITY": "EVANSTON", "STATE": "WY", "ZIP": "82930", "ZIP4": "NOT AVAILABLE", "TYPE": "NATURAL GAS COMPRESSOR STATION", "STATUS": "IN SERVICE", "COUNTY": "UINTA", "COUNTYFIPS": "56041", "COUNTRY": "USA", "LATITUDE": 41.0611039591817, "LONGITUDE": -111.011919234744, "NAICS_CODE": "486210", "NAICS_DESC": "BOOSTER PUMPING STATION, NATURAL GAS TRANSPORTATION", "SOURCE": "FERC FORM 2, CORPORATE WEBSITE", "SOURCEDATE": "Wed, 15 Jul 2020 00:00:00 GMT", "VAL_METHOD": "IMAGERY/OTHER", "VAL_DATE": "Fri, 24 Jun 2022 00:00:00 GMT", "WEBSITE": "https://www.kernrivergas.com/", "PIPECO": "KERN RIVER GAS TRANSMISSION COMPANY", "COMPID": "99", "OPERATOR": "KERN RIVER GAS TRANSMISSION COMPANY", "POSREL": "WITHIN 40 FEET", "NUM_UNITS": 2, "CERT_HP": 31000, "PLANT_COST": 58788849, "EXP_FUEL": 2638332, "EXP_OTHER": 263478, "GAS_COMPRE": 1119137, "OP_COMP_HR": 12372, "OP_NUM_COM": 2, "OP_DATE_PE": "Wed, 05 Feb 2020 00:00:00 GMT", "EXP_POWER": 0, "ELEC_COMPR": 582800 }, "geometry": { "type": "Point", "coordinates": [ -111.01191923499988, 41.061103959000036 ] } },
{ "type": "Feature", "properties": { "OBJECTID": 429, "GCOMPID": "GCOMP154", "NAME": "ELBERTA", "ADDRESS": "13801 W 13601 S", "CITY": "ELBERTA", "STATE": "UT", "ZIP": "84626", "ZIP4": "NOT AVAILABLE", "TYPE": "NATURAL GAS COMPRESSOR STATION", "STATUS": "IN SERVICE", "COUNTY": "UTAH", "COUNTYFIPS": "49049", "COUNTRY": "USA", "LATITUDE": 39.953059207851098, "LONGITUDE": -111.986030757618, "NAICS_CODE": "486210", "NAICS_DESC": "BOOSTER PUMPING STATION, NATURAL GAS TRANSPORTATION", "SOURCE": "EPA ENVIROFACTS, FERC FORM 2, CORPORATE WEBSITE", "SOURCEDATE": "Wed, 15 Jul 2020 00:00:00 GMT", "VAL_METHOD": "IMAGERY/OTHER", "VAL_DATE": "Fri, 24 Jun 2022 00:00:00 GMT", "WEBSITE": "https://www.kernrivergas.com/", "PIPECO": "KERN RIVER GAS TRANSMISSION COMPANY", "COMPID": "99", "OPERATOR": "KERN RIVER GAS TRANSMISSION COMPANY", "POSREL": "WITHIN 40 FEET", "NUM_UNITS": 2, "CERT_HP": 31000, "PLANT_COST": 55966978, "EXP_FUEL": 3072821, "EXP_OTHER": 111726, "GAS_COMPRE": 1314471, "OP_COMP_HR": 13476, "OP_NUM_COM": 2, "OP_DATE_PE": "Tue, 07 Jan 2020 00:00:00 GMT", "EXP_POWER": 0, "ELEC_COMPR": 606800 }, "geometry": { "type": "Point", "coordinates": [ -111.986030757999714, 39.953059208000049 ] } },
{ "type": "Feature", "properties": { "OBJECTID": 432, "GCOMPID": "GCOMP157", "NAME": "PAINTER", "ADDRESS": "13908 PAINTER RESERVOIR ROAD", "CITY": "EVANSTON", "STATE": "WY", "ZIP": "82930", "ZIP4": "NOT AVAILABLE", "TYPE": "NATURAL GAS COMPRESSOR STATION", "STATUS": "IN SERVICE", "COUNTY": "UINTA", "COUNTYFIPS": "56041", "COUNTRY": "USA", "LATITUDE": 41.32709, "LONGITUDE": -110.859302, "NAICS_CODE": "486210", "NAICS_DESC": "BOOSTER PUMPING STATION, NATURAL GAS TRANSPORTATION", "SOURCE": "EPA ENVIROFACTS, FERC FORM 2, CORPORATE WEBSITE", "SOURCEDATE": "Wed, 15 Jul 2020 00:00:00 GMT", "VAL_METHOD": "IMAGERY/OTHER", "VAL_DATE": "Fri, 17 Jun 2022 00:00:00 GMT", "WEBSITE": "https://www.kernrivergas.com/", "PIPECO": "KERN RIVER GAS TRANSMISSION COMPANY", "COMPID": "99", "OPERATOR": "KERN RIVER GAS TRANSMISSION COMPANY", "POSREL": "NOTIONAL", "NUM_UNITS": 2, "CERT_HP": 11000, "PLANT_COST": 20284408, "EXP_FUEL": 620435, "EXP_OTHER": 242868, "GAS_COMPRE": 283794, "OP_COMP_HR": 10024, "OP_NUM_COM": 2, "OP_DATE_PE": "Wed, 28 Oct 2020 00:00:00 GMT", "EXP_POWER": 0, "ELEC_COMPR": 471870 }, "geometry": { "type": "Point", "coordinates": [ -110.859301999999687, 41.32709 ] } },
{ "type": "Feature", "properties": { "OBJECTID": 441, "GCOMPID": "GCOMP165", "NAME": "MUDDY CREEK", "ADDRESS": "1419 WAGON WHEEL ROAD", "CITY": "KEMMERER", "STATE": "WY", "ZIP": "83101", "ZIP4": "NOT AVAILABLE", "TYPE": "NATURAL GAS COMPRESSOR STATION", "STATUS": "IN SERVICE", "COUNTY": "LINCOLN", "COUNTYFIPS": "56023", "COUNTRY": "USA", "LATITUDE": 41.691388, "LONGITUDE": -110.36194, "NAICS_CODE": "486210", "NAICS_DESC": "BOOSTER PUMPING STATION, NATURAL GAS TRANSPORTATION", "SOURCE": "EPA ENVIROFACTS, FERC FORM 2, CORPORATE WEBSITE", "SOURCEDATE": "Wed, 15 Jul 2020 00:00:00 GMT", "VAL_METHOD": "IMAGERY/OTHER", "VAL_DATE": "Fri, 17 Jun 2022 00:00:00 GMT", "WEBSITE": "https://www.kernrivergas.com/", "PIPECO": "KERN RIVER GAS TRANSMISSION COMPANY", "COMPID": "99", "OPERATOR": "KERN RIVER GAS TRANSMISSION COMPANY", "POSREL": "WITHIN 40 FEET", "NUM_UNITS": 6, "CERT_HP": 95500, "PLANT_COST": 144477410, "EXP_FUEL": 9462146, "EXP_OTHER": 653844, "GAS_COMPRE": 4339899, "OP_COMP_HR": 43587, "OP_NUM_COM": 6, "OP_DATE_PE": "Wed, 05 Feb 2020 00:00:00 GMT", "EXP_POWER": 0, "ELEC_COMPR": 3684320 }, "geometry": { "type": "Point", "coordinates": [ -110.36194, 41.691388 ] } },
{ "type": "Feature", "properties": { "OBJECTID": 452, "GCOMPID": "GCOMP175", "NAME": "GOODSPRINGS", "ADDRESS": "1455 HIGHWAY 161; (1.5 MILE SE GOODSPRINGS, T25S, R59E, SECTION 6 AND T24S, R59E, SECTION 31)", "CITY": "JEAN", "STATE": "NV", "ZIP": "89019", "ZIP4": "NOT AVAILABLE", "TYPE": "NATURAL GAS COMPRESSOR STATION", "STATUS": "IN SERVICE", "COUNTY": "CLARK", "COUNTYFIPS": "32003", "COUNTRY": "USA", "LATITUDE": 35.809291, "LONGITUDE": -115.411696, "NAICS_CODE": "486210", "NAICS_DESC": "BOOSTER PUMPING STATION, NATURAL GAS TRANSPORTATION", "SOURCE": "EPA ENVIROFACTS, FERC FORM 2, CORPORATE WEBSITE", "SOURCEDATE": "Wed, 15 Jul 2020 00:00:00 GMT", "VAL_METHOD": "IMAGERY/OTHER", "VAL_DATE": "Fri, 17 Jun 2022 00:00:00 GMT", "WEBSITE": "https://www.kernrivergas.com/", "PIPECO": "KERN RIVER GAS TRANSMISSION COMPANY", "COMPID": "99", "OPERATOR": "KERN RIVER GAS TRANSMISSION COMPANY", "POSREL": "WITHIN 40 FEET", "NUM_UNITS": 3, "CERT_HP": 45000, "PLANT_COST": 72688298, "EXP_FUEL": 3703550, "EXP_OTHER": 24606, "GAS_COMPRE": 1717352, "OP_COMP_HR": 19005, "OP_NUM_COM": 3, "OP_DATE_PE": "Fri, 16 Oct 2020 00:00:00 GMT", "EXP_POWER": 0, "ELEC_COMPR": 625802 }, "geometry": { "type": "Point", "coordinates": [ -115.411696000000106, 35.809291 ] } },
{ "type": "Feature", "properties": { "OBJECTID": 601, "GCOMPID": "GCOMP309", "NAME": "DRY LAKE", "ADDRESS": "2.6 MILES NORTH INTERSECTION US HIGHWAY 15 AND NV ROUTE 93; (2 KM FROM GARNET, NV)", "CITY": "GARNET", "STATE": "NV", "ZIP": "89037", "ZIP4": "NOT AVAILABLE", "TYPE": "NATURAL GAS COMPRESSOR STATION", "STATUS": "IN SERVICE", "COUNTY": "CLARK", "COUNTYFIPS": "32003", "COUNTRY": "USA", "LATITUDE": 36.418892, "LONGITUDE": -114.89434, "NAICS_CODE": "486210", "NAICS_DESC": "BOOSTER PUMPING STATION, NATURAL GAS TRANSPORTATION", "SOURCE": "EPA ENVIROFACTS, FERC FORM 2, CORPORATE WEBSITE", "SOURCEDATE": "Wed, 15 Jul 2020 00:00:00 GMT", "VAL_METHOD": "IMAGERY/OTHER", "VAL_DATE": "Fri, 17 Jun 2022 00:00:00 GMT", "WEBSITE": "https://www.kernrivergas.com/", "PIPECO": "KERN RIVER GAS TRANSMISSION COMPANY", "COMPID": "99", "OPERATOR": "KERN RIVER GAS TRANSMISSION COMPANY", "POSREL": "WITHIN 40 FEET", "NUM_UNITS": 2, "CERT_HP": 31000, "PLANT_COST": 54761172, "EXP_FUEL": 2697076, "EXP_OTHER": 546244, "GAS_COMPRE": 1128844, "OP_COMP_HR": 11225, "OP_NUM_COM": 2, "OP_DATE_PE": "Tue, 04 Feb 2020 00:00:00 GMT", "EXP_POWER": 0, "ELEC_COMPR": 855826 }, "geometry": { "type": "Point", "coordinates": [ -114.894339999999602, 36.418892 ] } },
{ "type": "Feature", "properties": { "OBJECTID": 872, "GCOMPID": "GCOMP553", "NAME": "DAGGETT", "ADDRESS": "37379 COUNTY ROUTE 66", "CITY": "DAGGETT", "STATE": "CA", "ZIP": "92327", "ZIP4": "NOT AVAILABLE", "TYPE": "NATURAL GAS COMPRESSOR STATION", "STATUS": "IN SERVICE", "COUNTY": "SAN BERNARDINO", "COUNTYFIPS": "06071", "COUNTRY": "USA", "LATITUDE": 34.850950288, "LONGITUDE": -116.84990359, "NAICS_CODE": "486210", "NAICS_DESC": "BOOSTER PUMPING STATION, NATURAL GAS TRANSPORTATION", "SOURCE": "FERC FORM 2, IMAGERY", "SOURCEDATE": "Wed, 15 Jul 2020 00:00:00 GMT", "VAL_METHOD": "IMAGERY/OTHER", "VAL_DATE": "Fri, 17 Jun 2022 00:00:00 GMT", "WEBSITE": "https://www.kernrivergas.com/", "PIPECO": "KERN RIVER GAS TRANSMISSION COMPANY", "COMPID": "99", "OPERATOR": "KERN RIVER GAS TRANSMISSION COMPANY", "POSREL": "WITHIN 40 FEET", "NUM_UNITS": 1, "CERT_HP": 4000, "PLANT_COST": 24296282, "EXP_FUEL": 0, "EXP_OTHER": 15266, "GAS_COMPRE": 0, "OP_COMP_HR": 463, "OP_NUM_COM": 1, "OP_DATE_PE": "Mon, 09 Mar 2020 00:00:00 GMT", "EXP_POWER": 297365, "ELEC_COMPR": 1012076 }, "geometry": { "type": "Point", "coordinates": [ -116.849903589999897, 34.850950288000043 ] } },
{ "type": "Feature", "properties": { "OBJECTID": 1054, "GCOMPID": "GCOMP719", "NAME": "FILLMORE", "ADDRESS": "5800 SOUTH 6770 W HATTON ROAD WEST", "CITY": "MEADOW", "STATE": "UT", "ZIP": "84644", "ZIP4": "NOT AVAILABLE", "TYPE": "NATURAL GAS COMPRESSOR STATION", "STATUS": "IN SERVICE", "COUNTY": "MILLARD", "COUNTYFIPS": "49027", "COUNTRY": "USA", "LATITUDE": 38.849444, "LONGITUDE": -112.503889, "NAICS_CODE": "486210", "NAICS_DESC": "BOOSTER PUMPING STATION, NATURAL GAS TRANSPORTATION", "SOURCE": "EPA ENVIROFACTS, FERC FORM 2, CORPORATE WEBSITE", "SOURCEDATE": "Wed, 15 Jul 2020 00:00:00 GMT", "VAL_METHOD": "IMAGERY/OTHER", "VAL_DATE": "Fri, 17 Jun 2022 00:00:00 GMT", "WEBSITE": "https://www.kernrivergas.com/", "PIPECO": "KERN RIVER GAS TRANSMISSION COMPANY", "COMPID": "99", "OPERATOR": "KERN RIVER GAS TRANSMISSION COMPANY", "POSREL": "WITHIN 40 FEET", "NUM_UNITS": 2, "CERT_HP": 30000, "PLANT_COST": 52628124, "EXP_FUEL": 3358787, "EXP_OTHER": 27780, "GAS_COMPRE": 1491925, "OP_COMP_HR": 15295, "OP_NUM_COM": 2, "OP_DATE_PE": "Wed, 02 Dec 2020 00:00:00 GMT", "EXP_POWER": 0, "ELEC_COMPR": 385700 }, "geometry": { "type": "Point", "coordinates": [ -112.503889000000257, 38.849444 ] } },
{ "type": "Feature", "properties": { "OBJECTID": 1229, "GCOMPID": "GCOMP877", "NAME": "SALT LAKE CITY", "ADDRESS": "8394 W 13055; SOUTH WEST OF SALT LAKE INTERNATIONAL AIRPORT SECTION 1", "CITY": "SALT LAKE CITY", "STATE": "UT", "ZIP": "84116", "ZIP4": "NOT AVAILABLE", "TYPE": "NATURAL GAS COMPRESSOR STATION", "STATUS": "IN SERVICE", "COUNTY": "SALT LAKE", "COUNTYFIPS": "49035", "COUNTRY": "USA", "LATITUDE": 40.512187, "LONGITUDE": -112.09067, "NAICS_CODE": "486210", "NAICS_DESC": "BOOSTER PUMPING STATION, NATURAL GAS TRANSPORTATION", "SOURCE": "FERC FORM 2, EPA ENVIROFACTS, IMAGERY", "SOURCEDATE": "Wed, 15 Jul 2020 00:00:00 GMT", "VAL_METHOD": "IMAGERY/OTHER", "VAL_DATE": "Fri, 17 Jun 2022 00:00:00 GMT", "WEBSITE": "https://www.kernrivergas.com/", "PIPECO": "KERN RIVER GAS TRANSMISSION COMPANY", "COMPID": "99", "OPERATOR": "KERN RIVER GAS TRANSMISSION COMPANY", "POSREL": "WITHIN 40 FEET", "NUM_UNITS": 2, "CERT_HP": 30000, "PLANT_COST": 42589515, "EXP_FUEL": 2144631, "EXP_OTHER": 357717, "GAS_COMPRE": 993690, "OP_COMP_HR": 10192, "OP_NUM_COM": 2, "OP_DATE_PE": "Tue, 15 Dec 2020 00:00:00 GMT", "EXP_POWER": 0, "ELEC_COMPR": 489840 }, "geometry": { "type": "Point", "coordinates": [ -112.090670000000301, 40.512187 ] } },
{ "type": "Feature", "properties": { "OBJECTID": 1287, "GCOMPID": "GCOMP929", "NAME": "ANSCHUTZ", "ADDRESS": "ANSCHUTZ PLANT ROAD/WEST OF COUNTY ROAD 153; S34 T13N R121W", "CITY": "EVANSTON", "STATE": "WY", "ZIP": "82930", "ZIP4": "NOT AVAILABLE", "TYPE": "NATURAL GAS COMPRESSOR STATION", "STATUS": "IN SERVICE", "COUNTY": "UINTA", "COUNTYFIPS": "56041", "COUNTRY": "USA", "LATITUDE": 41.0635150667351, "LONGITUDE": -111.028784447199, "NAICS_CODE": "486210", "NAICS_DESC": "BOOSTER PUMPING STATION, NATURAL GAS TRANSPORTATION", "SOURCE": "FERC FORM 2, CORPORATE WEBSITE", "SOURCEDATE": "Wed, 15 Jul 2020 00:00:00 GMT", "VAL_METHOD": "IMAGERY/OTHER", "VAL_DATE": "Fri, 24 Jun 2022 00:00:00 GMT", "WEBSITE": "https://www.kernrivergas.com/", "PIPECO": "KERN RIVER GAS TRANSMISSION COMPANY", "COMPID": "99", "OPERATOR": "KERN RIVER GAS TRANSMISSION COMPANY", "POSREL": "WITHIN 40 FEET", "NUM_UNITS": 2, "CERT_HP": 720, "PLANT_COST": 4883095, "EXP_FUEL": 211, "EXP_OTHER": 56315, "GAS_COMPRE": 71, "OP_COMP_HR": 0, "OP_NUM_COM": 0, "OP_DATE_PE": null, "EXP_POWER": 0, "ELEC_COMPR": 99200 }, "geometry": { "type": "Point", "coordinates": [ -111.028784447000248, 41.063515067000019 ] } },
{ "type": "Feature", "properties": { "OBJECTID": 1296, "GCOMPID": "GCOMP937", "NAME": "VEYO", "ADDRESS": "BENCH ROAD/NE OF TOBIN WASH ROAD; SECTION 33 & 4 T39 & 40 S R17W", "CITY": "WEST OF VEYO", "STATE": "UT", "ZIP": "84782", "ZIP4": "NOT AVAILABLE", "TYPE": "NATURAL GAS COMPRESSOR STATION", "STATUS": "IN SERVICE", "COUNTY": "WASHINGTON", "COUNTYFIPS": "49053", "COUNTRY": "USA", "LATITUDE": 37.347130889, "LONGITUDE": -113.76291711899999, "NAICS_CODE": "486210", "NAICS_DESC": "BOOSTER PUMPING STATION, NATURAL GAS TRANSPORTATION", "SOURCE": "FERC FORM 2, IMAGERY", "SOURCEDATE": "Wed, 15 Jul 2020 00:00:00 GMT", "VAL_METHOD": "IMAGERY/OTHER", "VAL_DATE": "Fri, 17 Jun 2022 00:00:00 GMT", "WEBSITE": "https://www.kernrivergas.com/", "PIPECO": "KERN RIVER GAS TRANSMISSION COMPANY", "COMPID": "99", "OPERATOR": "KERN RIVER GAS TRANSMISSION COMPANY", "POSREL": "WITHIN 40 FEET", "NUM_UNITS": 3, "CERT_HP": 45000, "PLANT_COST": 65249956, "EXP_FUEL": 4777680, "EXP_OTHER": 67263, "GAS_COMPRE": 2122510, "OP_COMP_HR": 22735, "OP_NUM_COM": 3, "OP_DATE_PE": "Tue, 04 Feb 2020 00:00:00 GMT", "EXP_POWER": 0, "ELEC_COMPR": 991360 }, "geometry": { "type": "Point", "coordinates": [ -113.762917119000306, 37.347130889000063 ] } }
]
}
