{
"type": "FeatureCollection",
"name": "P0222-compressor-stations",
"crs": { "type": "name", "properties": { "name": "urn:ogc:def:crs:OGC:1.3:CRS84" } },
"features": [
{ "type": "Feature", "properties": { "OBJECTID": 9, "GCOMPID": "GCOMP1005", "NAME": "STATION 309 - MARBLE HILL", "ADDRESS": "COUNTY ROAD-324/MO-34; CORNER OF COUNTY ROAD-324 AND MO-34", "CITY": "MARBLE HILL", "STATE": "MO", "ZIP": "63764", "ZIP4": "9417", "TYPE": "NATURAL GAS COMPRESSOR STATION", "STATUS": "IN SERVICE", "COUNTY": "BOLLINGER", "COUNTYFIPS": "29017", "COUNTRY": "USA", "LATITUDE": 37.358275, "LONGITUDE": -89.874112, "NAICS_CODE": "486210", "NAICS_DESC": "BOOSTER PUMPING STATION, NATURAL GAS TRANSPORTATION", "SOURCE": "EPA ENVIROFACTS, FERC FORM 2, CORPORATE WEBSITE", "SOURCEDATE": "Wed, 15 Jul 2020 00:00:00 GMT", "VAL_METHOD": "IMAGERY/OTHER", "VAL_DATE": "Fri, 17 Jun 2022 00:00:00 GMT", "WEBSITE": "http://www.kindermorgan.com/", "PIPECO": "NATURAL GAS PIPELINE COMPANY OF AMERICA L.L.C.", "COMPID": "26", "OPERATOR": "NATURAL GAS PIPELINE COMPANY OF AMERICA L.L.C.", "POSREL": "WITHIN 40 FEET", "NUM_UNITS": 9, "CERT_HP": 29650, "PLANT_COST": 41535560, "EXP_FUEL": 0, "EXP_OTHER": 0, "GAS_COMPRE": 94702, "OP_COMP_HR": 3674, "OP_NUM_COM": 4, "OP_DATE_PE": "Sat, 17 Oct 2020 00:00:00 GMT", "EXP_POWER": 0, "ELEC_COMPR": 0 }, "geometry": { "type": "Point", "coordinates": [ -89.874112, 37.358275 ] } },
{ "type": "Feature", "properties": { "OBJECTID": 35, "GCOMPID": "GCOMP1029", "NAME": "STATION 158 - TALOGA", "ADDRESS": "E0710 ROAD/EAST OF N2210 ROAD (LOCATED 5 MILES WEST OF TALOGA THEN 4 MILES SOUTH OF LENORA) COUNTY ROAD-E0675; SECTION 6, TOWNSHIP 17N, RANGE 17W", "CITY": "TALOGA", "STATE": "OK", "ZIP": "73667", "ZIP4": "NOT AVAILABLE", "TYPE": "NATURAL GAS COMPRESSOR STATION", "STATUS": "IN SERVICE", "COUNTY": "DEWEY", "COUNTYFIPS": "40043", "COUNTRY": "USA", "LATITUDE": 35.985062, "LONGITUDE": -99.056955, "NAICS_CODE": "486210", "NAICS_DESC": "BOOSTER PUMPING STATION, NATURAL GAS TRANSPORTATION", "SOURCE": "FERC FORM 2, OKLAHOMA DEPARTMENT OF ENVIRONMENTAL QUALITY", "SOURCEDATE": "Wed, 15 Jul 2020 00:00:00 GMT", "VAL_METHOD": "IMAGERY/OTHER", "VAL_DATE": "Fri, 17 Jun 2022 00:00:00 GMT", "WEBSITE": "http://www.kindermorgan.com/", "PIPECO": "NATURAL GAS PIPELINE COMPANY OF AMERICA L.L.C.", "COMPID": "26", "OPERATOR": "NATURAL GAS PIPELINE COMPANY OF AMERICA L.L.C.", "POSREL": "WITHIN 40 FEET", "NUM_UNITS": 1, "CERT_HP": 2745, "PLANT_COST": 1265861, "EXP_FUEL": 0, "EXP_OTHER": 0, "GAS_COMPRE": 0, "OP_COMP_HR": 0, "OP_NUM_COM": 0, "OP_DATE_PE": "Mon, 01 Jan 2001 00:00:00 GMT", "EXP_POWER": 0, "ELEC_COMPR": 0 }, "geometry": { "type": "Point", "coordinates": [ -99.056955, 35.985062 ] } },
{ "type": "Feature", "properties": { "OBJECTID": 56, "GCOMPID": "GCOMP1048", "NAME": "STATION 301 - WHARTON", "ADDRESS": "FM-1161", "CITY": "WHARTON", "STATE": "TX", "ZIP": "77488", "ZIP4": "NOT AVAILABLE", "TYPE": "NATURAL GAS COMPRESSOR STATION", "STATUS": "IN SERVICE", "COUNTY": "WHARTON", "COUNTYFIPS": "48481", "COUNTRY": "USA", "LATITUDE": 29.405694, "LONGITUDE": -96.127964, "NAICS_CODE": "486210", "NAICS_DESC": "BOOSTER PUMPING STATION, NATURAL GAS TRANSPORTATION", "SOURCE": "EPA ENVIROFACTS, FERC FORM 2, CORPORATE WEBSITE", "SOURCEDATE": "Wed, 15 Jul 2020 00:00:00 GMT", "VAL_METHOD": "IMAGERY/OTHER", "VAL_DATE": "Fri, 17 Jun 2022 00:00:00 GMT", "WEBSITE": "http://www.kindermorgan.com/", "PIPECO": "NATURAL GAS PIPELINE COMPANY OF AMERICA L.L.C.", "COMPID": "26", "OPERATOR": "NATURAL GAS PIPELINE COMPANY OF AMERICA L.L.C.", "POSREL": "WITHIN 40 FEET", "NUM_UNITS": 2, "CERT_HP": 27050, "PLANT_COST": 64347728, "EXP_FUEL": 0, "EXP_OTHER": 0, "GAS_COMPRE": 572305, "OP_COMP_HR": 7788, "OP_NUM_COM": 1, "OP_DATE_PE": "Mon, 01 Jan 2001 00:00:00 GMT", "EXP_POWER": 0, "ELEC_COMPR": 0 }, "geometry": { "type": "Point", "coordinates": [ -96.127964, 29.405694 ] } },
{ "type": "Feature", "properties": { "OBJECTID": 60, "GCOMPID": "GCOMP1051", "NAME": "STATION 111 - FRITCH", "ADDRESS": "FM-687; PHILLIPS CAMP ROAD", "CITY": "FRITCH", "STATE": "TX", "ZIP": "79036", "ZIP4": "NOT AVAILABLE", "TYPE": "NATURAL GAS COMPRESSOR STATION", "STATUS": "IN SERVICE", "COUNTY": "HUTCHINSON", "COUNTYFIPS": "48233", "COUNTRY": "USA", "LATITUDE": 35.693162, "LONGITUDE": -101.536756, "NAICS_CODE": "486210", "NAICS_DESC": "BOOSTER PUMPING STATION, NATURAL GAS TRANSPORTATION", "SOURCE": "EPA ENVIROFACTS, FERC FORM 2, CORPORATE WEBSITE", "SOURCEDATE": "Wed, 15 Jul 2020 00:00:00 GMT", "VAL_METHOD": "IMAGERY/OTHER", "VAL_DATE": "Fri, 17 Jun 2022 00:00:00 GMT", "WEBSITE": "http://www.kindermorgan.com/", "PIPECO": "NATURAL GAS PIPELINE COMPANY OF AMERICA L.L.C.", "COMPID": "26", "OPERATOR": "NATURAL GAS PIPELINE COMPANY OF AMERICA L.L.C.", "POSREL": "WITHIN 40 FEET", "NUM_UNITS": 5, "CERT_HP": 9120, "PLANT_COST": 2711276, "EXP_FUEL": 0, "EXP_OTHER": 0, "GAS_COMPRE": 0, "OP_COMP_HR": 0, "OP_NUM_COM": 0, "OP_DATE_PE": "Mon, 01 Jan 2001 00:00:00 GMT", "EXP_POWER": 0, "ELEC_COMPR": 0 }, "geometry": { "type": "Point", "coordinates": [ -101.536756, 35.693162 ] } },
{ "type": "Feature", "properties": { "OBJECTID": 106, "GCOMPID": "GCOMP1094", "NAME": "STATION 102 - BALKO", "ADDRESS": "HOLLOW N 1158/HOLLOW E 0348", "CITY": "BALKO", "STATE": "OK", "ZIP": "73931", "ZIP4": "NOT AVAILABLE", "TYPE": "NATURAL GAS COMPRESSOR STATION", "STATUS": "IN SERVICE", "COUNTY": "BEAVER", "COUNTYFIPS": "40007", "COUNTRY": "USA", "LATITUDE": 36.50326238, "LONGITUDE": -100.94180692400001, "NAICS_CODE": "486210", "NAICS_DESC": "BOOSTER PUMPING STATION, NATURAL GAS TRANSPORTATION", "SOURCE": "OKLAHOMA DEPARTMENT OF ENVIRONMENTAL QUALITY; FERC FORM 2", "SOURCEDATE": "Wed, 15 Jul 2020 00:00:00 GMT", "VAL_METHOD": "IMAGERY/OTHER", "VAL_DATE": "Fri, 17 Jun 2022 00:00:00 GMT", "WEBSITE": "http://www.kindermorgan.com/", "PIPECO": "NATURAL GAS PIPELINE COMPANY OF AMERICA L.L.C.", "COMPID": "26", "OPERATOR": "NATURAL GAS PIPELINE COMPANY OF AMERICA L.L.C.", "POSREL": "WITHIN 40 FEET", "NUM_UNITS": 3, "CERT_HP": 12900, "PLANT_COST": 18734839, "EXP_FUEL": 0, "EXP_OTHER": 0, "GAS_COMPRE": 196770, "OP_COMP_HR": 5653, "OP_NUM_COM": 2, "OP_DATE_PE": "Mon, 17 Feb 2020 00:00:00 GMT", "EXP_POWER": 0, "ELEC_COMPR": 0 }, "geometry": { "type": "Point", "coordinates": [ -100.941806924, 36.50326238 ] } },
{ "type": "Feature", "properties": { "OBJECTID": 135, "GCOMPID": "GCOMP112", "NAME": "STATION 184 - SAYRE", "ADDRESS": "12128 N. 1890 ROAD", "CITY": "SAYRE", "STATE": "OK", "ZIP": "73662", "ZIP4": "NOT AVAILABLE", "TYPE": "NATURAL GAS COMPRESSOR STATION", "STATUS": "IN SERVICE", "COUNTY": "BECKHAM", "COUNTYFIPS": "40009", "COUNTRY": "USA", "LATITUDE": 35.257162063000003, "LONGITUDE": -99.609211235999993, "NAICS_CODE": "486210", "NAICS_DESC": "BOOSTER PUMPING STATION, NATURAL GAS TRANSPORTATION", "SOURCE": "EPA ENVIROFACTS, FERC FORM 2, CORPORATE WEBSITE", "SOURCEDATE": "Wed, 15 Jul 2020 00:00:00 GMT", "VAL_METHOD": "IMAGERY/OTHER", "VAL_DATE": "Fri, 17 Jun 2022 00:00:00 GMT", "WEBSITE": "http://www.kindermorgan.com/", "PIPECO": "NATURAL GAS PIPELINE COMPANY OF AMERICA L.L.C.", "COMPID": "26", "OPERATOR": "NATURAL GAS PIPELINE COMPANY OF AMERICA L.L.C.", "POSREL": "WITHIN 40 FEET", "NUM_UNITS": 8, "CERT_HP": 26185, "PLANT_COST": 30602918, "EXP_FUEL": 0, "EXP_OTHER": 0, "GAS_COMPRE": 322213, "OP_COMP_HR": 10356, "OP_NUM_COM": 5, "OP_DATE_PE": "Fri, 14 Feb 2020 00:00:00 GMT", "EXP_POWER": 0, "ELEC_COMPR": 0 }, "geometry": { "type": "Point", "coordinates": [ -99.609211236, 35.257162063000102 ] } },
{ "type": "Feature", "properties": { "OBJECTID": 155, "GCOMPID": "GCOMP1138", "NAME": "STATION 193 - KINSLEY", "ADDRESS": "L ROAD", "CITY": "KINSLEY", "STATE": "KS", "ZIP": "67547", "ZIP4": "NOT AVAILABLE", "TYPE": "NATURAL GAS COMPRESSOR STATION", "STATUS": "IN SERVICE", "COUNTY": "EDWARDS", "COUNTYFIPS": "20047", "COUNTRY": "USA", "LATITUDE": 37.928986, "LONGITUDE": -99.504193, "NAICS_CODE": "486210", "NAICS_DESC": "BOOSTER PUMPING STATION, NATURAL GAS TRANSPORTATION", "SOURCE": "EPA ENVIROFACTS, FERC FORM 2, CORPORATE WEBSITE", "SOURCEDATE": "Wed, 15 Jul 2020 00:00:00 GMT", "VAL_METHOD": "IMAGERY/OTHER", "VAL_DATE": "Fri, 17 Jun 2022 00:00:00 GMT", "WEBSITE": "http://www.kindermorgan.com/", "PIPECO": "NATURAL GAS PIPELINE COMPANY OF AMERICA L.L.C.", "COMPID": "26", "OPERATOR": "NATURAL GAS PIPELINE COMPANY OF AMERICA L.L.C.", "POSREL": "WITHIN 40 FEET", "NUM_UNITS": 1, "CERT_HP": 14500, "PLANT_COST": 10541979, "EXP_FUEL": 0, "EXP_OTHER": 0, "GAS_COMPRE": 141407, "OP_COMP_HR": 1043, "OP_NUM_COM": 1, "OP_DATE_PE": "Mon, 01 Jan 2001 00:00:00 GMT", "EXP_POWER": 0, "ELEC_COMPR": 0 }, "geometry": { "type": "Point", "coordinates": [ -99.504193, 37.928986000000101 ] } },
{ "type": "Feature", "properties": { "OBJECTID": 199, "GCOMPID": "GCOMP1178", "NAME": "STATION 159 - MOORELAND", "ADDRESS": "0.3 MILE E OF ROADS E0320 AND N2050", "CITY": "MOORELAND", "STATE": "OK", "ZIP": "73852", "ZIP4": "NOT AVAILABLE", "TYPE": "NATURAL GAS COMPRESSOR STATION", "STATUS": "IN SERVICE", "COUNTY": "WOODWARD", "COUNTYFIPS": "40153", "COUNTRY": "USA", "LATITUDE": 36.549602, "LONGITUDE": -99.348509, "NAICS_CODE": "486210", "NAICS_DESC": "BOOSTER PUMPING STATION, NATURAL GAS TRANSPORTATION", "SOURCE": "EPA ENVIROFACTS, FERC FORM 2, CORPORATE WEBSITE", "SOURCEDATE": "Wed, 15 Jul 2020 00:00:00 GMT", "VAL_METHOD": "IMAGERY/OTHER", "VAL_DATE": "Fri, 17 Jun 2022 00:00:00 GMT", "WEBSITE": "http://www.kindermorgan.com/", "PIPECO": "NATURAL GAS PIPELINE COMPANY OF AMERICA L.L.C.", "COMPID": "26", "OPERATOR": "NATURAL GAS PIPELINE COMPANY OF AMERICA L.L.C.", "POSREL": "WITHIN 40 FEET", "NUM_UNITS": 1, "CERT_HP": 3165, "PLANT_COST": 1207683, "EXP_FUEL": 0, "EXP_OTHER": 0, "GAS_COMPRE": 0, "OP_COMP_HR": 0, "OP_NUM_COM": 0, "OP_DATE_PE": "Mon, 01 Jan 2001 00:00:00 GMT", "EXP_POWER": 0, "ELEC_COMPR": 0 }, "geometry": { "type": "Point", "coordinates": [ -99.348509, 36.549602 ] } },
{ "type": "Feature", "properties": { "OBJECTID": 205, "GCOMPID": "GCOMP1183", "NAME": "STATION 167 - LOVINGTON", "ADDRESS": "NATURAL ROAD/HIGHWAY 82", "CITY": "LOVINGTON", "STATE": "NM", "ZIP": "88260", "ZIP4": "NOT AVAILABLE", "TYPE": "NATURAL GAS COMPRESSOR STATION", "STATUS": "IN SERVICE", "COUNTY": "LEA", "COUNTYFIPS": "35025", "COUNTRY": "USA", "LATITUDE": 32.912932105000003, "LONGITUDE": -103.63085232900001, "NAICS_CODE": "486210", "NAICS_DESC": "BOOSTER PUMPING STATION, NATURAL GAS TRANSPORTATION", "SOURCE": "EPA ENVIROFACTS, FERC FORM 2, CORPORATE WEBSITE", "SOURCEDATE": "Wed, 15 Jul 2020 00:00:00 GMT", "VAL_METHOD": "IMAGERY/OTHER", "VAL_DATE": "Fri, 17 Jun 2022 00:00:00 GMT", "WEBSITE": "http://www.kindermorgan.com/", "PIPECO": "NATURAL GAS PIPELINE COMPANY OF AMERICA L.L.C.", "COMPID": "26", "OPERATOR": "NATURAL GAS PIPELINE COMPANY OF AMERICA L.L.C.", "POSREL": "WITHIN 40 FEET", "NUM_UNITS": 3, "CERT_HP": 6000, "PLANT_COST": 8730395, "EXP_FUEL": 0, "EXP_OTHER": 0, "GAS_COMPRE": 189539, "OP_COMP_HR": 12648, "OP_NUM_COM": 2, "OP_DATE_PE": "Thu, 30 Apr 2020 00:00:00 GMT", "EXP_POWER": 0, "ELEC_COMPR": 0 }, "geometry": { "type": "Point", "coordinates": [ -103.630852329, 32.912932105 ] } },
{ "type": "Feature", "properties": { "OBJECTID": 246, "GCOMPID": "GCOMP122", "NAME": "STATION 103 - MINNEOLA", "ADDRESS": "12653 114TH ROAD", "CITY": "MINNEOLA", "STATE": "KS", "ZIP": "67865", "ZIP4": "NOT AVAILABLE", "TYPE": "NATURAL GAS COMPRESSOR STATION", "STATUS": "IN SERVICE", "COUNTY": "CLARK", "COUNTYFIPS": "20025", "COUNTRY": "USA", "LATITUDE": 37.522795948000002, "LONGITUDE": -99.96504826, "NAICS_CODE": "486210", "NAICS_DESC": "BOOSTER PUMPING STATION, NATURAL GAS TRANSPORTATION", "SOURCE": "EPA ENVIROFACTS, FERC FORM 2, CORPORATE WEBSITE", "SOURCEDATE": "Wed, 15 Jul 2020 00:00:00 GMT", "VAL_METHOD": "IMAGERY/OTHER", "VAL_DATE": "Fri, 17 Jun 2022 00:00:00 GMT", "WEBSITE": "http://www.kindermorgan.com/", "PIPECO": "NATURAL GAS PIPELINE COMPANY OF AMERICA L.L.C.", "COMPID": "26", "OPERATOR": "NATURAL GAS PIPELINE COMPANY OF AMERICA L.L.C.", "POSREL": "WITHIN 40 FEET", "NUM_UNITS": 5, "CERT_HP": 20111, "PLANT_COST": 25330294, "EXP_FUEL": 0, "EXP_OTHER": 0, "GAS_COMPRE": 491640, "OP_COMP_HR": 12655, "OP_NUM_COM": 3, "OP_DATE_PE": "Thu, 13 Feb 2020 00:00:00 GMT", "EXP_POWER": 0, "ELEC_COMPR": 0 }, "geometry": { "type": "Point", "coordinates": [ -99.965048259999904, 37.522795948000102 ] } },
{ "type": "Feature", "properties": { "OBJECTID": 254, "GCOMPID": "GCOMP1227", "NAME": "STATION 156 - MT. VIEW", "ADDRESS": "OK-115/E 1340 ROAD; CORNER OF E1340 ROAD AND OK-115", "CITY": "MOUNTAIN VIEW", "STATE": "OK", "ZIP": "73062", "ZIP4": "NOT AVAILABLE", "TYPE": "NATURAL GAS COMPRESSOR STATION", "STATUS": "IN SERVICE", "COUNTY": "KIOWA", "COUNTYFIPS": "40075", "COUNTRY": "USA", "LATITUDE": 35.073913056000002, "LONGITUDE": -98.727425386999997, "NAICS_CODE": "486210", "NAICS_DESC": "BOOSTER PUMPING STATION, NATURAL GAS TRANSPORTATION", "SOURCE": "EPA ENVIROFACTS, FERC FORM 2, CORPORATE WEBSITE", "SOURCEDATE": "Wed, 15 Jul 2020 00:00:00 GMT", "VAL_METHOD": "IMAGERY/OTHER", "VAL_DATE": "Fri, 17 Jun 2022 00:00:00 GMT", "WEBSITE": "http://www.kindermorgan.com/", "PIPECO": "NATURAL GAS PIPELINE COMPANY OF AMERICA L.L.C.", "COMPID": "26", "OPERATOR": "NATURAL GAS PIPELINE COMPANY OF AMERICA L.L.C.", "POSREL": "WITHIN 40 FEET", "NUM_UNITS": 3, "CERT_HP": 9000, "PLANT_COST": 10296372, "EXP_FUEL": 0, "EXP_OTHER": 0, "GAS_COMPRE": 10825, "OP_COMP_HR": 274, "OP_NUM_COM": 1, "OP_DATE_PE": "Mon, 24 Dec 2012 00:00:00 GMT", "EXP_POWER": 0, "ELEC_COMPR": 0 }, "geometry": { "type": "Point", "coordinates": [ -98.727425387, 35.073913056 ] } },
{ "type": "Feature", "properties": { "OBJECTID": 309, "GCOMPID": "GCOMP1277", "NAME": "STATION 802 - PARIS", "ADDRESS": "RR 5 BOX 53Z150", "CITY": "PARIS", "STATE": "TX", "ZIP": "75462", "ZIP4": "NOT AVAILABLE", "TYPE": "NATURAL GAS COMPRESSOR STATION", "STATUS": "IN SERVICE", "COUNTY": "LAMAR", "COUNTYFIPS": "48277", "COUNTRY": "USA", "LATITUDE": 33.517857, "LONGITUDE": -95.637076, "NAICS_CODE": "486210", "NAICS_DESC": "BOOSTER PUMPING STATION, NATURAL GAS TRANSPORTATION", "SOURCE": "EPA ENVIROFACTS, FERC FORM 2", "SOURCEDATE": "Wed, 15 Jul 2020 00:00:00 GMT", "VAL_METHOD": "IMAGERY/OTHER", "VAL_DATE": "Fri, 17 Jun 2022 00:00:00 GMT", "WEBSITE": "https://www.kindermorgan.com/", "PIPECO": "NATURAL GAS PIPELINE COMPANY OF AMERICA L.L.C.", "COMPID": "26", "OPERATOR": "NATURAL GAS PIPELINE COMPANY OF AMERICA L.L.C.", "POSREL": "WITHIN 40 FEET", "NUM_UNITS": 3, "CERT_HP": 16560, "PLANT_COST": 29616039, "EXP_FUEL": 0, "EXP_OTHER": 0, "GAS_COMPRE": 577928, "OP_COMP_HR": 16354, "OP_NUM_COM": 3, "OP_DATE_PE": "Sun, 23 Feb 2020 00:00:00 GMT", "EXP_POWER": 0, "ELEC_COMPR": 0 }, "geometry": { "type": "Point", "coordinates": [ -95.637076, 33.517857 ] } },
{ "type": "Feature", "properties": { "OBJECTID": 332, "GCOMPID": "GCOMP1298", "NAME": "STATION 112 - STINNETT", "ADDRESS": "SNEED ROAD", "CITY": "STINNETT", "STATE": "TX", "ZIP": "79083", "ZIP4": "NOT AVAILABLE", "TYPE": "NATURAL GAS COMPRESSOR STATION", "STATUS": "IN SERVICE", "COUNTY": "HUTCHINSON", "COUNTYFIPS": "48233", "COUNTRY": "USA", "LATITUDE": 35.811361218000002, "LONGITUDE": -101.629656798, "NAICS_CODE": "486210", "NAICS_DESC": "BOOSTER PUMPING STATION, NATURAL GAS TRANSPORTATION", "SOURCE": "EPA ENVIROFACTS, FERC FORM 2, CORPORATE WEBSITE", "SOURCEDATE": "Wed, 15 Jul 2020 00:00:00 GMT", "VAL_METHOD": "IMAGERY/OTHER", "VAL_DATE": "Fri, 17 Jun 2022 00:00:00 GMT", "WEBSITE": "http://www.kindermorgan.com/", "PIPECO": "NATURAL GAS PIPELINE COMPANY OF AMERICA L.L.C.", "COMPID": "26", "OPERATOR": "NATURAL GAS PIPELINE COMPANY OF AMERICA L.L.C.", "POSREL": "WITHIN 40 FEET", "NUM_UNITS": 2, "CERT_HP": 2530, "PLANT_COST": 2182779, "EXP_FUEL": 0, "EXP_OTHER": 0, "GAS_COMPRE": 12, "OP_COMP_HR": 2, "OP_NUM_COM": 1, "OP_DATE_PE": "Sun, 03 May 2020 00:00:00 GMT", "EXP_POWER": 0, "ELEC_COMPR": 0 }, "geometry": { "type": "Point", "coordinates": [ -101.629656798, 35.811361218 ] } },
{ "type": "Feature", "properties": { "OBJECTID": 372, "GCOMPID": "GCOMP1333", "NAME": "STATION 803 - MT PLEASANT", "ADDRESS": "TX-3260/TX3355", "CITY": "MOUNT PLEASANT", "STATE": "TX", "ZIP": "75455", "ZIP4": "NOT AVAILABLE", "TYPE": "NATURAL GAS COMPRESSOR STATION", "STATUS": "IN SERVICE", "COUNTY": "TITUS", "COUNTYFIPS": "48449", "COUNTRY": "USA", "LATITUDE": 33.266296716, "LONGITUDE": -94.906695440999997, "NAICS_CODE": "486210", "NAICS_DESC": "BOOSTER PUMPING STATION, NATURAL GAS TRANSPORTATION", "SOURCE": "FERC FORM 2, CORPORATE WEBSITE", "SOURCEDATE": "Wed, 15 Jul 2020 00:00:00 GMT", "VAL_METHOD": "IMAGERY/OTHER", "VAL_DATE": "Fri, 17 Jun 2022 00:00:00 GMT", "WEBSITE": "http://www.kindermorgan.com/", "PIPECO": "NATURAL GAS PIPELINE COMPANY OF AMERICA L.L.C.", "COMPID": "26", "OPERATOR": "NATURAL GAS PIPELINE COMPANY OF AMERICA L.L.C.", "POSREL": "WITHIN 40 FEET", "NUM_UNITS": 2, "CERT_HP": 9470, "PLANT_COST": 21733370, "EXP_FUEL": 0, "EXP_OTHER": 0, "GAS_COMPRE": 17833, "OP_COMP_HR": 619, "OP_NUM_COM": 2, "OP_DATE_PE": "Thu, 28 May 2020 00:00:00 GMT", "EXP_POWER": 0, "ELEC_COMPR": 0 }, "geometry": { "type": "Point", "coordinates": [ -94.906695441, 33.266296716000099 ] } },
{ "type": "Feature", "properties": { "OBJECTID": 393, "GCOMPID": "GCOMP1352", "NAME": "STATION 812 - ATOKA", "ADDRESS": "WESLEY ROAD", "CITY": "WARDVILLE", "STATE": "OK", "ZIP": "74576", "ZIP4": "NOT AVAILABLE", "TYPE": "NATURAL GAS COMPRESSOR STATION", "STATUS": "IN SERVICE", "COUNTY": "ATOKA", "COUNTYFIPS": "40005", "COUNTRY": "USA", "LATITUDE": 34.572486134999998, "LONGITUDE": -95.927555948999995, "NAICS_CODE": "486210", "NAICS_DESC": "BOOSTER PUMPING STATION, NATURAL GAS TRANSPORTATION", "SOURCE": "EPA ENVIROFACTS, FERC FORM 2, CORPORATE WEBSITE", "SOURCEDATE": "Wed, 15 Jul 2020 00:00:00 GMT", "VAL_METHOD": "IMAGERY/OTHER", "VAL_DATE": "Fri, 17 Jun 2022 00:00:00 GMT", "WEBSITE": "http://www.kindermorgan.com/", "PIPECO": "NATURAL GAS PIPELINE COMPANY OF AMERICA L.L.C.", "COMPID": "26", "OPERATOR": "NATURAL GAS PIPELINE COMPANY OF AMERICA L.L.C.", "POSREL": "WITHIN 40 FEET", "NUM_UNITS": 2, "CERT_HP": 4000, "PLANT_COST": 9498226, "EXP_FUEL": 0, "EXP_OTHER": 0, "GAS_COMPRE": 14737, "OP_COMP_HR": 3, "OP_NUM_COM": 0, "OP_DATE_PE": "Mon, 01 Jan 2001 00:00:00 GMT", "EXP_POWER": 0, "ELEC_COMPR": 0 }, "geometry": { "type": "Point", "coordinates": [ -95.927555949, 34.572486135000098 ] } },
{ "type": "Feature", "properties": { "OBJECTID": 426, "GCOMPID": "GCOMP151", "NAME": "STATION 308 - BIGGERS", "ADDRESS": "138 GAZAWAY ROAD", "CITY": "BIGGERS", "STATE": "AR", "ZIP": "72413", "ZIP4": "NOT AVAILABLE", "TYPE": "NATURAL GAS COMPRESSOR STATION", "STATUS": "IN SERVICE", "COUNTY": "RANDOLPH", "COUNTYFIPS": "05121", "COUNTRY": "USA", "LATITUDE": 36.298427122, "LONGITUDE": -90.837828888000004, "NAICS_CODE": "486210", "NAICS_DESC": "BOOSTER PUMPING STATION, NATURAL GAS TRANSPORTATION", "SOURCE": "EPA ENVIROFACTS, FERC FORM 2, CORPORATE WEBSITE", "SOURCEDATE": "Wed, 15 Jul 2020 00:00:00 GMT", "VAL_METHOD": "IMAGERY/OTHER", "VAL_DATE": "Fri, 17 Jun 2022 00:00:00 GMT", "WEBSITE": "http://www.kindermorgan.com/", "PIPECO": "NATURAL GAS PIPELINE COMPANY OF AMERICA L.L.C.", "COMPID": "26", "OPERATOR": "NATURAL GAS PIPELINE COMPANY OF AMERICA L.L.C.", "POSREL": "WITHIN 40 FEET", "NUM_UNITS": 9, "CERT_HP": 30850, "PLANT_COST": 15514916, "EXP_FUEL": 0, "EXP_OTHER": 0, "GAS_COMPRE": 71122, "OP_COMP_HR": 2039, "OP_NUM_COM": 8, "OP_DATE_PE": "Tue, 27 Oct 2020 00:00:00 GMT", "EXP_POWER": 0, "ELEC_COMPR": 0 }, "geometry": { "type": "Point", "coordinates": [ -90.837828888, 36.298427122000099 ] } },
{ "type": "Feature", "properties": { "OBJECTID": 485, "GCOMPID": "GCOMP204", "NAME": "STATION 194 - WILSON", "ADDRESS": "156 5TH ROAD", "CITY": "WILSON", "STATE": "KS", "ZIP": "67490", "ZIP4": "NOT AVAILABLE", "TYPE": "NATURAL GAS COMPRESSOR STATION", "STATUS": "IN SERVICE", "COUNTY": "ELLSWORTH", "COUNTYFIPS": "20053", "COUNTRY": "USA", "LATITUDE": 38.861073636999997, "LONGITUDE": -98.410951717000003, "NAICS_CODE": "486210", "NAICS_DESC": "BOOSTER PUMPING STATION, NATURAL GAS TRANSPORTATION", "SOURCE": "EPA ENVIROFACTS, FERC FORM 2, CORPORATE WEBSITE", "SOURCEDATE": "Wed, 15 Jul 2020 00:00:00 GMT", "VAL_METHOD": "IMAGERY/OTHER", "VAL_DATE": "Fri, 17 Jun 2022 00:00:00 GMT", "WEBSITE": "http://www.kindermorgan.com/", "PIPECO": "NATURAL GAS PIPELINE COMPANY OF AMERICA L.L.C.", "COMPID": "26", "OPERATOR": "NATURAL GAS PIPELINE COMPANY OF AMERICA L.L.C.", "POSREL": "WITHIN 40 FEET", "NUM_UNITS": 1, "CERT_HP": 14500, "PLANT_COST": 10646852, "EXP_FUEL": 0, "EXP_OTHER": 0, "GAS_COMPRE": 171743, "OP_COMP_HR": 1326, "OP_NUM_COM": 1, "OP_DATE_PE": "Thu, 13 Feb 2020 00:00:00 GMT", "EXP_POWER": 0, "ELEC_COMPR": 0 }, "geometry": { "type": "Point", "coordinates": [ -98.410951717, 38.861073637000104 ] } },
{ "type": "Feature", "properties": { "OBJECTID": 507, "GCOMPID": "GCOMP224", "NAME": "STATION 198 - KNOXVILLE", "ADDRESS": "1616 165TH AVENUE (NEWBOLD & OREGAN)", "CITY": "KNOXVILLE", "STATE": "IA", "ZIP": "50138", "ZIP4": "NOT AVAILABLE", "TYPE": "NATURAL GAS COMPRESSOR STATION", "STATUS": "IN SERVICE", "COUNTY": "MARION", "COUNTYFIPS": "19125", "COUNTRY": "USA", "LATITUDE": 41.289306381000003, "LONGITUDE": -93.032378257000005, "NAICS_CODE": "486210", "NAICS_DESC": "BOOSTER PUMPING STATION, NATURAL GAS TRANSPORTATION", "SOURCE": "EPA ENVIROFACTS, FERC FORM 2, CORPORATE WEBSITE", "SOURCEDATE": "Wed, 15 Jul 2020 00:00:00 GMT", "VAL_METHOD": "IMAGERY/OTHER", "VAL_DATE": "Fri, 17 Jun 2022 00:00:00 GMT", "WEBSITE": "http://www.kindermorgan.com/", "PIPECO": "NATURAL GAS PIPELINE COMPANY OF AMERICA L.L.C.", "COMPID": "26", "OPERATOR": "NATURAL GAS PIPELINE COMPANY OF AMERICA L.L.C.", "POSREL": "WITHIN 40 FEET", "NUM_UNITS": 2, "CERT_HP": 24000, "PLANT_COST": 7680106, "EXP_FUEL": 0, "EXP_OTHER": 0, "GAS_COMPRE": 107279, "OP_COMP_HR": 777, "OP_NUM_COM": 1, "OP_DATE_PE": "Wed, 07 Oct 2020 00:00:00 GMT", "EXP_POWER": 0, "ELEC_COMPR": 0 }, "geometry": { "type": "Point", "coordinates": [ -93.032378257, 41.289306381000102 ] } },
{ "type": "Feature", "properties": { "OBJECTID": 508, "GCOMPID": "GCOMP225", "NAME": "STATION 108 - TRURO", "ADDRESS": "1620 COUNTY ROAD-G64", "CITY": "NEW VIRGINIA", "STATE": "IA", "ZIP": "50210", "ZIP4": "NOT AVAILABLE", "TYPE": "NATURAL GAS COMPRESSOR STATION", "STATUS": "IN SERVICE", "COUNTY": "WARREN", "COUNTYFIPS": "19181", "COUNTRY": "USA", "LATITUDE": 41.225587128000001, "LONGITUDE": -93.777707387000007, "NAICS_CODE": "486210", "NAICS_DESC": "BOOSTER PUMPING STATION, NATURAL GAS TRANSPORTATION", "SOURCE": "EPA ENVIROFACTS, FERC FORM 2, CORPORATE WEBSITE", "SOURCEDATE": "Wed, 15 Jul 2020 00:00:00 GMT", "VAL_METHOD": "IMAGERY/OTHER", "VAL_DATE": "Fri, 17 Jun 2022 00:00:00 GMT", "WEBSITE": "http://www.kindermorgan.com/", "PIPECO": "NATURAL GAS PIPELINE COMPANY OF AMERICA L.L.C.", "COMPID": "26", "OPERATOR": "NATURAL GAS PIPELINE COMPANY OF AMERICA L.L.C.", "POSREL": "WITHIN 40 FEET", "NUM_UNITS": 5, "CERT_HP": 26000, "PLANT_COST": 29764048, "EXP_FUEL": 0, "EXP_OTHER": 0, "GAS_COMPRE": 512249, "OP_COMP_HR": 12487, "OP_NUM_COM": 3, "OP_DATE_PE": "Wed, 04 Nov 2020 00:00:00 GMT", "EXP_POWER": 0, "ELEC_COMPR": 0 }, "geometry": { "type": "Point", "coordinates": [ -93.777707387, 41.225587128 ] } },
{ "type": "Feature", "properties": { "OBJECTID": 514, "GCOMPID": "GCOMP230", "NAME": "STATION 116 - BELVIDERE", "ADDRESS": "1650 STONE QUARRY ROAD", "CITY": "BELVIDERE", "STATE": "IL", "ZIP": "61008", "ZIP4": "4908", "TYPE": "NATURAL GAS COMPRESSOR STATION", "STATUS": "IN SERVICE", "COUNTY": "BOONE", "COUNTYFIPS": "17007", "COUNTRY": "USA", "LATITUDE": 42.177325662999998, "LONGITUDE": -88.864223041000002, "NAICS_CODE": "486210", "NAICS_DESC": "BOOSTER PUMPING STATION, NATURAL GAS TRANSPORTATION", "SOURCE": "EPA ENVIROFACTS, FERC FORM 2, CORPORATE WEBSITE", "SOURCEDATE": "Wed, 15 Jul 2020 00:00:00 GMT", "VAL_METHOD": "IMAGERY/OTHER", "VAL_DATE": "Fri, 17 Jun 2022 00:00:00 GMT", "WEBSITE": "http://www.kindermorgan.com/", "PIPECO": "NATURAL GAS PIPELINE COMPANY OF AMERICA L.L.C.", "COMPID": "26", "OPERATOR": "NATURAL GAS PIPELINE COMPANY OF AMERICA L.L.C.", "POSREL": "WITHIN 40 FEET", "NUM_UNITS": 1, "CERT_HP": 4925, "PLANT_COST": 8713941, "EXP_FUEL": 0, "EXP_OTHER": 0, "GAS_COMPRE": 59, "OP_COMP_HR": 0, "OP_NUM_COM": 0, "OP_DATE_PE": "Mon, 01 Jan 2001 00:00:00 GMT", "EXP_POWER": 0, "ELEC_COMPR": 0 }, "geometry": { "type": "Point", "coordinates": [ -88.864223040999903, 42.177325663 ] } },
{ "type": "Feature", "properties": { "OBJECTID": 520, "GCOMPID": "GCOMP236", "NAME": "STATION 110 - GENESEO", "ADDRESS": "16648 ILLINOIS HIGHWAY 82", "CITY": "GENESEO", "STATE": "IL", "ZIP": "61254", "ZIP4": "NOT AVAILABLE", "TYPE": "NATURAL GAS COMPRESSOR STATION", "STATUS": "IN SERVICE", "COUNTY": "HENRY", "COUNTYFIPS": "17073", "COUNTRY": "USA", "LATITUDE": 41.391835, "LONGITUDE": -90.168719, "NAICS_CODE": "486210", "NAICS_DESC": "BOOSTER PUMPING STATION, NATURAL GAS TRANSPORTATION", "SOURCE": "EPA ENVIROFACTS, FERC FORM 2, CORPORATE WEBSITE", "SOURCEDATE": "Wed, 15 Jul 2020 00:00:00 GMT", "VAL_METHOD": "IMAGERY/OTHER", "VAL_DATE": "Fri, 17 Jun 2022 00:00:00 GMT", "WEBSITE": "http://www.kindermorgan.com/", "PIPECO": "NATURAL GAS PIPELINE COMPANY OF AMERICA L.L.C.", "COMPID": "26", "OPERATOR": "NATURAL GAS PIPELINE COMPANY OF AMERICA L.L.C.", "POSREL": "WITHIN 40 FEET", "NUM_UNITS": 7, "CERT_HP": 34600, "PLANT_COST": 53274762, "EXP_FUEL": 0, "EXP_OTHER": 0, "GAS_COMPRE": 454351, "OP_COMP_HR": 9460, "OP_NUM_COM": 6, "OP_DATE_PE": "Tue, 11 Feb 2020 00:00:00 GMT", "EXP_POWER": 0, "ELEC_COMPR": 0 }, "geometry": { "type": "Point", "coordinates": [ -90.168719, 41.3918350000001 ] } },
{ "type": "Feature", "properties": { "OBJECTID": 528, "GCOMPID": "GCOMP243", "NAME": "STATION 302 - NEW CANEY", "ADDRESS": "17057 F. M. 1485", "CITY": "NEW CANEY", "STATE": "TX", "ZIP": "77357", "ZIP4": "3701", "TYPE": "NATURAL GAS COMPRESSOR STATION", "STATUS": "IN SERVICE", "COUNTY": "MONTGOMERY", "COUNTYFIPS": "48339", "COUNTRY": "USA", "LATITUDE": 30.203023538, "LONGITUDE": -95.255284466000006, "NAICS_CODE": "486210", "NAICS_DESC": "BOOSTER PUMPING STATION, NATURAL GAS TRANSPORTATION", "SOURCE": "EPA ENVIROFACTS, FERC FORM 2, CORPORATE WEBSITE", "SOURCEDATE": "Wed, 15 Jul 2020 00:00:00 GMT", "VAL_METHOD": "IMAGERY/OTHER", "VAL_DATE": "Fri, 17 Jun 2022 00:00:00 GMT", "WEBSITE": "http://www.kindermorgan.com/", "PIPECO": "NATURAL GAS PIPELINE COMPANY OF AMERICA L.L.C.", "COMPID": "26", "OPERATOR": "NATURAL GAS PIPELINE COMPANY OF AMERICA L.L.C.", "POSREL": "WITHIN 40 FEET", "NUM_UNITS": 3, "CERT_HP": 26800, "PLANT_COST": 55918686, "EXP_FUEL": 0, "EXP_OTHER": 0, "GAS_COMPRE": 0, "OP_COMP_HR": 14930, "OP_NUM_COM": 3, "OP_DATE_PE": "Sun, 24 May 2020 00:00:00 GMT", "EXP_POWER": 0, "ELEC_COMPR": 102399696 }, "geometry": { "type": "Point", "coordinates": [ -95.255284466, 30.203023538 ] } },
{ "type": "Feature", "properties": { "OBJECTID": 574, "GCOMPID": "GCOMP285", "NAME": "STATION 113 - SHOREWOOD", "ADDRESS": "19132 COUNTY FARM ROAD", "CITY": "JOILIET", "STATE": "IL", "ZIP": "60431", "ZIP4": "NOT AVAILABLE", "TYPE": "NATURAL GAS COMPRESSOR STATION", "STATUS": "IN SERVICE", "COUNTY": "WILL", "COUNTYFIPS": "17197", "COUNTRY": "USA", "LATITUDE": 41.506431, "LONGITUDE": -88.191762, "NAICS_CODE": "486210", "NAICS_DESC": "BOOSTER PUMPING STATION, NATURAL GAS TRANSPORTATION", "SOURCE": "EPA ENVIROFACTS, FERC FORM 2, CORPORATE WEBSITE", "SOURCEDATE": "Wed, 15 Jul 2020 00:00:00 GMT", "VAL_METHOD": "IMAGERY/OTHER", "VAL_DATE": "Fri, 17 Jun 2022 00:00:00 GMT", "WEBSITE": "http://www.kindermorgan.com/", "PIPECO": "NATURAL GAS PIPELINE COMPANY OF AMERICA L.L.C.", "COMPID": "26", "OPERATOR": "NATURAL GAS PIPELINE COMPANY OF AMERICA L.L.C.", "POSREL": "WITHIN 40 FEET", "NUM_UNITS": 9, "CERT_HP": 13050, "PLANT_COST": 18326863, "EXP_FUEL": 0, "EXP_OTHER": 0, "GAS_COMPRE": 2403, "OP_COMP_HR": 85, "OP_NUM_COM": 4, "OP_DATE_PE": "Sun, 19 Jan 2020 00:00:00 GMT", "EXP_POWER": 0, "ELEC_COMPR": 0 }, "geometry": { "type": "Point", "coordinates": [ -88.191762, 41.506431 ] } },
{ "type": "Feature", "properties": { "OBJECTID": 589, "GCOMPID": "GCOMP299", "NAME": "STATION 388 - LONGVIEW", "ADDRESS": "19887 HYNSON SPRINGS ROAD", "CITY": "LONGVIEW", "STATE": "TX", "ZIP": "75601", "ZIP4": "NOT AVAILABLE", "TYPE": "NATURAL GAS COMPRESSOR STATION", "STATUS": "IN SERVICE", "COUNTY": "HARRISON", "COUNTYFIPS": "48203", "COUNTRY": "USA", "LATITUDE": 32.598036, "LONGITUDE": -94.665274, "NAICS_CODE": "486210", "NAICS_DESC": "BOOSTER PUMPING STATION, NATURAL GAS TRANSPORTATION", "SOURCE": "EPA ENVIROFACTS, FERC FORM 2, CORPORATE WEBSITE", "SOURCEDATE": "Wed, 15 Jul 2020 00:00:00 GMT", "VAL_METHOD": "IMAGERY/OTHER", "VAL_DATE": "Fri, 17 Jun 2022 00:00:00 GMT", "WEBSITE": "http://www.kindermorgan.com/", "PIPECO": "NATURAL GAS PIPELINE COMPANY OF AMERICA L.L.C.", "COMPID": "26", "OPERATOR": "NATURAL GAS PIPELINE COMPANY OF AMERICA L.L.C.", "POSREL": "WITHIN 40 FEET", "NUM_UNITS": 7, "CERT_HP": 37000, "PLANT_COST": 39153553, "EXP_FUEL": 0, "EXP_OTHER": 0, "GAS_COMPRE": 0, "OP_COMP_HR": 21788, "OP_NUM_COM": 7, "OP_DATE_PE": "Tue, 03 Mar 2020 00:00:00 GMT", "EXP_POWER": 0, "ELEC_COMPR": 98081428 }, "geometry": { "type": "Point", "coordinates": [ -94.665273999999897, 32.598036 ] } },
{ "type": "Feature", "properties": { "OBJECTID": 603, "GCOMPID": "GCOMP310", "NAME": "STATION 139 - LEA", "ADDRESS": "2.6 MILES WEST OF COUNTY ROAD 101", "CITY": "KERMIT", "STATE": "TX", "ZIP": "79745", "ZIP4": "NOT AVAILABLE", "TYPE": "NATURAL GAS COMPRESSOR STATION", "STATUS": "IN SERVICE", "COUNTY": "WINKLER", "COUNTYFIPS": "48495", "COUNTRY": "USA", "LATITUDE": 31.95602514, "LONGITUDE": -103.302572375, "NAICS_CODE": "486210", "NAICS_DESC": "BOOSTER PUMPING STATION, NATURAL GAS TRANSPORTATION", "SOURCE": "EPA ENVIROFACTS, FERC FORM 2, CORPORATE WEBSITE", "SOURCEDATE": "Wed, 15 Jul 2020 00:00:00 GMT", "VAL_METHOD": "IMAGERY/OTHER", "VAL_DATE": "Fri, 17 Jun 2022 00:00:00 GMT", "WEBSITE": "http://www.kindermorgan.com/", "PIPECO": "NATURAL GAS PIPELINE COMPANY OF AMERICA L.L.C.", "COMPID": "26", "OPERATOR": "NATURAL GAS PIPELINE COMPANY OF AMERICA L.L.C.", "POSREL": "WITHIN 40 FEET", "NUM_UNITS": 1, "CERT_HP": 3250, "PLANT_COST": 3834644, "EXP_FUEL": 0, "EXP_OTHER": 0, "GAS_COMPRE": 0, "OP_COMP_HR": 0, "OP_NUM_COM": 0, "OP_DATE_PE": "Mon, 01 Jan 2001 00:00:00 GMT", "EXP_POWER": 0, "ELEC_COMPR": 0 }, "geometry": { "type": "Point", "coordinates": [ -103.302572375, 31.956025140000101 ] } },
{ "type": "Feature", "properties": { "OBJECTID": 627, "GCOMPID": "GCOMP332", "NAME": "STATION 109 - HARPER", "ADDRESS": "20743 285TH AVENUE", "CITY": "HARPER", "STATE": "IA", "ZIP": "52231", "ZIP4": "8701", "TYPE": "NATURAL GAS COMPRESSOR STATION", "STATUS": "IN SERVICE", "COUNTY": "KEOKUK", "COUNTYFIPS": "19107", "COUNTRY": "USA", "LATITUDE": 41.357164343539701, "LONGITUDE": -92.057604849668195, "NAICS_CODE": "486210", "NAICS_DESC": "BOOSTER PUMPING STATION, NATURAL GAS TRANSPORTATION", "SOURCE": "EPA ENVIROFACTS, FERC FORM 2, CORPORATE WEBSITE", "SOURCEDATE": "Wed, 15 Jul 2020 00:00:00 GMT", "VAL_METHOD": "IMAGERY/OTHER", "VAL_DATE": "Fri, 24 Jun 2022 00:00:00 GMT", "WEBSITE": "http://www.kindermorgan.com/", "PIPECO": "NATURAL GAS PIPELINE COMPANY OF AMERICA L.L.C.", "COMPID": "26", "OPERATOR": "NATURAL GAS PIPELINE COMPANY OF AMERICA L.L.C.", "POSREL": "WITHIN 40 FEET", "NUM_UNITS": 6, "CERT_HP": 29650, "PLANT_COST": 35751030, "EXP_FUEL": 0, "EXP_OTHER": 0, "GAS_COMPRE": 794155, "OP_COMP_HR": 18454, "OP_NUM_COM": 5, "OP_DATE_PE": "Mon, 05 Oct 2020 00:00:00 GMT", "EXP_POWER": 0, "ELEC_COMPR": 0 }, "geometry": { "type": "Point", "coordinates": [ -92.057604849999905, 41.357164344000097 ] } },
{ "type": "Feature", "properties": { "OBJECTID": 648, "GCOMPID": "GCOMP351", "NAME": "STATION 214 - COLUMBUS JUNCTION", "ADDRESS": "21840 120TH STREET", "CITY": "COLUMBUS JUNCTION", "STATE": "IA", "ZIP": "52738", "ZIP4": "NOT AVAILABLE", "TYPE": "NATURAL GAS COMPRESSOR STATION", "STATUS": "IN SERVICE", "COUNTY": "LOUISA", "COUNTYFIPS": "19115", "COUNTRY": "USA", "LATITUDE": 41.235085, "LONGITUDE": -91.349109, "NAICS_CODE": "486210", "NAICS_DESC": "BOOSTER PUMPING STATION, NATURAL GAS TRANSPORTATION", "SOURCE": "FERC FORM 2, IMAGERY", "SOURCEDATE": "Wed, 15 Jul 2020 00:00:00 GMT", "VAL_METHOD": "IMAGERY/OTHER", "VAL_DATE": "Fri, 17 Jun 2022 00:00:00 GMT", "WEBSITE": "http://www.kindermorgan.com/", "PIPECO": "NATURAL GAS PIPELINE COMPANY OF AMERICA L.L.C.", "COMPID": "26", "OPERATOR": "NATURAL GAS PIPELINE COMPANY OF AMERICA L.L.C.", "POSREL": "WITHIN 40 FEET", "NUM_UNITS": 1, "CERT_HP": 3500, "PLANT_COST": 10055082, "EXP_FUEL": 0, "EXP_OTHER": 0, "GAS_COMPRE": 29181, "OP_COMP_HR": 1111, "OP_NUM_COM": 1, "OP_DATE_PE": "Tue, 11 Feb 2020 00:00:00 GMT", "EXP_POWER": 0, "ELEC_COMPR": 0 }, "geometry": { "type": "Point", "coordinates": [ -91.349109, 41.235085 ] } },
{ "type": "Feature", "properties": { "OBJECTID": 650, "GCOMPID": "GCOMP353", "NAME": "STATION 204 - COLUMBUS JUNCTION", "ADDRESS": "21864 120TH STREET, STATION 204", "CITY": "COLUMBUS JUNCTION", "STATE": "IA", "ZIP": "52738", "ZIP4": "NOT AVAILABLE", "TYPE": "NATURAL GAS COMPRESSOR STATION", "STATUS": "IN SERVICE", "COUNTY": "LOUISA", "COUNTYFIPS": "19115", "COUNTRY": "USA", "LATITUDE": 41.234218, "LONGITUDE": -91.349914, "NAICS_CODE": "486210", "NAICS_DESC": "BOOSTER PUMPING STATION, NATURAL GAS TRANSPORTATION", "SOURCE": "EPA ENVIROFACTS, FERC FORM 2, CORPORATE WEBSITE", "SOURCEDATE": "Wed, 15 Jul 2020 00:00:00 GMT", "VAL_METHOD": "IMAGERY/OTHER", "VAL_DATE": "Fri, 17 Jun 2022 00:00:00 GMT", "WEBSITE": "http://www.kindermorgan.com/", "PIPECO": "NATURAL GAS PIPELINE COMPANY OF AMERICA L.L.C.", "COMPID": "26", "OPERATOR": "NATURAL GAS PIPELINE COMPANY OF AMERICA L.L.C.", "POSREL": "WITHIN 40 FEET", "NUM_UNITS": 7, "CERT_HP": 19780, "PLANT_COST": 57710174, "EXP_FUEL": 0, "EXP_OTHER": 0, "GAS_COMPRE": 242368, "OP_COMP_HR": 14887, "OP_NUM_COM": 5, "OP_DATE_PE": "Sun, 09 Feb 2020 00:00:00 GMT", "EXP_POWER": 0, "ELEC_COMPR": 0 }, "geometry": { "type": "Point", "coordinates": [ -91.349914, 41.234218 ] } },
{ "type": "Feature", "properties": { "OBJECTID": 657, "GCOMPID": "GCOMP36", "NAME": "STATION 343 - DEVERS", "ADDRESS": "1007 COUNTY ROAD 109", "CITY": "DEVERS", "STATE": "TX", "ZIP": "77538", "ZIP4": "7059", "TYPE": "NATURAL GAS COMPRESSOR STATION", "STATUS": "IN SERVICE", "COUNTY": "LIBERTY", "COUNTYFIPS": "48291", "COUNTRY": "USA", "LATITUDE": 29.971831001999998, "LONGITUDE": -94.580262227000006, "NAICS_CODE": "486210", "NAICS_DESC": "BOOSTER PUMPING STATION, NATURAL GAS TRANSPORTATION", "SOURCE": "EPA ENVIROFACTS, FERC FORM 2, CORPORATE WEBSITE", "SOURCEDATE": "Wed, 15 Jul 2020 00:00:00 GMT", "VAL_METHOD": "IMAGERY/OTHER", "VAL_DATE": "Fri, 17 Jun 2022 00:00:00 GMT", "WEBSITE": "http://www.kindermorgan.com/", "PIPECO": "NATURAL GAS PIPELINE COMPANY OF AMERICA L.L.C.", "COMPID": "26", "OPERATOR": "NATURAL GAS PIPELINE COMPANY OF AMERICA L.L.C.", "POSREL": "WITHIN 40 FEET", "NUM_UNITS": 2, "CERT_HP": 26000, "PLANT_COST": 38335972, "EXP_FUEL": 0, "EXP_OTHER": 0, "GAS_COMPRE": 0, "OP_COMP_HR": 10160, "OP_NUM_COM": 2, "OP_DATE_PE": "Sun, 17 May 2020 00:00:00 GMT", "EXP_POWER": 0, "ELEC_COMPR": 96018368 }, "geometry": { "type": "Point", "coordinates": [ -94.580262227, 29.971831002 ] } },
{ "type": "Feature", "properties": { "OBJECTID": 660, "GCOMPID": "GCOMP362", "NAME": "STATION 106 - BEATRICE", "ADDRESS": "22140 HOMESTEAD EXPRESSWAY", "CITY": "BEATRICE", "STATE": "NE", "ZIP": "68310", "ZIP4": "NOT AVAILABLE", "TYPE": "NATURAL GAS COMPRESSOR STATION", "STATUS": "IN SERVICE", "COUNTY": "GAGE", "COUNTYFIPS": "31067", "COUNTRY": "USA", "LATITUDE": 40.314235, "LONGITUDE": -96.745504, "NAICS_CODE": "486210", "NAICS_DESC": "BOOSTER PUMPING STATION, NATURAL GAS TRANSPORTATION", "SOURCE": "EPA ENVIROFACTS, FERC FORM 2, CORPORATE WEBSITE", "SOURCEDATE": "Wed, 15 Jul 2020 00:00:00 GMT", "VAL_METHOD": "IMAGERY/OTHER", "VAL_DATE": "Fri, 17 Jun 2022 00:00:00 GMT", "WEBSITE": "http://www.kindermorgan.com/", "PIPECO": "NATURAL GAS PIPELINE COMPANY OF AMERICA L.L.C.", "COMPID": "26", "OPERATOR": "NATURAL GAS PIPELINE COMPANY OF AMERICA L.L.C.", "POSREL": "WITHIN 40 FEET", "NUM_UNITS": 3, "CERT_HP": 14350, "PLANT_COST": 19239427, "EXP_FUEL": 0, "EXP_OTHER": 0, "GAS_COMPRE": 449533, "OP_COMP_HR": 13410, "OP_NUM_COM": 3, "OP_DATE_PE": "Thu, 13 Feb 2020 00:00:00 GMT", "EXP_POWER": 0, "ELEC_COMPR": 0 }, "geometry": { "type": "Point", "coordinates": [ -96.745504, 40.314235 ] } },
{ "type": "Feature", "properties": { "OBJECTID": 662, "GCOMPID": "GCOMP364", "NAME": "STATION 307 - SEARCY", "ADDRESS": "2227 HIGHWAY 267 SOUTH", "CITY": "SEARCY", "STATE": "AR", "ZIP": "72143", "ZIP4": "NOT AVAILABLE", "TYPE": "NATURAL GAS COMPRESSOR STATION", "STATUS": "IN SERVICE", "COUNTY": "WHITE", "COUNTYFIPS": "05145", "COUNTRY": "USA", "LATITUDE": 35.205934460999998, "LONGITUDE": -91.770266374000002, "NAICS_CODE": "486210", "NAICS_DESC": "BOOSTER PUMPING STATION, NATURAL GAS TRANSPORTATION", "SOURCE": "EPA ENVIROFACTS, FERC FORM 2, CORPORATE WEBSITE", "SOURCEDATE": "Wed, 15 Jul 2020 00:00:00 GMT", "VAL_METHOD": "IMAGERY/OTHER", "VAL_DATE": "Fri, 17 Jun 2022 00:00:00 GMT", "WEBSITE": "http://www.kindermorgan.com/", "PIPECO": "NATURAL GAS PIPELINE COMPANY OF AMERICA L.L.C.", "COMPID": "26", "OPERATOR": "NATURAL GAS PIPELINE COMPANY OF AMERICA L.L.C.", "POSREL": "WITHIN 40 FEET", "NUM_UNITS": 9, "CERT_HP": 30850, "PLANT_COST": 15572113, "EXP_FUEL": 0, "EXP_OTHER": 0, "GAS_COMPRE": 173227, "OP_COMP_HR": 7641, "OP_NUM_COM": 7, "OP_DATE_PE": "Mon, 20 Jan 2020 00:00:00 GMT", "EXP_POWER": 0, "ELEC_COMPR": 0 }, "geometry": { "type": "Point", "coordinates": [ -91.770266374, 35.205934461 ] } },
{ "type": "Feature", "properties": { "OBJECTID": 664, "GCOMPID": "GCOMP366", "NAME": "STATION 117 - MILLS CO", "ADDRESS": "22371 KANE AVENUE", "CITY": "GLENWOOD", "STATE": "IA", "ZIP": "51534", "ZIP4": "NOT AVAILABLE", "TYPE": "NATURAL GAS COMPRESSOR STATION", "STATUS": "IN SERVICE", "COUNTY": "MILLS", "COUNTYFIPS": "19129", "COUNTRY": "USA", "LATITUDE": 41.012031246, "LONGITUDE": -95.755083563, "NAICS_CODE": "486210", "NAICS_DESC": "BOOSTER PUMPING STATION, NATURAL GAS TRANSPORTATION", "SOURCE": "FERC FORM 2, CORPORATE WEBSITE, IMAGERY", "SOURCEDATE": "Wed, 15 Jul 2020 00:00:00 GMT", "VAL_METHOD": "IMAGERY/OTHER", "VAL_DATE": "Fri, 17 Jun 2022 00:00:00 GMT", "WEBSITE": "http://www.kindermorgan.com/", "PIPECO": "NATURAL GAS PIPELINE COMPANY OF AMERICA L.L.C.", "COMPID": "26", "OPERATOR": "NATURAL GAS PIPELINE COMPANY OF AMERICA L.L.C.", "POSREL": "WITHIN 40 FEET", "NUM_UNITS": 1, "CERT_HP": 3550, "PLANT_COST": 285159, "EXP_FUEL": 0, "EXP_OTHER": 0, "GAS_COMPRE": 48932, "OP_COMP_HR": 3000, "OP_NUM_COM": 1, "OP_DATE_PE": "Thu, 13 Feb 2020 00:00:00 GMT", "EXP_POWER": 0, "ELEC_COMPR": 0 }, "geometry": { "type": "Point", "coordinates": [ -95.755083563, 41.012031246 ] } },
{ "type": "Feature", "properties": { "OBJECTID": 696, "GCOMPID": "GCOMP395", "NAME": "STATION 196 - SYRACUSE", "ADDRESS": "2380 COUNTY ROAD E", "CITY": "SYRACUSE", "STATE": "NE", "ZIP": "68446", "ZIP4": "NOT AVAILABLE", "TYPE": "NATURAL GAS COMPRESSOR STATION", "STATUS": "IN SERVICE", "COUNTY": "OTOE", "COUNTYFIPS": "31131", "COUNTRY": "USA", "LATITUDE": 40.724562, "LONGITUDE": -96.23736, "NAICS_CODE": "486210", "NAICS_DESC": "BOOSTER PUMPING STATION, NATURAL GAS TRANSPORTATION", "SOURCE": "EPA ENVIROFACTS, FERC FORM 2, CORPORATE WEBSITE", "SOURCEDATE": "Wed, 15 Jul 2020 00:00:00 GMT", "VAL_METHOD": "IMAGERY/OTHER", "VAL_DATE": "Fri, 17 Jun 2022 00:00:00 GMT", "WEBSITE": "http://www.kindermorgan.com/", "PIPECO": "NATURAL GAS PIPELINE COMPANY OF AMERICA L.L.C.", "COMPID": "26", "OPERATOR": "NATURAL GAS PIPELINE COMPANY OF AMERICA L.L.C.", "POSREL": "WITHIN 40 FEET", "NUM_UNITS": 2, "CERT_HP": 24000, "PLANT_COST": 14904935, "EXP_FUEL": 0, "EXP_OTHER": 0, "GAS_COMPRE": 17036, "OP_COMP_HR": 3442, "OP_NUM_COM": 1, "OP_DATE_PE": "Thu, 13 Feb 2020 00:00:00 GMT", "EXP_POWER": 0, "ELEC_COMPR": 29421000 }, "geometry": { "type": "Point", "coordinates": [ -96.23736, 40.724562 ] } },
{ "type": "Feature", "properties": { "OBJECTID": 720, "GCOMPID": "GCOMP416", "NAME": "STATION 199 - LETTS", "ADDRESS": "2482 JASPER AVENUE", "CITY": "LETTS", "STATE": "IA", "ZIP": "52754", "ZIP4": "NOT AVAILABLE", "TYPE": "NATURAL GAS COMPRESSOR STATION", "STATUS": "IN SERVICE", "COUNTY": "LOUISA", "COUNTYFIPS": "19115", "COUNTRY": "USA", "LATITUDE": 41.380563952000003, "LONGITUDE": -91.194047439000002, "NAICS_CODE": "486210", "NAICS_DESC": "BOOSTER PUMPING STATION, NATURAL GAS TRANSPORTATION", "SOURCE": "EPA ENVIROFACTS, FERC FORM 2, CORPORATE WEBSITE", "SOURCEDATE": "Wed, 15 Jul 2020 00:00:00 GMT", "VAL_METHOD": "IMAGERY/OTHER", "VAL_DATE": "Fri, 17 Jun 2022 00:00:00 GMT", "WEBSITE": "http://www.kindermorgan.com/", "PIPECO": "NATURAL GAS PIPELINE COMPANY OF AMERICA L.L.C.", "COMPID": "26", "OPERATOR": "NATURAL GAS PIPELINE COMPANY OF AMERICA L.L.C.", "POSREL": "WITHIN 40 FEET", "NUM_UNITS": 2, "CERT_HP": 24500, "PLANT_COST": 16217838, "EXP_FUEL": 0, "EXP_OTHER": 0, "GAS_COMPRE": 3000, "OP_COMP_HR": 214, "OP_NUM_COM": 1, "OP_DATE_PE": "Thu, 11 Jun 2020 00:00:00 GMT", "EXP_POWER": 0, "ELEC_COMPR": 2289644 }, "geometry": { "type": "Point", "coordinates": [ -91.194047439, 41.380563952 ] } },
{ "type": "Feature", "properties": { "OBJECTID": 797, "GCOMPID": "GCOMP486", "NAME": "STATION 168 - SUDAN", "ADDRESS": "3027 COUNTY ROAD-21", "CITY": "MAPLE", "STATE": "TX", "ZIP": "79344", "ZIP4": "NOT AVAILABLE", "TYPE": "NATURAL GAS COMPRESSOR STATION", "STATUS": "IN SERVICE", "COUNTY": "BAILEY", "COUNTYFIPS": "48017", "COUNTRY": "USA", "LATITUDE": 33.881287798000002, "LONGITUDE": -103.006929923, "NAICS_CODE": "486210", "NAICS_DESC": "BOOSTER PUMPING STATION, NATURAL GAS TRANSPORTATION", "SOURCE": "EPA ENVIROFACTS, FERC FORM 2, CORPORATE WEBSITE", "SOURCEDATE": "Wed, 15 Jul 2020 00:00:00 GMT", "VAL_METHOD": "IMAGERY/OTHER", "VAL_DATE": "Fri, 17 Jun 2022 00:00:00 GMT", "WEBSITE": "http://www.kindermorgan.com/", "PIPECO": "NATURAL GAS PIPELINE COMPANY OF AMERICA L.L.C.", "COMPID": "26", "OPERATOR": "NATURAL GAS PIPELINE COMPANY OF AMERICA L.L.C.", "POSREL": "WITHIN 40 FEET", "NUM_UNITS": 2, "CERT_HP": 8000, "PLANT_COST": 6998315, "EXP_FUEL": 0, "EXP_OTHER": 0, "GAS_COMPRE": 151904, "OP_COMP_HR": 5504, "OP_NUM_COM": 1, "OP_DATE_PE": "Wed, 10 Jun 2020 00:00:00 GMT", "EXP_POWER": 0, "ELEC_COMPR": 0 }, "geometry": { "type": "Point", "coordinates": [ -103.006929923, 33.881287798000102 ] } },
{ "type": "Feature", "properties": { "OBJECTID": 855, "GCOMPID": "GCOMP538", "NAME": "STATION 202 - HERSCHER", "ADDRESS": "355 S 17000W ROAD", "CITY": "HERSCHER", "STATE": "IL", "ZIP": "60961", "ZIP4": "NOT AVAILABLE", "TYPE": "NATURAL GAS COMPRESSOR STATION", "STATUS": "IN SERVICE", "COUNTY": "KANKAKEE", "COUNTYFIPS": "17091", "COUNTRY": "USA", "LATITUDE": 41.10927999, "LONGITUDE": -88.191693373000007, "NAICS_CODE": "486210", "NAICS_DESC": "BOOSTER PUMPING STATION, NATURAL GAS TRANSPORTATION", "SOURCE": "EPA ENVIROFACTS, FERC FORM 2, CORPORATE WEBSITE", "SOURCEDATE": "Wed, 15 Jul 2020 00:00:00 GMT", "VAL_METHOD": "IMAGERY/OTHER", "VAL_DATE": "Fri, 17 Jun 2022 00:00:00 GMT", "WEBSITE": "http://www.kindermorgan.com/", "PIPECO": "NATURAL GAS PIPELINE COMPANY OF AMERICA L.L.C.", "COMPID": "26", "OPERATOR": "NATURAL GAS PIPELINE COMPANY OF AMERICA L.L.C.", "POSREL": "WITHIN 40 FEET", "NUM_UNITS": 5, "CERT_HP": 37300, "PLANT_COST": 210518724, "EXP_FUEL": 2509688, "EXP_OTHER": 0, "GAS_COMPRE": 1195819, "OP_COMP_HR": 14380, "OP_NUM_COM": 0, "OP_DATE_PE": null, "EXP_POWER": 0, "ELEC_COMPR": 0 }, "geometry": { "type": "Point", "coordinates": [ -88.191693372999893, 41.109279990000097 ] } },
{ "type": "Feature", "properties": { "OBJECTID": 860, "GCOMPID": "GCOMP542", "NAME": "STATION 203 - ARCOLA", "ADDRESS": "360 E COUNTY ROAD 000 N", "CITY": "ARCOLA", "STATE": "IL", "ZIP": "61910", "ZIP4": "NOT AVAILABLE", "TYPE": "NATURAL GAS COMPRESSOR STATION", "STATUS": "IN SERVICE", "COUNTY": "DOUGLAS", "COUNTYFIPS": "17041", "COUNTRY": "USA", "LATITUDE": 39.65254, "LONGITUDE": -88.39885, "NAICS_CODE": "486210", "NAICS_DESC": "BOOSTER PUMPING STATION, NATURAL GAS TRANSPORTATION", "SOURCE": "EPA ENVIROFACTS, FERC FORM 2, CORPORATE WEBSITE", "SOURCEDATE": "Wed, 15 Jul 2020 00:00:00 GMT", "VAL_METHOD": "IMAGERY/OTHER", "VAL_DATE": "Fri, 17 Jun 2022 00:00:00 GMT", "WEBSITE": "http://www.kindermorgan.com/", "PIPECO": "NATURAL GAS PIPELINE COMPANY OF AMERICA L.L.C.", "COMPID": "26", "OPERATOR": "NATURAL GAS PIPELINE COMPANY OF AMERICA L.L.C.", "POSREL": "WITHIN 40 FEET", "NUM_UNITS": 4, "CERT_HP": 3250, "PLANT_COST": 5765622, "EXP_FUEL": 0, "EXP_OTHER": 0, "GAS_COMPRE": 42863, "OP_COMP_HR": 4077, "OP_NUM_COM": 1, "OP_DATE_PE": "Tue, 07 Apr 2020 00:00:00 GMT", "EXP_POWER": 0, "ELEC_COMPR": 0 }, "geometry": { "type": "Point", "coordinates": [ -88.39885, 39.65254 ] } },
{ "type": "Feature", "properties": { "OBJECTID": 876, "GCOMPID": "GCOMP557", "NAME": "STATION 169 - HEREFORD", "ADDRESS": "3753 COUNTY ROAD 1", "CITY": "HEREFORD", "STATE": "TX", "ZIP": "79045", "ZIP4": "NOT AVAILABLE", "TYPE": "NATURAL GAS COMPRESSOR STATION", "STATUS": "IN SERVICE", "COUNTY": "DEAF SMITH", "COUNTYFIPS": "48117", "COUNTRY": "USA", "LATITUDE": 34.750057619000003, "LONGITUDE": -102.384454632, "NAICS_CODE": "486210", "NAICS_DESC": "BOOSTER PUMPING STATION, NATURAL GAS TRANSPORTATION", "SOURCE": "EPA ENVIROFACTS, FERC FORM 2, CORPORATE WEBSITE", "SOURCEDATE": "Wed, 15 Jul 2020 00:00:00 GMT", "VAL_METHOD": "IMAGERY/OTHER", "VAL_DATE": "Fri, 17 Jun 2022 00:00:00 GMT", "WEBSITE": "http://www.kindermorgan.com/", "PIPECO": "NATURAL GAS PIPELINE COMPANY OF AMERICA L.L.C.", "COMPID": "26", "OPERATOR": "NATURAL GAS PIPELINE COMPANY OF AMERICA L.L.C.", "POSREL": "WITHIN 40 FEET", "NUM_UNITS": 2, "CERT_HP": 8000, "PLANT_COST": 3628552, "EXP_FUEL": 0, "EXP_OTHER": 0, "GAS_COMPRE": 0, "OP_COMP_HR": 0, "OP_NUM_COM": 0, "OP_DATE_PE": "Mon, 01 Jan 2001 00:00:00 GMT", "EXP_POWER": 0, "ELEC_COMPR": 0 }, "geometry": { "type": "Point", "coordinates": [ -102.384454632, 34.750057619000103 ] } },
{ "type": "Feature", "properties": { "OBJECTID": 889, "GCOMPID": "GCOMP569", "NAME": "STATION 107 - EMERSON", "ADDRESS": "39080 HUTCHINGS AVENUE", "CITY": "HASTINGS", "STATE": "IA", "ZIP": "51540", "ZIP4": "NOT AVAILABLE", "TYPE": "NATURAL GAS COMPRESSOR STATION", "STATUS": "IN SERVICE", "COUNTY": "MILLS", "COUNTYFIPS": "19129", "COUNTRY": "USA", "LATITUDE": 41.058711043000002, "LONGITUDE": -95.449203843999996, "NAICS_CODE": "486210", "NAICS_DESC": "BOOSTER PUMPING STATION, NATURAL GAS TRANSPORTATION", "SOURCE": "EPA ENVIROFACTS, FERC FORM 2, CORPORATE WEBSITE", "SOURCEDATE": "Wed, 15 Jul 2020 00:00:00 GMT", "VAL_METHOD": "IMAGERY/OTHER", "VAL_DATE": "Fri, 17 Jun 2022 00:00:00 GMT", "WEBSITE": "http://www.kindermorgan.com/", "PIPECO": "NATURAL GAS PIPELINE COMPANY OF AMERICA L.L.C.", "COMPID": "26", "OPERATOR": "NATURAL GAS PIPELINE COMPANY OF AMERICA L.L.C.", "POSREL": "WITHIN 40 FEET", "NUM_UNITS": 7, "CERT_HP": 28300, "PLANT_COST": 33572205, "EXP_FUEL": 0, "EXP_OTHER": 0, "GAS_COMPRE": 889496, "OP_COMP_HR": 30115, "OP_NUM_COM": 4, "OP_DATE_PE": "Thu, 13 Feb 2020 00:00:00 GMT", "EXP_POWER": 0, "ELEC_COMPR": 0 }, "geometry": { "type": "Point", "coordinates": [ -95.449203844, 41.058711043000102 ] } },
{ "type": "Feature", "properties": { "OBJECTID": 953, "GCOMPID": "GCOMP628", "NAME": "STATION 341 - ROBSTOWN", "ADDRESS": "4518 FM-624", "CITY": "ROBSTOWN", "STATE": "TX", "ZIP": "78380", "ZIP4": "NOT AVAILABLE", "TYPE": "NATURAL GAS COMPRESSOR STATION", "STATUS": "IN SERVICE", "COUNTY": "NUECES", "COUNTYFIPS": "48355", "COUNTRY": "USA", "LATITUDE": 27.873182, "LONGITUDE": -97.716572, "NAICS_CODE": "486210", "NAICS_DESC": "BOOSTER PUMPING STATION, NATURAL GAS TRANSPORTATION", "SOURCE": "EPA ENVIROFACTS, FERC FORM 2, CORPORATE WEBSITE", "SOURCEDATE": "Wed, 15 Jul 2020 00:00:00 GMT", "VAL_METHOD": "IMAGERY/OTHER", "VAL_DATE": "Fri, 24 Jun 2022 00:00:00 GMT", "WEBSITE": "http://www.kindermorgan.com/", "PIPECO": "NATURAL GAS PIPELINE COMPANY OF AMERICA L.L.C.", "COMPID": "26", "OPERATOR": "NATURAL GAS PIPELINE COMPANY OF AMERICA L.L.C.", "POSREL": "WITHIN 40 FEET", "NUM_UNITS": 2, "CERT_HP": 6330, "PLANT_COST": 5659471, "EXP_FUEL": 0, "EXP_OTHER": 0, "GAS_COMPRE": 26, "OP_COMP_HR": 0, "OP_NUM_COM": 0, "OP_DATE_PE": "Mon, 01 Jan 2001 00:00:00 GMT", "EXP_POWER": 0, "ELEC_COMPR": 0 }, "geometry": { "type": "Point", "coordinates": [ -97.716572, 27.873182 ] } },
{ "type": "Feature", "properties": { "OBJECTID": 957, "GCOMPID": "GCOMP631", "NAME": "STATION 195 - HADDAM", "ADDRESS": "456 16TH ROAD", "CITY": "HADDAM", "STATE": "KS", "ZIP": "66944", "ZIP4": "NOT AVAILABLE", "TYPE": "NATURAL GAS COMPRESSOR STATION", "STATUS": "IN SERVICE", "COUNTY": "WASHINGTON", "COUNTYFIPS": "20201", "COUNTRY": "USA", "LATITUDE": 39.798476, "LONGITUDE": -97.326874, "NAICS_CODE": "486210", "NAICS_DESC": "BOOSTER PUMPING STATION, NATURAL GAS TRANSPORTATION", "SOURCE": "EPA ENVIROFACTS, FERC FORM 2, CORPORATE WEBSITE", "SOURCEDATE": "Wed, 15 Jul 2020 00:00:00 GMT", "VAL_METHOD": "IMAGERY/OTHER", "VAL_DATE": "Fri, 17 Jun 2022 00:00:00 GMT", "WEBSITE": "http://www.kindermorgan.com/", "PIPECO": "NATURAL GAS PIPELINE COMPANY OF AMERICA L.L.C.", "COMPID": "26", "OPERATOR": "NATURAL GAS PIPELINE COMPANY OF AMERICA L.L.C.", "POSREL": "WITHIN 40 FEET", "NUM_UNITS": 1, "CERT_HP": 12000, "PLANT_COST": 7712205, "EXP_FUEL": 0, "EXP_OTHER": 0, "GAS_COMPRE": 76376, "OP_COMP_HR": 0, "OP_NUM_COM": 0, "OP_DATE_PE": "Mon, 01 Jan 2001 00:00:00 GMT", "EXP_POWER": 0, "ELEC_COMPR": 0 }, "geometry": { "type": "Point", "coordinates": [ -97.326874, 39.7984760000001 ] } },
{ "type": "Feature", "properties": { "OBJECTID": 963, "GCOMPID": "GCOMP637", "NAME": "STATION 346 - GUEYDAN", "ADDRESS": "465 HARRYS ROAD", "CITY": "GUEYDAN", "STATE": "LA", "ZIP": "70542", "ZIP4": "NOT AVAILABLE", "TYPE": "NATURAL GAS COMPRESSOR STATION", "STATUS": "IN SERVICE", "COUNTY": "VERMILION PARISH", "COUNTYFIPS": "22023", "COUNTRY": "USA", "LATITUDE": 30.010114, "LONGITUDE": -92.729723, "NAICS_CODE": "486210", "NAICS_DESC": "BOOSTER PUMPING STATION, NATURAL GAS TRANSPORTATION", "SOURCE": "FERC FORM 2, IMAGERY", "SOURCEDATE": "Wed, 15 Jul 2020 00:00:00 GMT", "VAL_METHOD": "IMAGERY/OTHER", "VAL_DATE": "Fri, 17 Jun 2022 00:00:00 GMT", "WEBSITE": "http://www.kindermorgan.com/", "PIPECO": "NATURAL GAS PIPELINE COMPANY OF AMERICA L.L.C.", "COMPID": "26", "OPERATOR": "NATURAL GAS PIPELINE COMPANY OF AMERICA L.L.C.", "POSREL": "WITHIN 40 FEET", "NUM_UNITS": 4, "CERT_HP": 9800, "PLANT_COST": 9950024, "EXP_FUEL": 0, "EXP_OTHER": 0, "GAS_COMPRE": 41562, "OP_COMP_HR": 2225, "OP_NUM_COM": 3, "OP_DATE_PE": "Tue, 06 Oct 2020 00:00:00 GMT", "EXP_POWER": 0, "ELEC_COMPR": 0 }, "geometry": { "type": "Point", "coordinates": [ -92.729723, 30.010114 ] } },
{ "type": "Feature", "properties": { "OBJECTID": 968, "GCOMPID": "GCOMP641", "NAME": "STATION 155 - CHICO", "ADDRESS": "4688 FM-1810", "CITY": "CHICO", "STATE": "TX", "ZIP": "76431", "ZIP4": "NOT AVAILABLE", "TYPE": "NATURAL GAS COMPRESSOR STATION", "STATUS": "IN SERVICE", "COUNTY": "WISE", "COUNTYFIPS": "48497", "COUNTRY": "USA", "LATITUDE": 33.29367207, "LONGITUDE": -97.737786467999996, "NAICS_CODE": "486210", "NAICS_DESC": "BOOSTER PUMPING STATION, NATURAL GAS TRANSPORTATION", "SOURCE": "EPA ENVIROFACTS, FERC FORM 2, CORPORATE WEBSITE", "SOURCEDATE": "Wed, 15 Jul 2020 00:00:00 GMT", "VAL_METHOD": "IMAGERY/OTHER", "VAL_DATE": "Fri, 17 Jun 2022 00:00:00 GMT", "WEBSITE": "http://www.kindermorgan.com/", "PIPECO": "NATURAL GAS PIPELINE COMPANY OF AMERICA L.L.C.", "COMPID": "26", "OPERATOR": "NATURAL GAS PIPELINE COMPANY OF AMERICA L.L.C.", "POSREL": "WITHIN 40 FEET", "NUM_UNITS": 2, "CERT_HP": 5325, "PLANT_COST": 15160868, "EXP_FUEL": 0, "EXP_OTHER": 0, "GAS_COMPRE": 1442, "OP_COMP_HR": 87, "OP_NUM_COM": 1, "OP_DATE_PE": "Fri, 06 Jan 2012 00:00:00 GMT", "EXP_POWER": 0, "ELEC_COMPR": 0 }, "geometry": { "type": "Point", "coordinates": [ -97.737786468, 33.293672070000099 ] } },
{ "type": "Feature", "properties": { "OBJECTID": 1000, "GCOMPID": "GCOMP670", "NAME": "STATION 305 - TEXARKANA", "ADDRESS": "5121 JOEY LANE", "CITY": "TEXARKANA", "STATE": "AR", "ZIP": "71854", "ZIP4": "5059", "TYPE": "NATURAL GAS COMPRESSOR STATION", "STATUS": "IN SERVICE", "COUNTY": "MILLER", "COUNTYFIPS": "05091", "COUNTRY": "USA", "LATITUDE": 33.470209, "LONGITUDE": -93.944582, "NAICS_CODE": "486210", "NAICS_DESC": "BOOSTER PUMPING STATION, NATURAL GAS TRANSPORTATION", "SOURCE": "EPA ENVIROFACTS, FERC FORM 2, CORPORATE WEBSITE", "SOURCEDATE": "Wed, 15 Jul 2020 00:00:00 GMT", "VAL_METHOD": "IMAGERY/OTHER", "VAL_DATE": "Fri, 17 Jun 2022 00:00:00 GMT", "WEBSITE": "http://www.kindermorgan.com/", "PIPECO": "NATURAL GAS PIPELINE COMPANY OF AMERICA L.L.C.", "COMPID": "26", "OPERATOR": "NATURAL GAS PIPELINE COMPANY OF AMERICA L.L.C.", "POSREL": "WITHIN 40 FEET", "NUM_UNITS": 9, "CERT_HP": 29650, "PLANT_COST": 14903188, "EXP_FUEL": 0, "EXP_OTHER": 0, "GAS_COMPRE": 31411, "OP_COMP_HR": 1273, "OP_NUM_COM": 5, "OP_DATE_PE": "Fri, 24 Jan 2020 00:00:00 GMT", "EXP_POWER": 0, "ELEC_COMPR": 0 }, "geometry": { "type": "Point", "coordinates": [ -93.944582, 33.470209 ] } },
{ "type": "Feature", "properties": { "OBJECTID": 1037, "GCOMPID": "GCOMP703", "NAME": "STATION 306 - MALVERN", "ADDRESS": "5560 RIDGE ROAD", "CITY": "MALVERN", "STATE": "AR", "ZIP": "72104", "ZIP4": "9655", "TYPE": "NATURAL GAS COMPRESSOR STATION", "STATUS": "IN SERVICE", "COUNTY": "HOT SPRING", "COUNTYFIPS": "05059", "COUNTRY": "USA", "LATITUDE": 34.271164335999998, "LONGITUDE": -92.8152233, "NAICS_CODE": "486210", "NAICS_DESC": "BOOSTER PUMPING STATION, NATURAL GAS TRANSPORTATION", "SOURCE": "EPA ENVIROFACTS, FERC FORM 2, CORPORATE WEBSITE", "SOURCEDATE": "Wed, 15 Jul 2020 00:00:00 GMT", "VAL_METHOD": "IMAGERY/OTHER", "VAL_DATE": "Fri, 17 Jun 2022 00:00:00 GMT", "WEBSITE": "http://www.kindermorgan.com/", "PIPECO": "NATURAL GAS PIPELINE COMPANY OF AMERICA L.L.C.", "COMPID": "26", "OPERATOR": "NATURAL GAS PIPELINE COMPANY OF AMERICA L.L.C.", "POSREL": "WITHIN 40 FEET", "NUM_UNITS": 9, "CERT_HP": 29650, "PLANT_COST": 43907251, "EXP_FUEL": 0, "EXP_OTHER": 0, "GAS_COMPRE": 96438, "OP_COMP_HR": 4111, "OP_NUM_COM": 6, "OP_DATE_PE": "Fri, 20 Mar 2020 00:00:00 GMT", "EXP_POWER": 0, "ELEC_COMPR": 0 }, "geometry": { "type": "Point", "coordinates": [ -92.8152232999999, 34.271164336 ] } },
{ "type": "Feature", "properties": { "OBJECTID": 1038, "GCOMPID": "GCOMP704", "NAME": "STATION 342 - JOHNSON BAYOU", "ADDRESS": "5564 GULF BEACH HIGHWAY", "CITY": "JOHNSONS BAYOU", "STATE": "LA", "ZIP": "70631", "ZIP4": "4206", "TYPE": "NATURAL GAS COMPRESSOR STATION", "STATUS": "IN SERVICE", "COUNTY": "CAMERON PARISH", "COUNTYFIPS": "22023", "COUNTRY": "USA", "LATITUDE": 29.793447616000002, "LONGITUDE": -93.747895072999995, "NAICS_CODE": "486210", "NAICS_DESC": "BOOSTER PUMPING STATION, NATURAL GAS TRANSPORTATION", "SOURCE": "EPA ENVIROFACTS, FERC FORM 2, CORPORATE WEBSITE", "SOURCEDATE": "Wed, 15 Jul 2020 00:00:00 GMT", "VAL_METHOD": "IMAGERY/OTHER", "VAL_DATE": "Fri, 17 Jun 2022 00:00:00 GMT", "WEBSITE": "http://www.kindermorgan.com/", "PIPECO": "NATURAL GAS PIPELINE COMPANY OF AMERICA L.L.C.", "COMPID": "26", "OPERATOR": "NATURAL GAS PIPELINE COMPANY OF AMERICA L.L.C.", "POSREL": "WITHIN 40 FEET", "NUM_UNITS": 6, "CERT_HP": 19700, "PLANT_COST": 51578087, "EXP_FUEL": 0, "EXP_OTHER": 0, "GAS_COMPRE": 247782, "OP_COMP_HR": 6794, "OP_NUM_COM": 3, "OP_DATE_PE": "Tue, 10 Mar 2020 00:00:00 GMT", "EXP_POWER": 0, "ELEC_COMPR": 0 }, "geometry": { "type": "Point", "coordinates": [ -93.747895073, 29.793447616 ] } },
{ "type": "Feature", "properties": { "OBJECTID": 1043, "GCOMPID": "GCOMP709", "NAME": "STATION 201 - HERSCHER", "ADDRESS": "5611 S 12000 W ROAD", "CITY": "HERSCHER", "STATE": "IL", "ZIP": "60941", "ZIP4": "NOT AVAILABLE", "TYPE": "NATURAL GAS COMPRESSOR STATION", "STATUS": "IN SERVICE", "COUNTY": "KANKAKEE", "COUNTYFIPS": "17091", "COUNTRY": "USA", "LATITUDE": 41.034936365, "LONGITUDE": -88.090375127000001, "NAICS_CODE": "486210", "NAICS_DESC": "BOOSTER PUMPING STATION, NATURAL GAS TRANSPORTATION", "SOURCE": "EPA ENVIROFACTS, FERC FORM 2, CORPORATE WEBSITE", "SOURCEDATE": "Wed, 15 Jul 2020 00:00:00 GMT", "VAL_METHOD": "IMAGERY/OTHER", "VAL_DATE": "Fri, 17 Jun 2022 00:00:00 GMT", "WEBSITE": "http://www.kindermorgan.com/", "PIPECO": "NATURAL GAS PIPELINE COMPANY OF AMERICA L.L.C.", "COMPID": "26", "OPERATOR": "NATURAL GAS PIPELINE COMPANY OF AMERICA L.L.C.", "POSREL": "WITHIN 40 FEET", "NUM_UNITS": 15, "CERT_HP": 53820, "PLANT_COST": 86611297, "EXP_FUEL": 0, "EXP_OTHER": 0, "GAS_COMPRE": 335489, "OP_COMP_HR": 30958, "OP_NUM_COM": 9, "OP_DATE_PE": "Wed, 15 Jan 2020 00:00:00 GMT", "EXP_POWER": 0, "ELEC_COMPR": 0 }, "geometry": { "type": "Point", "coordinates": [ -88.090375127, 41.0349363650001 ] } },
{ "type": "Feature", "properties": { "OBJECTID": 1057, "GCOMPID": "GCOMP721", "NAME": "STATION 304 - MARSHALL", "ADDRESS": "583 TERRAPIN NECK ROAD", "CITY": "MARSHALL", "STATE": "TX", "ZIP": "75672", "ZIP4": "NOT AVAILABLE", "TYPE": "NATURAL GAS COMPRESSOR STATION", "STATUS": "IN SERVICE", "COUNTY": "HARRISON", "COUNTYFIPS": "48203", "COUNTRY": "USA", "LATITUDE": 32.407249, "LONGITUDE": -94.429694, "NAICS_CODE": "486210", "NAICS_DESC": "BOOSTER PUMPING STATION, NATURAL GAS TRANSPORTATION", "SOURCE": "EPA ENVIROFACTS, FERC FORM 2, CORPORATE WEBSITE", "SOURCEDATE": "Wed, 15 Jul 2020 00:00:00 GMT", "VAL_METHOD": "IMAGERY/OTHER", "VAL_DATE": "Fri, 17 Jun 2022 00:00:00 GMT", "WEBSITE": "http://www.kindermorgan.com/", "PIPECO": "NATURAL GAS PIPELINE COMPANY OF AMERICA L.L.C.", "COMPID": "26", "OPERATOR": "NATURAL GAS PIPELINE COMPANY OF AMERICA L.L.C.", "POSREL": "WITHIN 40 FEET", "NUM_UNITS": 9, "CERT_HP": 30850, "PLANT_COST": 20743575, "EXP_FUEL": 0, "EXP_OTHER": 0, "GAS_COMPRE": 1302, "OP_COMP_HR": 0, "OP_NUM_COM": 0, "OP_DATE_PE": "Mon, 01 Jan 2001 00:00:00 GMT", "EXP_POWER": 0, "ELEC_COMPR": 0 }, "geometry": { "type": "Point", "coordinates": [ -94.429694, 32.407249 ] } },
{ "type": "Feature", "properties": { "OBJECTID": 1058, "GCOMPID": "GCOMP722", "NAME": "STATION 157 - MARSHALL", "ADDRESS": "583 TERRAPIN NECK ROAD", "CITY": "MARSHALL", "STATE": "TX", "ZIP": "75672", "ZIP4": "4971", "TYPE": "NATURAL GAS COMPRESSOR STATION", "STATUS": "IN SERVICE", "COUNTY": "HARRISON", "COUNTYFIPS": "48203", "COUNTRY": "USA", "LATITUDE": 32.40708, "LONGITUDE": -94.42953, "NAICS_CODE": "486210", "NAICS_DESC": "BOOSTER PUMPING STATION, NATURAL GAS TRANSPORTATION", "SOURCE": "EPA ENVIROFACTS, FERC FORM 2, CORPORATE WEBSITE", "SOURCEDATE": "Wed, 15 Jul 2020 00:00:00 GMT", "VAL_METHOD": "IMAGERY/OTHER", "VAL_DATE": "Fri, 17 Jun 2022 00:00:00 GMT", "WEBSITE": "http://www.kindermorgan.com/", "PIPECO": "NATURAL GAS PIPELINE COMPANY OF AMERICA L.L.C.", "COMPID": "26", "OPERATOR": "NATURAL GAS PIPELINE COMPANY OF AMERICA L.L.C.", "POSREL": "WITHIN 40 FEET", "NUM_UNITS": 1, "CERT_HP": 400, "PLANT_COST": 564576, "EXP_FUEL": 0, "EXP_OTHER": 0, "GAS_COMPRE": 0, "OP_COMP_HR": 0, "OP_NUM_COM": 0, "OP_DATE_PE": null, "EXP_POWER": 0, "ELEC_COMPR": 0 }, "geometry": { "type": "Point", "coordinates": [ -94.42953, 32.4070800000001 ] } },
{ "type": "Feature", "properties": { "OBJECTID": 1060, "GCOMPID": "GCOMP724", "NAME": "STATION 311 - HAMMOND", "ADDRESS": "586 E ROUTE 36", "CITY": "HAMMOND", "STATE": "IL", "ZIP": "61929", "ZIP4": "NOT AVAILABLE", "TYPE": "NATURAL GAS COMPRESSOR STATION", "STATUS": "IN SERVICE", "COUNTY": "PIATT", "COUNTYFIPS": "17147", "COUNTRY": "USA", "LATITUDE": 39.794034, "LONGITUDE": -88.636165, "NAICS_CODE": "486210", "NAICS_DESC": "BOOSTER PUMPING STATION, NATURAL GAS TRANSPORTATION", "SOURCE": "EPA ENVIROFACTS, FERC FORM 2, CORPORATE WEBSITE", "SOURCEDATE": "Wed, 15 Jul 2020 00:00:00 GMT", "VAL_METHOD": "IMAGERY/OTHER", "VAL_DATE": "Fri, 17 Jun 2022 00:00:00 GMT", "WEBSITE": "http://www.kindermorgan.com/", "PIPECO": "NATURAL GAS PIPELINE COMPANY OF AMERICA L.L.C.", "COMPID": "26", "OPERATOR": "NATURAL GAS PIPELINE COMPANY OF AMERICA L.L.C.", "POSREL": "WITHIN 40 FEET", "NUM_UNITS": 8, "CERT_HP": 27800, "PLANT_COST": 16265757, "EXP_FUEL": 0, "EXP_OTHER": 0, "GAS_COMPRE": 51570, "OP_COMP_HR": 2220, "OP_NUM_COM": 6, "OP_DATE_PE": "Thu, 24 Dec 2020 00:00:00 GMT", "EXP_POWER": 0, "ELEC_COMPR": 0 }, "geometry": { "type": "Point", "coordinates": [ -88.636165, 39.794034000000103 ] } },
{ "type": "Feature", "properties": { "OBJECTID": 1134, "GCOMPID": "GCOMP791", "NAME": "STATION 105 - GLASCO", "ADDRESS": "673 DEER ROAD", "CITY": "GLASCO", "STATE": "KS", "ZIP": "67445", "ZIP4": "NOT AVAILABLE", "TYPE": "NATURAL GAS COMPRESSOR STATION", "STATUS": "IN SERVICE", "COUNTY": "CLOUD", "COUNTYFIPS": "20029", "COUNTRY": "USA", "LATITUDE": 39.366828013000003, "LONGITUDE": -97.799806216999997, "NAICS_CODE": "486210", "NAICS_DESC": "BOOSTER PUMPING STATION, NATURAL GAS TRANSPORTATION", "SOURCE": "EPA ENVIROFACTS, FERC FORM 2, CORPORATE WEBSITE", "SOURCEDATE": "Wed, 15 Jul 2020 00:00:00 GMT", "VAL_METHOD": "IMAGERY/OTHER", "VAL_DATE": "Fri, 17 Jun 2022 00:00:00 GMT", "WEBSITE": "http://www.kindermorgan.com/", "PIPECO": "NATURAL GAS PIPELINE COMPANY OF AMERICA L.L.C.", "COMPID": "26", "OPERATOR": "NATURAL GAS PIPELINE COMPANY OF AMERICA L.L.C.", "POSREL": "WITHIN 40 FEET", "NUM_UNITS": 3, "CERT_HP": 17100, "PLANT_COST": 16546802, "EXP_FUEL": 0, "EXP_OTHER": 0, "GAS_COMPRE": 916745, "OP_COMP_HR": 13662, "OP_NUM_COM": 3, "OP_DATE_PE": "Mon, 17 Feb 2020 00:00:00 GMT", "EXP_POWER": 0, "ELEC_COMPR": 0 }, "geometry": { "type": "Point", "coordinates": [ -97.799806217, 39.366828013 ] } },
{ "type": "Feature", "properties": { "OBJECTID": 1174, "GCOMPID": "GCOMP827", "NAME": "STATION 801 - RATLIFF CITY", "ADDRESS": "7212 CARGO ROAD", "CITY": "RATLIFF CITY", "STATE": "OK", "ZIP": "73481", "ZIP4": "NOT AVAILABLE", "TYPE": "NATURAL GAS COMPRESSOR STATION", "STATUS": "IN SERVICE", "COUNTY": "CARTER", "COUNTYFIPS": "40019", "COUNTRY": "USA", "LATITUDE": 34.464649653000002, "LONGITUDE": -97.5311796, "NAICS_CODE": "486210", "NAICS_DESC": "BOOSTER PUMPING STATION, NATURAL GAS TRANSPORTATION", "SOURCE": "EPA ENVIROFACTS, FERC FORM 2, CORPORATE WEBSITE", "SOURCEDATE": "Wed, 15 Jul 2020 00:00:00 GMT", "VAL_METHOD": "IMAGERY/OTHER", "VAL_DATE": "Fri, 17 Jun 2022 00:00:00 GMT", "WEBSITE": "http://www.kindermorgan.com/", "PIPECO": "NATURAL GAS PIPELINE COMPANY OF AMERICA L.L.C.", "COMPID": "26", "OPERATOR": "NATURAL GAS PIPELINE COMPANY OF AMERICA L.L.C.", "POSREL": "WITHIN 40 FEET", "NUM_UNITS": 4, "CERT_HP": 15120, "PLANT_COST": 28797552, "EXP_FUEL": 0, "EXP_OTHER": 0, "GAS_COMPRE": 614722, "OP_COMP_HR": 25356, "OP_NUM_COM": 4, "OP_DATE_PE": "Wed, 12 Feb 2020 00:00:00 GMT", "EXP_POWER": 0, "ELEC_COMPR": 0 }, "geometry": { "type": "Point", "coordinates": [ -97.5311796, 34.464649653 ] } },
{ "type": "Feature", "properties": { "OBJECTID": 1194, "GCOMPID": "GCOMP845", "NAME": "STATION 310 - CENTRALIA", "ADDRESS": "7609 HUEY ROAD", "CITY": "CENTRALIA", "STATE": "IL", "ZIP": "62801", "ZIP4": "NOT AVAILABLE", "TYPE": "NATURAL GAS COMPRESSOR STATION", "STATUS": "IN SERVICE", "COUNTY": "MARION", "COUNTYFIPS": "17121", "COUNTRY": "USA", "LATITUDE": 38.531317475000002, "LONGITUDE": -89.266106765000004, "NAICS_CODE": "486210", "NAICS_DESC": "BOOSTER PUMPING STATION, NATURAL GAS TRANSPORTATION", "SOURCE": "FERC FORM 2, IMAGERY", "SOURCEDATE": "Wed, 15 Jul 2020 00:00:00 GMT", "VAL_METHOD": "IMAGERY/OTHER", "VAL_DATE": "Fri, 17 Jun 2022 00:00:00 GMT", "WEBSITE": "http://www.kindermorgan.com/", "PIPECO": "NATURAL GAS PIPELINE COMPANY OF AMERICA L.L.C.", "COMPID": "26", "OPERATOR": "NATURAL GAS PIPELINE COMPANY OF AMERICA L.L.C.", "POSREL": "WITHIN 40 FEET", "NUM_UNITS": 9, "CERT_HP": 30600, "PLANT_COST": 16016894, "EXP_FUEL": 0, "EXP_OTHER": 0, "GAS_COMPRE": 244013, "OP_COMP_HR": 10335, "OP_NUM_COM": 7, "OP_DATE_PE": "Sat, 18 Jan 2020 00:00:00 GMT", "EXP_POWER": 0, "ELEC_COMPR": 0 }, "geometry": { "type": "Point", "coordinates": [ -89.266106764999904, 38.531317475 ] } },
{ "type": "Feature", "properties": { "OBJECTID": 1205, "GCOMPID": "GCOMP855", "NAME": "STATION 303 - LUFKIN", "ADDRESS": "7866 FM-58", "CITY": "LUFKIN", "STATE": "TX", "ZIP": "75901", "ZIP4": "NOT AVAILABLE", "TYPE": "NATURAL GAS COMPRESSOR STATION", "STATUS": "IN SERVICE", "COUNTY": "ANGELINA", "COUNTYFIPS": "48005", "COUNTRY": "USA", "LATITUDE": 31.243576, "LONGITUDE": -94.703197, "NAICS_CODE": "486210", "NAICS_DESC": "BOOSTER PUMPING STATION, NATURAL GAS TRANSPORTATION", "SOURCE": "EPA ENVIROFACTS, FERC FORM 2, CORPORATE WEBSITE", "SOURCEDATE": "Wed, 15 Jul 2020 00:00:00 GMT", "VAL_METHOD": "IMAGERY/OTHER", "VAL_DATE": "Fri, 17 Jun 2022 00:00:00 GMT", "WEBSITE": "http://www.kindermorgan.com/", "PIPECO": "NATURAL GAS PIPELINE COMPANY OF AMERICA L.L.C.", "COMPID": "26", "OPERATOR": "NATURAL GAS PIPELINE COMPANY OF AMERICA L.L.C.", "POSREL": "WITHIN 40 FEET", "NUM_UNITS": 2, "CERT_HP": 31800, "PLANT_COST": 69565585, "EXP_FUEL": 0, "EXP_OTHER": 0, "GAS_COMPRE": 1628031, "OP_COMP_HR": 14159, "OP_NUM_COM": 2, "OP_DATE_PE": "Sat, 11 Apr 2020 00:00:00 GMT", "EXP_POWER": 0, "ELEC_COMPR": 0 }, "geometry": { "type": "Point", "coordinates": [ -94.703197, 31.2435760000001 ] } },
{ "type": "Feature", "properties": { "OBJECTID": 1237, "GCOMPID": "GCOMP884", "NAME": "STATION 104 - GREAT BEND", "ADDRESS": "850 NW 40TH ROAD", "CITY": "GREAT BEND", "STATE": "KS", "ZIP": "67530", "ZIP4": "NOT AVAILABLE", "TYPE": "NATURAL GAS COMPRESSOR STATION", "STATUS": "IN SERVICE", "COUNTY": "BARTON", "COUNTYFIPS": "20009", "COUNTRY": "USA", "LATITUDE": 38.421351457999997, "LONGITUDE": -98.930328806999995, "NAICS_CODE": "486210", "NAICS_DESC": "BOOSTER PUMPING STATION, NATURAL GAS TRANSPORTATION", "SOURCE": "EPA ENVIROFACTS, FERC FORM 2, CORPORATE WEBSITE", "SOURCEDATE": "Wed, 15 Jul 2020 00:00:00 GMT", "VAL_METHOD": "IMAGERY/OTHER", "VAL_DATE": "Fri, 17 Jun 2022 00:00:00 GMT", "WEBSITE": "http://www.kindermorgan.com/", "PIPECO": "NATURAL GAS PIPELINE COMPANY OF AMERICA L.L.C.", "COMPID": "26", "OPERATOR": "NATURAL GAS PIPELINE COMPANY OF AMERICA L.L.C.", "POSREL": "WITHIN 40 FEET", "NUM_UNITS": 3, "CERT_HP": 20500, "PLANT_COST": 38122270, "EXP_FUEL": 0, "EXP_OTHER": 0, "GAS_COMPRE": 195115, "OP_COMP_HR": 11831, "OP_NUM_COM": 2, "OP_DATE_PE": "Thu, 13 Feb 2020 00:00:00 GMT", "EXP_POWER": 0, "ELEC_COMPR": 62416800 }, "geometry": { "type": "Point", "coordinates": [ -98.930328807, 38.421351458000103 ] } },
{ "type": "Feature", "properties": { "OBJECTID": 1244, "GCOMPID": "GCOMP890", "NAME": "STATION 154 - PAMPA", "ADDRESS": "8578 COUNTY ROAD 24", "CITY": "PAMPA", "STATE": "TX", "ZIP": "79065", "ZIP4": "NOT AVAILABLE", "TYPE": "NATURAL GAS COMPRESSOR STATION", "STATUS": "IN SERVICE", "COUNTY": "GRAY", "COUNTYFIPS": "48179", "COUNTRY": "USA", "LATITUDE": 35.546724214999998, "LONGITUDE": -100.664151371, "NAICS_CODE": "486210", "NAICS_DESC": "BOOSTER PUMPING STATION, NATURAL GAS TRANSPORTATION", "SOURCE": "EPA ENVIROFACTS, FERC FORM 2, CORPORATE WEBSITE", "SOURCEDATE": "Wed, 15 Jul 2020 00:00:00 GMT", "VAL_METHOD": "IMAGERY/OTHER", "VAL_DATE": "Fri, 17 Jun 2022 00:00:00 GMT", "WEBSITE": "http://www.kindermorgan.com/", "PIPECO": "NATURAL GAS PIPELINE COMPANY OF AMERICA L.L.C.", "COMPID": "26", "OPERATOR": "NATURAL GAS PIPELINE COMPANY OF AMERICA L.L.C.", "POSREL": "WITHIN 40 FEET", "NUM_UNITS": 5, "CERT_HP": 9120, "PLANT_COST": 8443851, "EXP_FUEL": 0, "EXP_OTHER": 0, "GAS_COMPRE": 153885, "OP_COMP_HR": 5229, "OP_NUM_COM": 2, "OP_DATE_PE": "Thu, 03 Dec 2020 00:00:00 GMT", "EXP_POWER": 0, "ELEC_COMPR": 0 }, "geometry": { "type": "Point", "coordinates": [ -100.664151371, 35.546724215 ] } },
{ "type": "Feature", "properties": { "OBJECTID": 1277, "GCOMPID": "GCOMP92", "NAME": "STATION 205 - KEOTA", "ADDRESS": "1155 200TH STREET", "CITY": "KEOTA", "STATE": "IA", "ZIP": "52248", "ZIP4": "NOT AVAILABLE", "TYPE": "NATURAL GAS COMPRESSOR STATION", "STATUS": "IN SERVICE", "COUNTY": "KEOKUK", "COUNTYFIPS": "19183", "COUNTRY": "USA", "LATITUDE": 41.365552004999998, "LONGITUDE": -91.918471707999998, "NAICS_CODE": "486210", "NAICS_DESC": "BOOSTER PUMPING STATION, NATURAL GAS TRANSPORTATION", "SOURCE": "EPA ENVIROFACTS, FERC FORM 2, CORPORATE WEBSITE", "SOURCEDATE": "Wed, 15 Jul 2020 00:00:00 GMT", "VAL_METHOD": "IMAGERY/OTHER", "VAL_DATE": "Fri, 17 Jun 2022 00:00:00 GMT", "WEBSITE": "http://www.kindermorgan.com/", "PIPECO": "NATURAL GAS PIPELINE COMPANY OF AMERICA L.L.C.", "COMPID": "26", "OPERATOR": "NATURAL GAS PIPELINE COMPANY OF AMERICA L.L.C.", "POSREL": "WITHIN 40 FEET", "NUM_UNITS": 5, "CERT_HP": 6670, "PLANT_COST": 17589447, "EXP_FUEL": 0, "EXP_OTHER": 0, "GAS_COMPRE": 16349, "OP_COMP_HR": 2755, "OP_NUM_COM": 1, "OP_DATE_PE": "Mon, 26 Oct 2020 00:00:00 GMT", "EXP_POWER": 0, "ELEC_COMPR": 0 }, "geometry": { "type": "Point", "coordinates": [ -91.918471708, 41.365552005 ] } },
{ "type": "Feature", "properties": { "OBJECTID": 1281, "GCOMPID": "GCOMP923", "NAME": "STATION 300 - VICTORIA", "ADDRESS": "9819 TX-185", "CITY": "VICTORIA", "STATE": "TX", "ZIP": "77905", "ZIP4": "1700", "TYPE": "NATURAL GAS COMPRESSOR STATION", "STATUS": "IN SERVICE", "COUNTY": "VICTORIA", "COUNTYFIPS": "48469", "COUNTRY": "USA", "LATITUDE": 28.685907258, "LONGITUDE": -96.922745802999998, "NAICS_CODE": "486210", "NAICS_DESC": "BOOSTER PUMPING STATION, NATURAL GAS TRANSPORTATION", "SOURCE": "EPA ENVIROFACTS, FERC FORM 2, CORPORATE WEBSITE", "SOURCEDATE": "Wed, 15 Jul 2020 00:00:00 GMT", "VAL_METHOD": "IMAGERY/OTHER", "VAL_DATE": "Fri, 17 Jun 2022 00:00:00 GMT", "WEBSITE": "http://www.kindermorgan.com/", "PIPECO": "NATURAL GAS PIPELINE COMPANY OF AMERICA L.L.C.", "COMPID": "26", "OPERATOR": "NATURAL GAS PIPELINE COMPANY OF AMERICA L.L.C.", "POSREL": "WITHIN 40 FEET", "NUM_UNITS": 2, "CERT_HP": 16000, "PLANT_COST": 40177704, "EXP_FUEL": 0, "EXP_OTHER": 0, "GAS_COMPRE": 0, "OP_COMP_HR": 4806, "OP_NUM_COM": 1, "OP_DATE_PE": "Tue, 11 Aug 2020 00:00:00 GMT", "EXP_POWER": 0, "ELEC_COMPR": 16974876 }, "geometry": { "type": "Point", "coordinates": [ -96.922745802999899, 28.6859072580001 ] } },
{ "type": "Feature", "properties": { "OBJECTID": 1295, "GCOMPID": "GCOMP936", "NAME": "STATION 67 - BEAVER", "ADDRESS": "BEAVER ROAD/HOLLOW N1340", "CITY": "FORGAN", "STATE": "OK", "ZIP": "73931", "ZIP4": "NOT AVAILABLE", "TYPE": "NATURAL GAS COMPRESSOR STATION", "STATUS": "IN SERVICE", "COUNTY": "BEAVER", "COUNTYFIPS": "40007", "COUNTRY": "USA", "LATITUDE": 36.8618255, "LONGITUDE": -100.605511925, "NAICS_CODE": "486210", "NAICS_DESC": "BOOSTER PUMPING STATION, NATURAL GAS TRANSPORTATION", "SOURCE": "EPA ENVIROFACTS, FERC FORM 2, CORPORATE WEBSITE", "SOURCEDATE": "Wed, 15 Jul 2020 00:00:00 GMT", "VAL_METHOD": "IMAGERY/OTHER", "VAL_DATE": "Fri, 17 Jun 2022 00:00:00 GMT", "WEBSITE": "http://www.kindermorgan.com/", "PIPECO": "NATURAL GAS PIPELINE COMPANY OF AMERICA L.L.C.", "COMPID": "26", "OPERATOR": "NATURAL GAS PIPELINE COMPANY OF AMERICA L.L.C.", "POSREL": "WITHIN 40 FEET", "NUM_UNITS": 1, "CERT_HP": 300, "PLANT_COST": 236219, "EXP_FUEL": 0, "EXP_OTHER": 0, "GAS_COMPRE": 13026, "OP_COMP_HR": 12, "OP_NUM_COM": 1, "OP_DATE_PE": "Sun, 14 Oct 2012 00:00:00 GMT", "EXP_POWER": 0, "ELEC_COMPR": 0 }, "geometry": { "type": "Point", "coordinates": [ -100.605511925, 36.861825500000101 ] } },
{ "type": "Feature", "properties": { "OBJECTID": 1355, "GCOMPID": "GCOMP990", "NAME": "STATION 206 - ST ELMO", "ADDRESS": "COUNTY ROAD 2100 E/COUNTY ROAD 2500 N", "CITY": "WRIGHTS CORNER", "STATE": "IL", "ZIP": "62414", "ZIP4": "NOT AVAILABLE", "TYPE": "NATURAL GAS COMPRESSOR STATION", "STATUS": "IN SERVICE", "COUNTY": "FAYETTE", "COUNTYFIPS": "17051", "COUNTRY": "USA", "LATITUDE": 39.102213, "LONGITUDE": -88.860062, "NAICS_CODE": "486210", "NAICS_DESC": "BOOSTER PUMPING STATION, NATURAL GAS TRANSPORTATION", "SOURCE": "FERC FORM 2, IMAGERY", "SOURCEDATE": "Wed, 15 Jul 2020 00:00:00 GMT", "VAL_METHOD": "IMAGERY/OTHER", "VAL_DATE": "Thu, 19 May 2022 00:00:00 GMT", "WEBSITE": "http://www.kindermorgan.com/", "PIPECO": "NATURAL GAS PIPELINE COMPANY OF AMERICA L.L.C.", "COMPID": "26", "OPERATOR": "NATURAL GAS PIPELINE COMPANY OF AMERICA L.L.C.", "POSREL": "WITHIN 40 FEET", "NUM_UNITS": 5, "CERT_HP": 8400, "PLANT_COST": 13048276, "EXP_FUEL": 0, "EXP_OTHER": 0, "GAS_COMPRE": 256647, "OP_COMP_HR": 10886, "OP_NUM_COM": 4, "OP_DATE_PE": "Sat, 01 Feb 2020 00:00:00 GMT", "EXP_POWER": 0, "ELEC_COMPR": 0 }, "geometry": { "type": "Point", "coordinates": [ -88.860062, 39.102213 ] } },
{ "type": "Feature", "properties": { "OBJECTID": null, "GCOMPID": null, "NAME": "312", "ADDRESS": null, "CITY": null, "STATE": null, "ZIP": null, "ZIP4": null, "TYPE": null, "STATUS": null, "COUNTY": null, "COUNTYFIPS": null, "COUNTRY": null, "LATITUDE": null, "LONGITUDE": null, "NAICS_CODE": null, "NAICS_DESC": null, "SOURCE": null, "SOURCEDATE": null, "VAL_METHOD": null, "VAL_DATE": null, "WEBSITE": null, "PIPECO": null, "COMPID": null, "OPERATOR": null, "POSREL": null, "NUM_UNITS": null, "CERT_HP": null, "PLANT_COST": null, "EXP_FUEL": null, "EXP_OTHER": null, "GAS_COMPRE": null, "OP_COMP_HR": null, "OP_NUM_COM": null, "OP_DATE_PE": null, "EXP_POWER": null, "ELEC_COMPR": null }, "geometry": { "type": "Point", "coordinates": [ -88.48668922166037, 40.622980292051686 ] } },
{ "type": "Feature", "properties": { "OBJECTID": null, "GCOMPID": null, "NAME": null, "ADDRESS": null, "CITY": null, "STATE": null, "ZIP": null, "ZIP4": null, "TYPE": null, "STATUS": null, "COUNTY": null, "COUNTYFIPS": null, "COUNTRY": null, "LATITUDE": null, "LONGITUDE": null, "NAICS_CODE": null, "NAICS_DESC": null, "SOURCE": null, "SOURCEDATE": null, "VAL_METHOD": null, "VAL_DATE": null, "WEBSITE": null, "PIPECO": null, "COMPID": null, "OPERATOR": null, "POSREL": null, "NUM_UNITS": null, "CERT_HP": null, "PLANT_COST": null, "EXP_FUEL": null, "EXP_OTHER": null, "GAS_COMPRE": null, "OP_COMP_HR": null, "OP_NUM_COM": null, "OP_DATE_PE": null, "EXP_POWER": null, "ELEC_COMPR": null }, "geometry": { "type": "Point", "coordinates": [ -96.635829143266989, 34.085861942682754 ] } },
{ "type": "Feature", "properties": { "OBJECTID": null, "GCOMPID": null, "NAME": null, "ADDRESS": null, "CITY": null, "STATE": null, "ZIP": null, "ZIP4": null, "TYPE": null, "STATUS": null, "COUNTY": null, "COUNTYFIPS": null, "COUNTRY": null, "LATITUDE": null, "LONGITUDE": null, "NAICS_CODE": null, "NAICS_DESC": null, "SOURCE": null, "SOURCEDATE": null, "VAL_METHOD": null, "VAL_DATE": null, "WEBSITE": null, "PIPECO": null, "COMPID": null, "OPERATOR": null, "POSREL": null, "NUM_UNITS": null, "CERT_HP": null, "PLANT_COST": null, "EXP_FUEL": null, "EXP_OTHER": null, "GAS_COMPRE": null, "OP_COMP_HR": null, "OP_NUM_COM": null, "OP_DATE_PE": null, "EXP_POWER": null, "ELEC_COMPR": null }, "geometry": { "type": "Point", "coordinates": [ -93.924772148267706, 29.747352610643667 ] } }
]
}
