{
"type": "FeatureCollection",
"name": "P0231-compressor-stations",
"crs": { "type": "name", "properties": { "name": "urn:ogc:def:crs:OGC:1.3:CRS84" } },
"features": [
{ "type": "Feature", "properties": { "OBJECTID": 40, "GCOMPID": "GCOMP1033", "NAME": "#6 - ROSALIA", "ADDRESS": "EAST 315 BABB ROAD", "CITY": "ROSALIA", "STATE": "WA", "ZIP": "99170", "ZIP4": "NOT AVAILABLE", "TYPE": "NATURAL GAS COMPRESSOR STATION", "STATUS": "IN SERVICE", "COUNTY": "SPOKANE", "COUNTYFIPS": "53063", "COUNTRY": "USA", "LATITUDE": 47.277471638000002, "LONGITUDE": -117.405781314, "NAICS_CODE": "486210", "NAICS_DESC": "BOOSTER PUMPING STATION, NATURAL GAS TRANSPORTATION", "SOURCE": "EPA ENVIROFACTS, FERC FORM 2, CORPORATE WEBSITE", "SOURCEDATE": "Wed, 15 Jul 2020 00:00:00 GMT", "VAL_METHOD": "IMAGERY/OTHER", "VAL_DATE": "Fri, 17 Jun 2022 00:00:00 GMT", "WEBSITE": "http://www.gastransmissionnw.com/", "PIPECO": "GAS TRANSMISSION NORTHWEST L.L.C.", "COMPID": "86", "OPERATOR": "GAS TRANSMISSION NORTHWEST L.L.C.", "POSREL": "WITHIN 40 FEET", "NUM_UNITS": 3, "CERT_HP": 95620, "PLANT_COST": 64417548, "EXP_FUEL": 5227038, "EXP_OTHER": 474848, "GAS_COMPRE": 1914666, "OP_COMP_HR": 15686, "OP_NUM_COM": 2, "OP_DATE_PE": "Wed, 01 Jan 2020 00:00:00 GMT", "EXP_POWER": 0, "ELEC_COMPR": 0 }, "geometry": { "type": "Point", "coordinates": [ -117.405781313999881, 47.277471638000087 ] } },
{ "type": "Feature", "properties": { "OBJECTID": 58, "GCOMPID": "GCOMP105", "NAME": "#11- MADRAS", "ADDRESS": "11900 US-26", "CITY": "MADRAS", "STATE": "OR", "ZIP": "97741", "ZIP4": "NOT AVAILABLE", "TYPE": "NATURAL GAS COMPRESSOR STATION", "STATUS": "IN SERVICE", "COUNTY": "JEFFERSON", "COUNTYFIPS": "41031", "COUNTRY": "USA", "LATITUDE": 44.438748867999998, "LONGITUDE": -121.035687904, "NAICS_CODE": "486210", "NAICS_DESC": "BOOSTER PUMPING STATION, NATURAL GAS TRANSPORTATION", "SOURCE": "EPA ENVIROFACTS, FERC FORM 2, CORPORATE WEBSITE", "SOURCEDATE": "Wed, 15 Jul 2020 00:00:00 GMT", "VAL_METHOD": "IMAGERY/OTHER", "VAL_DATE": "Fri, 17 Jun 2022 00:00:00 GMT", "WEBSITE": "http://www.gastransmissionnw.com/", "PIPECO": "GAS TRANSMISSION NORTHWEST L.L.C.", "COMPID": "86", "OPERATOR": "GAS TRANSMISSION NORTHWEST L.L.C.", "POSREL": "WITHIN 40 FEET", "NUM_UNITS": 2, "CERT_HP": 50200, "PLANT_COST": 34830767, "EXP_FUEL": 1905018, "EXP_OTHER": 259839, "GAS_COMPRE": 697809, "OP_COMP_HR": 6498, "OP_NUM_COM": 2, "OP_DATE_PE": "Tue, 18 Feb 2020 00:00:00 GMT", "EXP_POWER": 0, "ELEC_COMPR": 0 }, "geometry": { "type": "Point", "coordinates": [ -121.035687904000355, 44.438748868000062 ] } },
{ "type": "Feature", "properties": { "OBJECTID": 132, "GCOMPID": "GCOMP1117", "NAME": "#3- EASTPORT", "ADDRESS": "HIGHWAY 95 2 MILES S OF EASTPORT", "CITY": "BONNERS FERRY", "STATE": "ID", "ZIP": "83805", "ZIP4": "NOT AVAILABLE", "TYPE": "NATURAL GAS COMPRESSOR STATION", "STATUS": "IN SERVICE", "COUNTY": "BOUNDARY", "COUNTYFIPS": "16021", "COUNTRY": "USA", "LATITUDE": 48.966614, "LONGITUDE": -116.173813, "NAICS_CODE": "486210", "NAICS_DESC": "BOOSTER PUMPING STATION, NATURAL GAS TRANSPORTATION", "SOURCE": "EPA ENVIROFACTS, FERC FORM 2, CORPORATE WEBSITE", "SOURCEDATE": "Wed, 15 Jul 2020 00:00:00 GMT", "VAL_METHOD": "IMAGERY/OTHER", "VAL_DATE": "Fri, 17 Jun 2022 00:00:00 GMT", "WEBSITE": "http://www.gastransmissionnw.com/", "PIPECO": "GAS TRANSMISSION NORTHWEST L.L.C.", "COMPID": "86", "OPERATOR": "GAS TRANSMISSION NORTHWEST L.L.C.", "POSREL": "WITHIN 40 FEET", "NUM_UNITS": 2, "CERT_HP": 103000, "PLANT_COST": 68147390, "EXP_FUEL": 3478681, "EXP_OTHER": 234930, "GAS_COMPRE": 1274242, "OP_COMP_HR": 5579, "OP_NUM_COM": 2, "OP_DATE_PE": "Tue, 21 Jul 2020 00:00:00 GMT", "EXP_POWER": 0, "ELEC_COMPR": 0 }, "geometry": { "type": "Point", "coordinates": [ -116.173813000000109, 48.966614 ] } },
{ "type": "Feature", "properties": { "OBJECTID": 262, "GCOMPID": "GCOMP1234", "NAME": "#13- CHEMULT", "ADDRESS": "OR-138/HIGHWAY-97; WEST OF US-97", "CITY": "CHEMULT", "STATE": "OR", "ZIP": "97731", "ZIP4": "NOT AVAILABLE", "TYPE": "NATURAL GAS COMPRESSOR STATION", "STATUS": "IN SERVICE", "COUNTY": "KLAMATH", "COUNTYFIPS": "41035", "COUNTRY": "USA", "LATITUDE": 43.08216279, "LONGITUDE": -121.828351611, "NAICS_CODE": "486210", "NAICS_DESC": "BOOSTER PUMPING STATION, NATURAL GAS TRANSPORTATION", "SOURCE": "EPA ENVIROFACTS, FERC FORM 2, CORPORATE WEBSITE", "SOURCEDATE": "Wed, 15 Jul 2020 00:00:00 GMT", "VAL_METHOD": "IMAGERY/OTHER", "VAL_DATE": "Fri, 17 Jun 2022 00:00:00 GMT", "WEBSITE": "http://www.gastransmissionnw.com/", "PIPECO": "GAS TRANSMISSION NORTHWEST L.L.C.", "COMPID": "86", "OPERATOR": "GAS TRANSMISSION NORTHWEST L.L.C.", "POSREL": "WITHIN 40 FEET", "NUM_UNITS": 2, "CERT_HP": 57200, "PLANT_COST": 31880507, "EXP_FUEL": 1942622, "EXP_OTHER": 298811, "GAS_COMPRE": 711583, "OP_COMP_HR": 5959, "OP_NUM_COM": 2, "OP_DATE_PE": "Mon, 17 Aug 2020 00:00:00 GMT", "EXP_POWER": 0, "ELEC_COMPR": 0 }, "geometry": { "type": "Point", "coordinates": [ -121.828351610999889, 43.082162790000062 ] } },
{ "type": "Feature", "properties": { "OBJECTID": 645, "GCOMPID": "GCOMP349", "NAME": "#7 - STARBUCK", "ADDRESS": "21725 LYONS FERRY ROAD", "CITY": "PRESCOTT", "STATE": "WA", "ZIP": "99348", "ZIP4": "NOT AVAILABLE", "TYPE": "NATURAL GAS COMPRESSOR STATION", "STATUS": "IN SERVICE", "COUNTY": "WALLA WALLA", "COUNTYFIPS": "53071", "COUNTRY": "USA", "LATITUDE": 46.53565368, "LONGITUDE": -118.29353495, "NAICS_CODE": "486210", "NAICS_DESC": "BOOSTER PUMPING STATION, NATURAL GAS TRANSPORTATION", "SOURCE": "EPA ENVIROFACTS, FERC FORM 2, CORPORATE WEBSITE", "SOURCEDATE": "Wed, 15 Jul 2020 00:00:00 GMT", "VAL_METHOD": "IMAGERY/OTHER", "VAL_DATE": "Fri, 17 Jun 2022 00:00:00 GMT", "WEBSITE": "http://www.gastransmissionnw.com/", "PIPECO": "GAS TRANSMISSION NORTHWEST L.L.C.", "COMPID": "86", "OPERATOR": "GAS TRANSMISSION NORTHWEST L.L.C.", "POSREL": "WITHIN 40 FEET", "NUM_UNITS": 2, "CERT_HP": 108000, "PLANT_COST": 77626698, "EXP_FUEL": 3876259, "EXP_OTHER": 283574, "GAS_COMPRE": 1419875, "OP_COMP_HR": 5887, "OP_NUM_COM": 2, "OP_DATE_PE": "Wed, 12 Feb 2020 00:00:00 GMT", "EXP_POWER": 0, "ELEC_COMPR": 0 }, "geometry": { "type": "Point", "coordinates": [ -118.293534949999909, 46.535653680000053 ] } },
{ "type": "Feature", "properties": { "OBJECTID": 694, "GCOMPID": "GCOMP393", "NAME": "#4 - SANDPOINT", "ADDRESS": "237 SAMUELS ROAD", "CITY": "SANDPOINT", "STATE": "ID", "ZIP": "83864", "ZIP4": "NOT AVAILABLE", "TYPE": "NATURAL GAS COMPRESSOR STATION", "STATUS": "IN SERVICE", "COUNTY": "BONNER", "COUNTYFIPS": "16017", "COUNTRY": "USA", "LATITUDE": 48.435163203999998, "LONGITUDE": -116.48637199700001, "NAICS_CODE": "486210", "NAICS_DESC": "BOOSTER PUMPING STATION, NATURAL GAS TRANSPORTATION", "SOURCE": "EPA ENVIROFACTS, FERC FORM 2, CORPORATE WEBSITE", "SOURCEDATE": "Wed, 15 Jul 2020 00:00:00 GMT", "VAL_METHOD": "IMAGERY/OTHER", "VAL_DATE": "Fri, 17 Jun 2022 00:00:00 GMT", "WEBSITE": "http://www.gastransmissionnw.com/", "PIPECO": "GAS TRANSMISSION NORTHWEST L.L.C.", "COMPID": "86", "OPERATOR": "GAS TRANSMISSION NORTHWEST L.L.C.", "POSREL": "WITHIN 40 FEET", "NUM_UNITS": 3, "CERT_HP": 97200, "PLANT_COST": 64406891, "EXP_FUEL": 5784005, "EXP_OTHER": 438641, "GAS_COMPRE": 2118683, "OP_COMP_HR": 16235, "OP_NUM_COM": 3, "OP_DATE_PE": "Sat, 11 Jul 2020 00:00:00 GMT", "EXP_POWER": 0, "ELEC_COMPR": 0 }, "geometry": { "type": "Point", "coordinates": [ -116.486371997000163, 48.435163204000069 ] } },
{ "type": "Feature", "properties": { "OBJECTID": 705, "GCOMPID": "GCOMP402", "NAME": "#5 - ATHOL", "ADDRESS": "2400 E SEASONS ROAD", "CITY": "ATHOL", "STATE": "ID", "ZIP": "83801", "ZIP4": "NOT AVAILABLE", "TYPE": "NATURAL GAS COMPRESSOR STATION", "STATUS": "IN SERVICE", "COUNTY": "KOOTENAI", "COUNTYFIPS": "16055", "COUNTRY": "USA", "LATITUDE": 47.916723058000002, "LONGITUDE": -116.754691773, "NAICS_CODE": "486210", "NAICS_DESC": "BOOSTER PUMPING STATION, NATURAL GAS TRANSPORTATION", "SOURCE": "EPA ENVIROFACTS, FERC FORM 2, CORPORATE WEBSITE", "SOURCEDATE": "Wed, 15 Jul 2020 00:00:00 GMT", "VAL_METHOD": "IMAGERY/OTHER", "VAL_DATE": "Fri, 17 Jun 2022 00:00:00 GMT", "WEBSITE": "http://www.gastransmissionnw.com/", "PIPECO": "GAS TRANSMISSION NORTHWEST L.L.C.", "COMPID": "86", "OPERATOR": "GAS TRANSMISSION NORTHWEST L.L.C.", "POSREL": "WITHIN 40 FEET", "NUM_UNITS": 1, "CERT_HP": 98600, "PLANT_COST": 77655555, "EXP_FUEL": 3687992, "EXP_OTHER": 263033, "GAS_COMPRE": 1350913, "OP_COMP_HR": 7055, "OP_NUM_COM": 2, "OP_DATE_PE": "Fri, 31 Jan 2020 00:00:00 GMT", "EXP_POWER": 0, "ELEC_COMPR": 0 }, "geometry": { "type": "Point", "coordinates": [ -116.754691773000289, 47.916723058000052 ] } },
{ "type": "Feature", "properties": { "OBJECTID": 853, "GCOMPID": "GCOMP536", "NAME": "#560 - STANFIELD", "ADDRESS": "35078 GUTHERY LANE; .8 MILES E OF STANFIELD LOOP ROAD", "CITY": "STANFIELD", "STATE": "OR", "ZIP": "97875", "ZIP4": "NOT AVAILABLE", "TYPE": "NATURAL GAS COMPRESSOR STATION", "STATUS": "IN SERVICE", "COUNTY": "UMATILLA", "COUNTYFIPS": "41059", "COUNTRY": "USA", "LATITUDE": 45.828377234999998, "LONGITUDE": -119.138255669, "NAICS_CODE": "486210", "NAICS_DESC": "BOOSTER PUMPING STATION, NATURAL GAS TRANSPORTATION", "SOURCE": "EPA ENVIROFACTS, FERC FORM 2, CORPORATE WEBSITE", "SOURCEDATE": "Wed, 15 Jul 2020 00:00:00 GMT", "VAL_METHOD": "IMAGERY/OTHER", "VAL_DATE": "Fri, 17 Jun 2022 00:00:00 GMT", "WEBSITE": "http://www.gastransmissionnw.com/", "PIPECO": "GAS TRANSMISSION NORTHWEST L.L.C.", "COMPID": "86", "OPERATOR": "GAS TRANSMISSION NORTHWEST L.L.C.", "POSREL": "WITHIN 40 FEET", "NUM_UNITS": 1, "CERT_HP": 3180, "PLANT_COST": 5388976, "EXP_FUEL": 0, "EXP_OTHER": 68303, "GAS_COMPRE": 0, "OP_COMP_HR": 0, "OP_NUM_COM": 1, "OP_DATE_PE": "Fri, 02 Oct 2020 00:00:00 GMT", "EXP_POWER": 0, "ELEC_COMPR": 0 }, "geometry": { "type": "Point", "coordinates": [ -119.138255668999818, 45.828377235000048 ] } },
{ "type": "Feature", "properties": { "OBJECTID": 1039, "GCOMPID": "GCOMP705", "NAME": "#12- BEND", "ADDRESS": "55640 S. HIGHWAY 97", "CITY": "SUNRIVER", "STATE": "OR", "ZIP": "97707", "ZIP4": "NOT AVAILABLE", "TYPE": "NATURAL GAS COMPRESSOR STATION", "STATUS": "IN SERVICE", "COUNTY": "DESCHUTES", "COUNTYFIPS": "41017", "COUNTRY": "USA", "LATITUDE": 43.821468795999998, "LONGITUDE": -121.422907928, "NAICS_CODE": "486210", "NAICS_DESC": "BOOSTER PUMPING STATION, NATURAL GAS TRANSPORTATION", "SOURCE": "EPA ENVIROFACTS, FERC FORM 2, CORPORATE WEBSITE", "SOURCEDATE": "Wed, 15 Jul 2020 00:00:00 GMT", "VAL_METHOD": "IMAGERY/OTHER", "VAL_DATE": "Fri, 17 Jun 2022 00:00:00 GMT", "WEBSITE": "http://www.gastransmissionnw.com/", "PIPECO": "GAS TRANSMISSION NORTHWEST L.L.C.", "COMPID": "86", "OPERATOR": "GAS TRANSMISSION NORTHWEST L.L.C.", "POSREL": "WITHIN 40 FEET", "NUM_UNITS": 3, "CERT_HP": 100800, "PLANT_COST": 61239795, "EXP_FUEL": 3727203, "EXP_OTHER": 317379, "GAS_COMPRE": 1365276, "OP_COMP_HR": 11526, "OP_NUM_COM": 3, "OP_DATE_PE": "Wed, 12 Feb 2020 00:00:00 GMT", "EXP_POWER": 0, "ELEC_COMPR": 0 }, "geometry": { "type": "Point", "coordinates": [ -121.422907927999972, 43.821468796000033 ] } },
{ "type": "Feature", "properties": { "OBJECTID": 1047, "GCOMPID": "GCOMP712", "NAME": "#14- BONANZA", "ADDRESS": "5745 HARPOLD ROAD; 3 MILES SOUTH OF BONANZA ON HARPOLD ROAD", "CITY": "BONANZA", "STATE": "OR", "ZIP": "97623", "ZIP4": "NOT AVAILABLE", "TYPE": "NATURAL GAS COMPRESSOR STATION", "STATUS": "IN SERVICE", "COUNTY": "KLAMATH", "COUNTYFIPS": "41035", "COUNTRY": "USA", "LATITUDE": 42.173989808999998, "LONGITUDE": -121.43945431500001, "NAICS_CODE": "486210", "NAICS_DESC": "BOOSTER PUMPING STATION, NATURAL GAS TRANSPORTATION", "SOURCE": "EPA ENVIROFACTS, FERC FORM 2, CORPORATE WEBSITE", "SOURCEDATE": "Wed, 15 Jul 2020 00:00:00 GMT", "VAL_METHOD": "IMAGERY/OTHER", "VAL_DATE": "Fri, 17 Jun 2022 00:00:00 GMT", "WEBSITE": "http://www.gastransmissionnw.com/", "PIPECO": "GAS TRANSMISSION NORTHWEST L.L.C.", "COMPID": "86", "OPERATOR": "GAS TRANSMISSION NORTHWEST L.L.C.", "POSREL": "WITHIN 40 FEET", "NUM_UNITS": 2, "CERT_HP": 63200, "PLANT_COST": 54401018, "EXP_FUEL": 3312934, "EXP_OTHER": 273810, "GAS_COMPRE": 1213529, "OP_COMP_HR": 9681, "OP_NUM_COM": 2, "OP_DATE_PE": "Mon, 17 Feb 2020 00:00:00 GMT", "EXP_POWER": 0, "ELEC_COMPR": 0 }, "geometry": { "type": "Point", "coordinates": [ -121.439454314999907, 42.173989809000048 ] } },
{ "type": "Feature", "properties": { "OBJECTID": 1075, "GCOMPID": "GCOMP738", "NAME": "#9- IONE", "ADDRESS": "60716 IONE GOOSEBERRY ROAD", "CITY": "IONE", "STATE": "OR", "ZIP": "97843", "ZIP4": "NOT AVAILABLE", "TYPE": "NATURAL GAS COMPRESSOR STATION", "STATUS": "IN SERVICE", "COUNTY": "MORROW", "COUNTYFIPS": "41049", "COUNTRY": "USA", "LATITUDE": 45.489317950999997, "LONGITUDE": -119.84877992, "NAICS_CODE": "486210", "NAICS_DESC": "BOOSTER PUMPING STATION, NATURAL GAS TRANSPORTATION", "SOURCE": "EPA ENVIROFACTS, FERC FORM 2, CORPORATE WEBSITE", "SOURCEDATE": "Wed, 15 Jul 2020 00:00:00 GMT", "VAL_METHOD": "IMAGERY/OTHER", "VAL_DATE": "Fri, 17 Jun 2022 00:00:00 GMT", "WEBSITE": "http://www.gastransmissionnw.com/", "PIPECO": "GAS TRANSMISSION NORTHWEST L.L.C.", "COMPID": "86", "OPERATOR": "GAS TRANSMISSION NORTHWEST L.L.C.", "POSREL": "WITHIN 40 FEET", "NUM_UNITS": 2, "CERT_HP": 56400, "PLANT_COST": 41008267, "EXP_FUEL": 1858049, "EXP_OTHER": 204419, "GAS_COMPRE": 680604, "OP_COMP_HR": 6945, "OP_NUM_COM": 2, "OP_DATE_PE": "Tue, 23 Jun 2020 00:00:00 GMT", "EXP_POWER": 0, "ELEC_COMPR": 0 }, "geometry": { "type": "Point", "coordinates": [ -119.848779919999899, 45.489317951000061 ] } },
{ "type": "Feature", "properties": { "OBJECTID": 1102, "GCOMPID": "GCOMP762", "NAME": "#8 - WALLULA", "ADDRESS": "638 LAMBDIN ROAD", "CITY": "WALLULA", "STATE": "WA", "ZIP": "99360", "ZIP4": "NOT AVAILABLE", "TYPE": "NATURAL GAS COMPRESSOR STATION", "STATUS": "IN SERVICE", "COUNTY": "WALLA WALLA", "COUNTYFIPS": "53071", "COUNTRY": "USA", "LATITUDE": 46.053148788999998, "LONGITUDE": -118.843891715, "NAICS_CODE": "486210", "NAICS_DESC": "BOOSTER PUMPING STATION, NATURAL GAS TRANSPORTATION", "SOURCE": "EPA ENVIROFACTS, FERC FORM 2, CORPORATE WEBSITE", "SOURCEDATE": "Wed, 15 Jul 2020 00:00:00 GMT", "VAL_METHOD": "IMAGERY/OTHER", "VAL_DATE": "Fri, 17 Jun 2022 00:00:00 GMT", "WEBSITE": "http://www.gastransmissionnw.com/", "PIPECO": "GAS TRANSMISSION NORTHWEST L.L.C.", "COMPID": "86", "OPERATOR": "GAS TRANSMISSION NORTHWEST L.L.C.", "POSREL": "WITHIN 40 FEET", "NUM_UNITS": 3, "CERT_HP": 103200, "PLANT_COST": 91937462, "EXP_FUEL": 6831394, "EXP_OTHER": 601010, "GAS_COMPRE": 2502342, "OP_COMP_HR": 17089, "OP_NUM_COM": 3, "OP_DATE_PE": "Mon, 14 Dec 2020 00:00:00 GMT", "EXP_POWER": 0, "ELEC_COMPR": 0 }, "geometry": { "type": "Point", "coordinates": [ -118.843891714999614, 46.053148789000041 ] } },
{ "type": "Feature", "properties": { "OBJECTID": 1278, "GCOMPID": "GCOMP920", "NAME": "#10 - KENT", "ADDRESS": "97135 WILCOX LANE", "CITY": "KENT", "STATE": "OR", "ZIP": "97033", "ZIP4": "NOT AVAILABLE", "TYPE": "NATURAL GAS COMPRESSOR STATION", "STATUS": "IN SERVICE", "COUNTY": "SHERMAN", "COUNTYFIPS": "41055", "COUNTRY": "USA", "LATITUDE": 45.128360716000003, "LONGITUDE": -120.613935794, "NAICS_CODE": "486210", "NAICS_DESC": "BOOSTER PUMPING STATION, NATURAL GAS TRANSPORTATION", "SOURCE": "EPA ENVIROFACTS, FERC FORM 2, CORPORATE WEBSITE", "SOURCEDATE": "Wed, 15 Jul 2020 00:00:00 GMT", "VAL_METHOD": "IMAGERY/OTHER", "VAL_DATE": "Fri, 17 Jun 2022 00:00:00 GMT", "WEBSITE": "http://www.gastransmissionnw.com/", "PIPECO": "GAS TRANSMISSION NORTHWEST L.L.C.", "COMPID": "86", "OPERATOR": "GAS TRANSMISSION NORTHWEST L.L.C.", "POSREL": "WITHIN 40 FEET", "NUM_UNITS": 2, "CERT_HP": 95800, "PLANT_COST": 58980333, "EXP_FUEL": 3677870, "EXP_OTHER": 318454, "GAS_COMPRE": 1347205, "OP_COMP_HR": 11090, "OP_NUM_COM": 2, "OP_DATE_PE": "Thu, 06 Feb 2020 00:00:00 GMT", "EXP_POWER": 0, "ELEC_COMPR": 0 }, "geometry": { "type": "Point", "coordinates": [ -120.613935794000255, 45.128360716000039 ] } }
]
}
