{
"type": "FeatureCollection",
"name": "P0230-compressor-stations",
"crs": { "type": "name", "properties": { "name": "urn:ogc:def:crs:OGC:1.3:CRS84" } },
"features": [
{ "type": "Feature", "properties": { "OBJECTID": 8, "GCOMPID": "GCOMP1004", "NAME": "KEMMERER", "ADDRESS": "COUNTY ROAD 300; SW1/4,S2,SE1/4,S3,T32N,R118W", "CITY": "KEMMERER", "STATE": "WY", "ZIP": "83101", "ZIP4": "NOT AVAILABLE", "TYPE": "NATURAL GAS COMPRESSOR STATION", "STATUS": "IN SERVICE", "COUNTY": "LINCOLN", "COUNTYFIPS": "56023", "COUNTRY": "USA", "LATITUDE": 41.823104066, "LONGITUDE": -110.79015274, "NAICS_CODE": "486210", "NAICS_DESC": "BOOSTER PUMPING STATION, NATURAL GAS TRANSPORTATION", "SOURCE": "EPA ENVIROFACTS, FERC FORM 2, CORPORATE WEBSITE", "SOURCEDATE": "Wed, 15 Jul 2020 00:00:00 GMT", "VAL_METHOD": "IMAGERY/OTHER", "VAL_DATE": "Fri, 17 Jun 2022 00:00:00 GMT", "WEBSITE": "https://www.williams.com/pipeline/northwest-pipeline/", "PIPECO": "NORTHWEST PIPELINE G.P.", "COMPID": "37", "OPERATOR": "NORTHWEST PIPELINE G.P.", "POSREL": "WITHIN 40 FEET", "NUM_UNITS": 5, "CERT_HP": 11200, "PLANT_COST": 20280753, "EXP_FUEL": 168123, "EXP_OTHER": 541229, "GAS_COMPRE": 74207, "OP_COMP_HR": 5850, "OP_NUM_COM": 3, "OP_DATE_PE": "Mon, 23 Nov 2020 00:00:00 GMT", "EXP_POWER": 0, "ELEC_COMPR": 0 }, "geometry": { "type": "Point", "coordinates": [ -110.79015274, 41.823104066 ] } },
{ "type": "Feature", "properties": { "OBJECTID": 28, "GCOMPID": "GCOMP1022", "NAME": "BUHL", "ADDRESS": "E 4900 N", "CITY": "BUHL", "STATE": "ID", "ZIP": "83316", "ZIP4": "NOT AVAILABLE", "TYPE": "NATURAL GAS COMPRESSOR STATION", "STATUS": "IN SERVICE", "COUNTY": "TWIN FALLS", "COUNTYFIPS": "16083", "COUNTRY": "USA", "LATITUDE": 42.709557542, "LONGITUDE": -114.886986772, "NAICS_CODE": "486210", "NAICS_DESC": "BOOSTER PUMPING STATION, NATURAL GAS TRANSPORTATION", "SOURCE": "EPA ENVIROFACTS, FERC FORM 2, CORPORATE WEBSITE", "SOURCEDATE": "Wed, 15 Jul 2020 00:00:00 GMT", "VAL_METHOD": "IMAGERY/OTHER", "VAL_DATE": "Fri, 17 Jun 2022 00:00:00 GMT", "WEBSITE": "https://www.williams.com/pipeline/northwest-pipeline/", "PIPECO": "NORTHWEST PIPELINE G.P.", "COMPID": "37", "OPERATOR": "NORTHWEST PIPELINE G.P.", "POSREL": "WITHIN 40 FEET", "NUM_UNITS": 2, "CERT_HP": 10200, "PLANT_COST": 21422470, "EXP_FUEL": 377276, "EXP_OTHER": 212168, "GAS_COMPRE": 162681, "OP_COMP_HR": 2405, "OP_NUM_COM": 2, "OP_DATE_PE": "Wed, 15 Apr 2020 00:00:00 GMT", "EXP_POWER": 0, "ELEC_COMPR": 0 }, "geometry": { "type": "Point", "coordinates": [ -114.886986772, 42.709557542 ] } },
{ "type": "Feature", "properties": { "OBJECTID": 47, "GCOMPID": "GCOMP104", "NAME": "FORT LEWIS", "ADDRESS": "11885 BALD HILL ROAD SE", "CITY": "YELM", "STATE": "WA", "ZIP": "98597", "ZIP4": "NOT AVAILABLE", "TYPE": "NATURAL GAS COMPRESSOR STATION", "STATUS": "IN SERVICE", "COUNTY": "THURSTON", "COUNTYFIPS": "53067", "COUNTRY": "USA", "LATITUDE": 46.913916694000001, "LONGITUDE": -122.559087546, "NAICS_CODE": "486210", "NAICS_DESC": "BOOSTER PUMPING STATION, NATURAL GAS TRANSPORTATION", "SOURCE": "FERC FORM 2, IMAGERY", "SOURCEDATE": "Wed, 15 Jul 2020 00:00:00 GMT", "VAL_METHOD": "IMAGERY/OTHER", "VAL_DATE": "Fri, 17 Jun 2022 00:00:00 GMT", "WEBSITE": "https://www.williams.com/pipeline/northwest-pipeline/", "PIPECO": "NORTHWEST PIPELINE G.P.", "COMPID": "37", "OPERATOR": "NORTHWEST PIPELINE G.P.", "POSREL": "WITHIN 40 FEET", "NUM_UNITS": 1, "CERT_HP": 4700, "PLANT_COST": 683466, "EXP_FUEL": 0, "EXP_OTHER": 0, "GAS_COMPRE": 0, "OP_COMP_HR": 0, "OP_NUM_COM": 0, "OP_DATE_PE": "Mon, 24 Aug 2015 00:00:00 GMT", "EXP_POWER": 0, "ELEC_COMPR": 0 }, "geometry": { "type": "Point", "coordinates": [ -122.559087546, 46.9139166940001 ] } },
{ "type": "Feature", "properties": { "OBJECTID": 70, "GCOMPID": "GCOMP1060", "NAME": "POCATELLO", "ADDRESS": "GAS LINE ROAD", "CITY": "POCATELLO", "STATE": "ID", "ZIP": "83204", "ZIP4": "NOT AVAILABLE", "TYPE": "NATURAL GAS COMPRESSOR STATION", "STATUS": "IN SERVICE", "COUNTY": "POWER", "COUNTYFIPS": "16077", "COUNTRY": "USA", "LATITUDE": 42.81772995, "LONGITUDE": -112.69992905, "NAICS_CODE": "486210", "NAICS_DESC": "BOOSTER PUMPING STATION, NATURAL GAS TRANSPORTATION", "SOURCE": "EPA ENVIROFACTS, FERC FORM 2, CORPORATE WEBSITE", "SOURCEDATE": "Wed, 15 Jul 2020 00:00:00 GMT", "VAL_METHOD": "IMAGERY/OTHER", "VAL_DATE": "Fri, 17 Jun 2022 00:00:00 GMT", "WEBSITE": "https://www.williams.com/pipeline/northwest-pipeline/", "PIPECO": "NORTHWEST PIPELINE G.P.", "COMPID": "37", "OPERATOR": "NORTHWEST PIPELINE G.P.", "POSREL": "WITHIN 40 FEET", "NUM_UNITS": 4, "CERT_HP": 9400, "PLANT_COST": 10267450, "EXP_FUEL": 451318, "EXP_OTHER": 676834, "GAS_COMPRE": 198920, "OP_COMP_HR": 11390, "OP_NUM_COM": 4, "OP_DATE_PE": "Wed, 15 Apr 2020 00:00:00 GMT", "EXP_POWER": 0, "ELEC_COMPR": 0 }, "geometry": { "type": "Point", "coordinates": [ -112.69992905, 42.8177299500001 ] } },
{ "type": "Feature", "properties": { "OBJECTID": 91, "GCOMPID": "GCOMP108", "NAME": "GOLDENDALE", "ADDRESS": "120 HOCTOR ROAD", "CITY": "GOLDENDALE", "STATE": "WA", "ZIP": "98620", "ZIP4": "NOT AVAILABLE", "TYPE": "NATURAL GAS COMPRESSOR STATION", "STATUS": "IN SERVICE", "COUNTY": "KLICKITAT", "COUNTYFIPS": "53039", "COUNTRY": "USA", "LATITUDE": 45.771300329, "LONGITUDE": -120.79946132000001, "NAICS_CODE": "486210", "NAICS_DESC": "BOOSTER PUMPING STATION, NATURAL GAS TRANSPORTATION", "SOURCE": "EPA ENVIROFACTS, FERC FORM 2, CORPORATE WEBSITE", "SOURCEDATE": "Wed, 15 Jul 2020 00:00:00 GMT", "VAL_METHOD": "IMAGERY/OTHER", "VAL_DATE": "Fri, 17 Jun 2022 00:00:00 GMT", "WEBSITE": "https://www.williams.com/pipeline/northwest-pipeline/", "PIPECO": "NORTHWEST PIPELINE G.P.", "COMPID": "37", "OPERATOR": "NORTHWEST PIPELINE G.P.", "POSREL": "WITHIN 40 FEET", "NUM_UNITS": 3, "CERT_HP": 19400, "PLANT_COST": 24141197, "EXP_FUEL": 1021540, "EXP_OTHER": 187666, "GAS_COMPRE": 436030, "OP_COMP_HR": 4953, "OP_NUM_COM": 3, "OP_DATE_PE": "Sat, 02 May 2020 00:00:00 GMT", "EXP_POWER": 0, "ELEC_COMPR": 0 }, "geometry": { "type": "Point", "coordinates": [ -120.79946132, 45.771300329 ] } },
{ "type": "Feature", "properties": { "OBJECTID": 326, "GCOMPID": "GCOMP1292", "NAME": "MUDDY CREEK", "ADDRESS": "SEC 25, T20N, R115W", "CITY": "KEMMERER", "STATE": "WY", "ZIP": "83101", "ZIP4": "NOT AVAILABLE", "TYPE": "NATURAL GAS COMPRESSOR STATION", "STATUS": "IN SERVICE", "COUNTY": "LINCOLN", "COUNTYFIPS": "56023", "COUNTRY": "USA", "LATITUDE": 41.694343843, "LONGITUDE": -110.36339660500001, "NAICS_CODE": "486210", "NAICS_DESC": "BOOSTER PUMPING STATION, NATURAL GAS TRANSPORTATION", "SOURCE": "EPA ENVIROFACTS, FERC FORM 2, CORPORATE WEBSITE", "SOURCEDATE": "Wed, 15 Jul 2020 00:00:00 GMT", "VAL_METHOD": "IMAGERY/OTHER", "VAL_DATE": "Fri, 17 Jun 2022 00:00:00 GMT", "WEBSITE": "https://www.williams.com/pipeline/northwest-pipeline/", "PIPECO": "NORTHWEST PIPELINE G.P.", "COMPID": "37", "OPERATOR": "NORTHWEST PIPELINE G.P.", "POSREL": "WITHIN 1 MILE", "NUM_UNITS": 2, "CERT_HP": 10520, "PLANT_COST": 17247476, "EXP_FUEL": 1469926, "EXP_OTHER": 187673, "GAS_COMPRE": 621678, "OP_COMP_HR": 8417, "OP_NUM_COM": 2, "OP_DATE_PE": "Wed, 09 Dec 2020 00:00:00 GMT", "EXP_POWER": 0, "ELEC_COMPR": 0 }, "geometry": { "type": "Point", "coordinates": [ -110.363396605, 41.694343843000098 ] } },
{ "type": "Feature", "properties": { "OBJECTID": 359, "GCOMPID": "GCOMP1321", "NAME": "OWYHEE", "ADDRESS": "T14S R2W S36 SE1/4", "CITY": "RIDDLE", "STATE": "ID", "ZIP": "83604", "ZIP4": "NOT AVAILABLE", "TYPE": "NATURAL GAS COMPRESSOR STATION", "STATUS": "IN SERVICE", "COUNTY": "OWYHEE", "COUNTYFIPS": "16073", "COUNTRY": "USA", "LATITUDE": 42.162181128, "LONGITUDE": -116.51254463799999, "NAICS_CODE": "486210", "NAICS_DESC": "BOOSTER PUMPING STATION, NATURAL GAS TRANSPORTATION", "SOURCE": "EPA ENVIROFACTS, FERC FORM 2, CORPORATE WEBSITE", "SOURCEDATE": "Wed, 15 Jul 2020 00:00:00 GMT", "VAL_METHOD": "IMAGERY/OTHER", "VAL_DATE": "Fri, 17 Jun 2022 00:00:00 GMT", "WEBSITE": "https://www.williams.com/pipeline/northwest-pipeline/", "PIPECO": "NORTHWEST PIPELINE G.P.", "COMPID": "37", "OPERATOR": "NORTHWEST PIPELINE G.P.", "POSREL": "WITHIN 40 FEET", "NUM_UNITS": 3, "CERT_HP": 4029, "PLANT_COST": 18642577, "EXP_FUEL": 51890, "EXP_OTHER": 308878, "GAS_COMPRE": 19618, "OP_COMP_HR": 31, "OP_NUM_COM": 1, "OP_DATE_PE": "Wed, 14 Oct 2020 00:00:00 GMT", "EXP_POWER": 0, "ELEC_COMPR": 0 }, "geometry": { "type": "Point", "coordinates": [ -116.512544638, 42.162181128 ] } },
{ "type": "Feature", "properties": { "OBJECTID": 368, "GCOMPID": "GCOMP133", "NAME": "WASHOUGAL", "ADDRESS": "1309 NE BROWN ROAD", "CITY": "WASHOUGAL", "STATE": "WA", "ZIP": "98671", "ZIP4": "9247", "TYPE": "NATURAL GAS COMPRESSOR STATION", "STATUS": "IN SERVICE", "COUNTY": "CLARK", "COUNTYFIPS": "53011", "COUNTRY": "USA", "LATITUDE": 45.63236, "LONGITUDE": -122.36516, "NAICS_CODE": "486210", "NAICS_DESC": "BOOSTER PUMPING STATION, NATURAL GAS TRANSPORTATION", "SOURCE": "EPA ENVIROFACTS, FERC FORM 2, CORPORATE WEBSITE", "SOURCEDATE": "Wed, 15 Jul 2020 00:00:00 GMT", "VAL_METHOD": "IMAGERY/OTHER", "VAL_DATE": "Fri, 17 Jun 2022 00:00:00 GMT", "WEBSITE": "https://www.williams.com/pipeline/northwest-pipeline/", "PIPECO": "NORTHWEST PIPELINE G.P.", "COMPID": "37", "OPERATOR": "NORTHWEST PIPELINE G.P.", "POSREL": "WITHIN 40 FEET", "NUM_UNITS": 2, "CERT_HP": 11700, "PLANT_COST": 23119051, "EXP_FUEL": 770724, "EXP_OTHER": 223247, "GAS_COMPRE": 339117, "OP_COMP_HR": 4815, "OP_NUM_COM": 2, "OP_DATE_PE": "Sat, 02 May 2020 00:00:00 GMT", "EXP_POWER": 0, "ELEC_COMPR": 0 }, "geometry": { "type": "Point", "coordinates": [ -122.36516, 45.63236 ] } },
{ "type": "Feature", "properties": { "OBJECTID": 397, "GCOMPID": "GCOMP1356", "NAME": "WILLARD", "ADDRESS": "WILLAROAD ROAD MILEPOST 1", "CITY": "COOK", "STATE": "WA", "ZIP": "98605", "ZIP4": "NOT AVAILABLE", "TYPE": "NATURAL GAS COMPRESSOR STATION", "STATUS": "IN SERVICE", "COUNTY": "SKAMANIA", "COUNTYFIPS": "53059", "COUNTRY": "USA", "LATITUDE": 45.778006485, "LONGITUDE": -121.626287077, "NAICS_CODE": "486210", "NAICS_DESC": "BOOSTER PUMPING STATION, NATURAL GAS TRANSPORTATION", "SOURCE": "EPA ENVIROFACTS, FERC FORM 2, CORPORATE WEBSITE", "SOURCEDATE": "Wed, 15 Jul 2020 00:00:00 GMT", "VAL_METHOD": "IMAGERY/OTHER", "VAL_DATE": "Fri, 17 Jun 2022 00:00:00 GMT", "WEBSITE": "https://www.williams.com/pipeline/northwest-pipeline/", "PIPECO": "NORTHWEST PIPELINE G.P.", "COMPID": "37", "OPERATOR": "NORTHWEST PIPELINE G.P.", "POSREL": "WITHIN 40 FEET", "NUM_UNITS": 3, "CERT_HP": 21700, "PLANT_COST": 30944042, "EXP_FUEL": 759053, "EXP_OTHER": 220355, "GAS_COMPRE": 345985, "OP_COMP_HR": 3674, "OP_NUM_COM": 3, "OP_DATE_PE": "Sat, 02 May 2020 00:00:00 GMT", "EXP_POWER": 0, "ELEC_COMPR": 0 }, "geometry": { "type": "Point", "coordinates": [ -121.626287077, 45.778006485 ] } },
{ "type": "Feature", "properties": { "OBJECTID": 482, "GCOMPID": "GCOMP201", "NAME": "MOUNT VERNON", "ADDRESS": "15498 LANGE ROAD", "CITY": "MOUNT VERNON", "STATE": "WA", "ZIP": "98273", "ZIP4": "NOT AVAILABLE", "TYPE": "NATURAL GAS COMPRESSOR STATION", "STATUS": "IN SERVICE", "COUNTY": "SKAGIT", "COUNTYFIPS": "53057", "COUNTRY": "USA", "LATITUDE": 48.422057795999997, "LONGITUDE": -122.215148024, "NAICS_CODE": "486210", "NAICS_DESC": "BOOSTER PUMPING STATION, NATURAL GAS TRANSPORTATION", "SOURCE": "EPA ENVIROFACTS, FERC FORM 2, CORPORATE WEBSITE", "SOURCEDATE": "Wed, 15 Jul 2020 00:00:00 GMT", "VAL_METHOD": "IMAGERY/OTHER", "VAL_DATE": "Fri, 17 Jun 2022 00:00:00 GMT", "WEBSITE": "https://www.williams.com/pipeline/northwest-pipeline/", "PIPECO": "NORTHWEST PIPELINE G.P.", "COMPID": "37", "OPERATOR": "NORTHWEST PIPELINE G.P.", "POSREL": "WITHIN 40 FEET", "NUM_UNITS": 4, "CERT_HP": 27120, "PLANT_COST": 45950225, "EXP_FUEL": 1169499, "EXP_OTHER": 574305, "GAS_COMPRE": 518426, "OP_COMP_HR": 4726, "OP_NUM_COM": 3, "OP_DATE_PE": "Wed, 01 Jan 2020 00:00:00 GMT", "EXP_POWER": 0, "ELEC_COMPR": 0 }, "geometry": { "type": "Point", "coordinates": [ -122.215148024, 48.422057796 ] } },
{ "type": "Feature", "properties": { "OBJECTID": 486, "GCOMPID": "GCOMP205", "NAME": "ZILLAH", "ADDRESS": "1570 N BONAIR ROAD", "CITY": "ZILLAH", "STATE": "WA", "ZIP": "98953", "ZIP4": "NOT AVAILABLE", "TYPE": "NATURAL GAS COMPRESSOR STATION", "STATUS": "IN SERVICE", "COUNTY": "YAKIMA", "COUNTYFIPS": "53077", "COUNTRY": "USA", "LATITUDE": 46.45537349, "LONGITUDE": -120.29230223899999, "NAICS_CODE": "486210", "NAICS_DESC": "BOOSTER PUMPING STATION, NATURAL GAS TRANSPORTATION", "SOURCE": "EPA ENVIROFACTS, FERC FORM 2, CORPORATE WEBSITE", "SOURCEDATE": "Wed, 15 Jul 2020 00:00:00 GMT", "VAL_METHOD": "IMAGERY/OTHER", "VAL_DATE": "Fri, 17 Jun 2022 00:00:00 GMT", "WEBSITE": "https://www.williams.com/pipeline/northwest-pipeline/", "PIPECO": "NORTHWEST PIPELINE G.P.", "COMPID": "37", "OPERATOR": "NORTHWEST PIPELINE G.P.", "POSREL": "WITHIN 40 FEET", "NUM_UNITS": 1, "CERT_HP": 1343, "PLANT_COST": 3930063, "EXP_FUEL": 228, "EXP_OTHER": 53310, "GAS_COMPRE": 99, "OP_COMP_HR": 1367, "OP_NUM_COM": 1, "OP_DATE_PE": "Tue, 14 Jan 2020 00:00:00 GMT", "EXP_POWER": 0, "ELEC_COMPR": 0 }, "geometry": { "type": "Point", "coordinates": [ -120.292302239, 46.455373490000099 ] } },
{ "type": "Feature", "properties": { "OBJECTID": 489, "GCOMPID": "GCOMP208", "NAME": "CHEHALIS JACKSON PRAIRIE", "ADDRESS": "158 W MEIER ROAD", "CITY": "CHEHALIS", "STATE": "WA", "ZIP": "98532", "ZIP4": "NOT AVAILABLE", "TYPE": "NATURAL GAS COMPRESSOR STATION", "STATUS": "IN SERVICE", "COUNTY": "LEWIS", "COUNTYFIPS": "53041", "COUNTRY": "USA", "LATITUDE": 46.533753, "LONGITUDE": -122.87374, "NAICS_CODE": "486210", "NAICS_DESC": "BOOSTER PUMPING STATION, NATURAL GAS TRANSPORTATION", "SOURCE": "EPA ENVIROFACTS, FERC FORM 2, CORPORATE WEBSITE", "SOURCEDATE": "Wed, 15 Jul 2020 00:00:00 GMT", "VAL_METHOD": "IMAGERY/OTHER", "VAL_DATE": "Fri, 17 Jun 2022 00:00:00 GMT", "WEBSITE": "https://www.williams.com/pipeline/northwest-pipeline/", "PIPECO": "NORTHWEST PIPELINE G.P.", "COMPID": "37", "OPERATOR": "NORTHWEST PIPELINE G.P.", "POSREL": "WITHIN 40 FEET", "NUM_UNITS": 2, "CERT_HP": 15110, "PLANT_COST": 35659955, "EXP_FUEL": 98495, "EXP_OTHER": 201998, "GAS_COMPRE": 52772, "OP_COMP_HR": 596, "OP_NUM_COM": 1, "OP_DATE_PE": "Wed, 12 Aug 2020 00:00:00 GMT", "EXP_POWER": 0, "ELEC_COMPR": 0 }, "geometry": { "type": "Point", "coordinates": [ -122.87374, 46.533753 ] } },
{ "type": "Feature", "properties": { "OBJECTID": 550, "GCOMPID": "GCOMP263", "NAME": "BAKER", "ADDRESS": "18117 CHANDLER LANE; T8S R39E S24 NE 1/4", "CITY": "BAKER CITY", "STATE": "OR", "ZIP": "97814", "ZIP4": "NOT AVAILABLE", "TYPE": "NATURAL GAS COMPRESSOR STATION", "STATUS": "IN SERVICE", "COUNTY": "BAKER", "COUNTYFIPS": "41001", "COUNTRY": "USA", "LATITUDE": 44.8567, "LONGITUDE": -117.8734, "NAICS_CODE": "486210", "NAICS_DESC": "BOOSTER PUMPING STATION, NATURAL GAS TRANSPORTATION", "SOURCE": "EPA ENVIROFACTS, FERC FORM 2, CORPORATE WEBSITE", "SOURCEDATE": "Wed, 15 Jul 2020 00:00:00 GMT", "VAL_METHOD": "IMAGERY/OTHER", "VAL_DATE": "Fri, 17 Jun 2022 00:00:00 GMT", "WEBSITE": "https://www.williams.com/pipeline/northwest-pipeline/", "PIPECO": "NORTHWEST PIPELINE G.P.", "COMPID": "37", "OPERATOR": "NORTHWEST PIPELINE G.P.", "POSREL": "WITHIN 40 FEET", "NUM_UNITS": 4, "CERT_HP": 6300, "PLANT_COST": 12989466, "EXP_FUEL": 144012, "EXP_OTHER": 329336, "GAS_COMPRE": 71054, "OP_COMP_HR": 5869, "OP_NUM_COM": 4, "OP_DATE_PE": "Sat, 11 Jul 2020 00:00:00 GMT", "EXP_POWER": 0, "ELEC_COMPR": 0 }, "geometry": { "type": "Point", "coordinates": [ -117.8734, 44.8567 ] } },
{ "type": "Feature", "properties": { "OBJECTID": 551, "GCOMPID": "GCOMP264", "NAME": "PLEASANT VIEW", "ADDRESS": "18162 COUNTY ROAD BB; NW NW SEC 10 T38N R17W 1879-264 ROAD", "CITY": "PLEASANT VIEW", "STATE": "CO", "ZIP": "81331", "ZIP4": "NOT AVAILABLE", "TYPE": "NATURAL GAS COMPRESSOR STATION", "STATUS": "IN SERVICE", "COUNTY": "MONTEZUMA", "COUNTYFIPS": "08083", "COUNTRY": "USA", "LATITUDE": 37.572456, "LONGITUDE": -108.716988, "NAICS_CODE": "486210", "NAICS_DESC": "BOOSTER PUMPING STATION, NATURAL GAS TRANSPORTATION", "SOURCE": "FERC FORM 2, CORPORATE WEBSITE", "SOURCEDATE": "Wed, 15 Jul 2020 00:00:00 GMT", "VAL_METHOD": "IMAGERY/OTHER", "VAL_DATE": "Fri, 17 Jun 2022 00:00:00 GMT", "WEBSITE": "https://www.williams.com/pipeline/northwest-pipeline/", "PIPECO": "NORTHWEST PIPELINE G.P.", "COMPID": "37", "OPERATOR": "NORTHWEST PIPELINE G.P.", "POSREL": "WITHIN 40 FEET", "NUM_UNITS": 2, "CERT_HP": 8780, "PLANT_COST": 15260923, "EXP_FUEL": 125052, "EXP_OTHER": 222376, "GAS_COMPRE": 65762, "OP_COMP_HR": 1694, "OP_NUM_COM": 1, "OP_DATE_PE": "Tue, 31 Mar 2020 00:00:00 GMT", "EXP_POWER": 0, "ELEC_COMPR": 0 }, "geometry": { "type": "Point", "coordinates": [ -108.716988, 37.572456 ] } },
{ "type": "Feature", "properties": { "OBJECTID": 553, "GCOMPID": "GCOMP266", "NAME": "OREGON CITY", "ADDRESS": "18343 SPRINGWATER ROAD SOUTH", "CITY": "OREGON CITY", "STATE": "OR", "ZIP": "97045", "ZIP4": "NOT AVAILABLE", "TYPE": "NATURAL GAS COMPRESSOR STATION", "STATUS": "IN SERVICE", "COUNTY": "CLACKAMAS", "COUNTYFIPS": "41005", "COUNTRY": "USA", "LATITUDE": 45.389862918, "LONGITUDE": -122.48640419199999, "NAICS_CODE": "486210", "NAICS_DESC": "BOOSTER PUMPING STATION, NATURAL GAS TRANSPORTATION", "SOURCE": "EPA ENVIROFACTS, FERC FORM 2, CORPORATE WEBSITE", "SOURCEDATE": "Wed, 15 Jul 2020 00:00:00 GMT", "VAL_METHOD": "IMAGERY/OTHER", "VAL_DATE": "Fri, 17 Jun 2022 00:00:00 GMT", "WEBSITE": "https://www.williams.com/pipeline/northwest-pipeline/", "PIPECO": "NORTHWEST PIPELINE G.P.", "COMPID": "37", "OPERATOR": "NORTHWEST PIPELINE G.P.", "POSREL": "WITHIN 40 FEET", "NUM_UNITS": 3, "CERT_HP": 5343, "PLANT_COST": 10279611, "EXP_FUEL": 378638, "EXP_OTHER": 452484, "GAS_COMPRE": 164677, "OP_COMP_HR": 11666, "OP_NUM_COM": 2, "OP_DATE_PE": "Sun, 29 Nov 2020 00:00:00 GMT", "EXP_POWER": 0, "ELEC_COMPR": 0 }, "geometry": { "type": "Point", "coordinates": [ -122.486404192, 45.389862918000098 ] } },
{ "type": "Feature", "properties": { "OBJECTID": 556, "GCOMPID": "GCOMP269", "NAME": "MOUNTAIN HOME", "ADDRESS": "18648 OLD OREGON TRAIL ROAD", "CITY": "MOUNTAIN HOME", "STATE": "ID", "ZIP": "83647", "ZIP4": "NOT AVAILABLE", "TYPE": "NATURAL GAS COMPRESSOR STATION", "STATUS": "IN SERVICE", "COUNTY": "ELMORE", "COUNTYFIPS": "16039", "COUNTRY": "USA", "LATITUDE": 43.038316207999998, "LONGITUDE": -115.456981351, "NAICS_CODE": "486210", "NAICS_DESC": "BOOSTER PUMPING STATION, NATURAL GAS TRANSPORTATION", "SOURCE": "EPA ENVIROFACTS, FERC FORM 2, CORPORATE WEBSITE", "SOURCEDATE": "Wed, 15 Jul 2020 00:00:00 GMT", "VAL_METHOD": "IMAGERY/OTHER", "VAL_DATE": "Fri, 17 Jun 2022 00:00:00 GMT", "WEBSITE": "https://www.williams.com/pipeline/northwest-pipeline/", "PIPECO": "NORTHWEST PIPELINE G.P.", "COMPID": "37", "OPERATOR": "NORTHWEST PIPELINE G.P.", "POSREL": "WITHIN 40 FEET", "NUM_UNITS": 3, "CERT_HP": 6000, "PLANT_COST": 9440606, "EXP_FUEL": 180333, "EXP_OTHER": 586840, "GAS_COMPRE": 82322, "OP_COMP_HR": 5332, "OP_NUM_COM": 1, "OP_DATE_PE": "Wed, 15 Apr 2020 00:00:00 GMT", "EXP_POWER": 0, "ELEC_COMPR": 0 }, "geometry": { "type": "Point", "coordinates": [ -115.456981351, 43.038316208 ] } },
{ "type": "Feature", "properties": { "OBJECTID": 643, "GCOMPID": "GCOMP347", "NAME": "LA PLATA A", "ADDRESS": "2165 COUNTY ROAD-318", "CITY": "IGNACIO", "STATE": "CO", "ZIP": "81137", "ZIP4": "NOT AVAILABLE", "TYPE": "NATURAL GAS COMPRESSOR STATION", "STATUS": "IN SERVICE", "COUNTY": "LA PLATA", "COUNTYFIPS": "08067", "COUNTRY": "USA", "LATITUDE": 37.098099865999998, "LONGITUDE": -107.769963719, "NAICS_CODE": "486210", "NAICS_DESC": "BOOSTER PUMPING STATION, NATURAL GAS TRANSPORTATION", "SOURCE": "EPA ENVIROFACTS, FERC FORM 2, CORPORATE WEBSITE", "SOURCEDATE": "Wed, 15 Jul 2020 00:00:00 GMT", "VAL_METHOD": "IMAGERY/OTHER", "VAL_DATE": "Fri, 17 Jun 2022 00:00:00 GMT", "WEBSITE": "https://www.williams.com/pipeline/northwest-pipeline/", "PIPECO": "NORTHWEST PIPELINE G.P.", "COMPID": "37", "OPERATOR": "NORTHWEST PIPELINE G.P.", "POSREL": "WITHIN 40 FEET", "NUM_UNITS": 2, "CERT_HP": 12500, "PLANT_COST": 1356172, "EXP_FUEL": 35734, "EXP_OTHER": 0, "GAS_COMPRE": 13656, "OP_COMP_HR": 0, "OP_NUM_COM": 0, "OP_DATE_PE": "Mon, 14 Sep 2015 00:00:00 GMT", "EXP_POWER": 0, "ELEC_COMPR": 0 }, "geometry": { "type": "Point", "coordinates": [ -107.769963719, 37.098099866 ] } },
{ "type": "Feature", "properties": { "OBJECTID": 674, "GCOMPID": "GCOMP375", "NAME": "GREEN RIVER", "ADDRESS": "229 MCKINNON ROAD; SEC 10, TWN 15 N, RANGE 109 W", "CITY": "GREEN RIVER", "STATE": "WY", "ZIP": "82938", "ZIP4": "NOT AVAILABLE", "TYPE": "NATURAL GAS COMPRESSOR STATION", "STATUS": "IN SERVICE", "COUNTY": "SWEETWATER", "COUNTYFIPS": "56037", "COUNTRY": "USA", "LATITUDE": 41.2973, "LONGITUDE": -109.685, "NAICS_CODE": "486210", "NAICS_DESC": "BOOSTER PUMPING STATION, NATURAL GAS TRANSPORTATION", "SOURCE": "EPA ENVIROFACTS, FERC FORM 2, CORPORATE WEBSITE", "SOURCEDATE": "Wed, 15 Jul 2020 00:00:00 GMT", "VAL_METHOD": "IMAGERY/OTHER", "VAL_DATE": "Fri, 17 Jun 2022 00:00:00 GMT", "WEBSITE": "https://www.williams.com/pipeline/northwest-pipeline/", "PIPECO": "NORTHWEST PIPELINE G.P.", "COMPID": "37", "OPERATOR": "NORTHWEST PIPELINE G.P.", "POSREL": "WITHIN 40 FEET", "NUM_UNITS": 5, "CERT_HP": 12130, "PLANT_COST": 16710786, "EXP_FUEL": 1171435, "EXP_OTHER": 1735624, "GAS_COMPRE": 484915, "OP_COMP_HR": 17962, "OP_NUM_COM": 5, "OP_DATE_PE": "Wed, 25 Nov 2020 00:00:00 GMT", "EXP_POWER": 0, "ELEC_COMPR": 0 }, "geometry": { "type": "Point", "coordinates": [ -109.685, 41.2973 ] } },
{ "type": "Feature", "properties": { "OBJECTID": 675, "GCOMPID": "GCOMP376", "NAME": "SNOHOMISH", "ADDRESS": "22902 ECHO LAKE ROAD", "CITY": "SNOHOMISH", "STATE": "WA", "ZIP": "98296", "ZIP4": "3990", "TYPE": "NATURAL GAS COMPRESSOR STATION", "STATUS": "IN SERVICE", "COUNTY": "SNOHOMISH", "COUNTYFIPS": "53061", "COUNTRY": "USA", "LATITUDE": 47.788323853999998, "LONGITUDE": -122.05818282200001, "NAICS_CODE": "486210", "NAICS_DESC": "BOOSTER PUMPING STATION, NATURAL GAS TRANSPORTATION", "SOURCE": "EPA ENVIROFACTS, FERC FORM 2, CORPORATE WEBSITE", "SOURCEDATE": "Wed, 15 Jul 2020 00:00:00 GMT", "VAL_METHOD": "IMAGERY/OTHER", "VAL_DATE": "Fri, 17 Jun 2022 00:00:00 GMT", "WEBSITE": "https://www.williams.com/pipeline/northwest-pipeline/", "PIPECO": "NORTHWEST PIPELINE G.P.", "COMPID": "37", "OPERATOR": "NORTHWEST PIPELINE G.P.", "POSREL": "WITHIN 40 FEET", "NUM_UNITS": 2, "CERT_HP": 26000, "PLANT_COST": 40777080, "EXP_FUEL": 1492130, "EXP_OTHER": 333760, "GAS_COMPRE": 621301, "OP_COMP_HR": 3504, "OP_NUM_COM": 2, "OP_DATE_PE": "Wed, 01 Jan 2020 00:00:00 GMT", "EXP_POWER": 0, "ELEC_COMPR": 0 }, "geometry": { "type": "Point", "coordinates": [ -122.058182822, 47.788323854000097 ] } },
{ "type": "Feature", "properties": { "OBJECTID": 742, "GCOMPID": "GCOMP436", "NAME": "PEGRAM", "ADDRESS": "2685 SORENSON ROH ROAD; S14 T15S R45E", "CITY": "PEGRAM", "STATE": "ID", "ZIP": "83254", "ZIP4": "NOT AVAILABLE", "TYPE": "NATURAL GAS COMPRESSOR STATION", "STATUS": "IN SERVICE", "COUNTY": "BEAR LAKE", "COUNTYFIPS": "16007", "COUNTRY": "USA", "LATITUDE": 42.12399268, "LONGITUDE": -111.15948033799999, "NAICS_CODE": "486210", "NAICS_DESC": "BOOSTER PUMPING STATION, NATURAL GAS TRANSPORTATION", "SOURCE": "EPA ENVIROFACTS, FERC FORM 2, CORPORATE WEBSITE", "SOURCEDATE": "Wed, 15 Jul 2020 00:00:00 GMT", "VAL_METHOD": "IMAGERY/OTHER", "VAL_DATE": "Fri, 17 Jun 2022 00:00:00 GMT", "WEBSITE": "https://www.williams.com/pipeline/northwest-pipeline/", "PIPECO": "NORTHWEST PIPELINE G.P.", "COMPID": "37", "OPERATOR": "NORTHWEST PIPELINE G.P.", "POSREL": "WITHIN 40 FEET", "NUM_UNITS": 2, "CERT_HP": 9090, "PLANT_COST": 15541868, "EXP_FUEL": 706618, "EXP_OTHER": 72446, "GAS_COMPRE": 311100, "OP_COMP_HR": 3667, "OP_NUM_COM": 2, "OP_DATE_PE": "Mon, 23 Nov 2020 00:00:00 GMT", "EXP_POWER": 0, "ELEC_COMPR": 0 }, "geometry": { "type": "Point", "coordinates": [ -111.159480338, 42.1239926800001 ] } },
{ "type": "Feature", "properties": { "OBJECTID": 758, "GCOMPID": "GCOMP450", "NAME": "BOISE", "ADDRESS": "28001 SOUTH ORCHARD ACCESS ROAD", "CITY": "BOISE", "STATE": "ID", "ZIP": "83716", "ZIP4": "NOT AVAILABLE", "TYPE": "NATURAL GAS COMPRESSOR STATION", "STATUS": "IN SERVICE", "COUNTY": "ADA", "COUNTYFIPS": "16001", "COUNTRY": "USA", "LATITUDE": 43.347013624, "LONGITUDE": -116.00616920500001, "NAICS_CODE": "486210", "NAICS_DESC": "BOOSTER PUMPING STATION, NATURAL GAS TRANSPORTATION", "SOURCE": "EPA ENVIROFACTS, FERC FORM 2, CORPORATE WEBSITE", "SOURCEDATE": "Wed, 15 Jul 2020 00:00:00 GMT", "VAL_METHOD": "IMAGERY/OTHER", "VAL_DATE": "Fri, 17 Jun 2022 00:00:00 GMT", "WEBSITE": "https://www.williams.com/pipeline/northwest-pipeline/", "PIPECO": "NORTHWEST PIPELINE G.P.", "COMPID": "37", "OPERATOR": "NORTHWEST PIPELINE G.P.", "POSREL": "WITHIN 40 FEET", "NUM_UNITS": 2, "CERT_HP": 13000, "PLANT_COST": 18758263, "EXP_FUEL": 509480, "EXP_OTHER": 268594, "GAS_COMPRE": 228940, "OP_COMP_HR": 3353, "OP_NUM_COM": 2, "OP_DATE_PE": "Wed, 15 Apr 2020 00:00:00 GMT", "EXP_POWER": 0, "ELEC_COMPR": 0 }, "geometry": { "type": "Point", "coordinates": [ -116.006169205, 43.347013624000098 ] } },
{ "type": "Feature", "properties": { "OBJECTID": 778, "GCOMPID": "GCOMP469", "NAME": "TUMWATER", "ADDRESS": "2944 93RD AVENUE", "CITY": "OLYMPIA", "STATE": "WA", "ZIP": "98503", "ZIP4": "NOT AVAILABLE", "TYPE": "NATURAL GAS COMPRESSOR STATION", "STATUS": "IN SERVICE", "COUNTY": "THURSTON", "COUNTYFIPS": "53067", "COUNTRY": "USA", "LATITUDE": 46.955632041000001, "LONGITUDE": -122.94616914700001, "NAICS_CODE": "486210", "NAICS_DESC": "BOOSTER PUMPING STATION, NATURAL GAS TRANSPORTATION", "SOURCE": "EPA ENVIROFACTS, FERC FORM 2, CORPORATE WEBSITE", "SOURCEDATE": "Wed, 15 Jul 2020 00:00:00 GMT", "VAL_METHOD": "IMAGERY/OTHER", "VAL_DATE": "Fri, 17 Jun 2022 00:00:00 GMT", "WEBSITE": "https://www.williams.com/pipeline/northwest-pipeline/", "PIPECO": "NORTHWEST PIPELINE G.P.", "COMPID": "37", "OPERATOR": "NORTHWEST PIPELINE G.P.", "POSREL": "WITHIN 40 FEET", "NUM_UNITS": 2, "CERT_HP": 6043, "PLANT_COST": 1641211, "EXP_FUEL": 5074, "EXP_OTHER": 176498, "GAS_COMPRE": 3405, "OP_COMP_HR": 235, "OP_NUM_COM": 1, "OP_DATE_PE": "Tue, 18 Feb 2020 00:00:00 GMT", "EXP_POWER": 0, "ELEC_COMPR": 0 }, "geometry": { "type": "Point", "coordinates": [ -122.946169147, 46.955632041000101 ] } },
{ "type": "Feature", "properties": { "OBJECTID": 807, "GCOMPID": "GCOMP495", "NAME": "SUMNER", "ADDRESS": "3104 166TH AVENUE E", "CITY": "SUMNER", "STATE": "WA", "ZIP": "98390", "ZIP4": "NOT AVAILABLE", "TYPE": "NATURAL GAS COMPRESSOR STATION", "STATUS": "IN SERVICE", "COUNTY": "PIERCE", "COUNTYFIPS": "53053", "COUNTRY": "USA", "LATITUDE": 47.229004951, "LONGITUDE": -122.209707061, "NAICS_CODE": "486210", "NAICS_DESC": "BOOSTER PUMPING STATION, NATURAL GAS TRANSPORTATION", "SOURCE": "EPA ENVIROFACTS, FERC FORM 2, CORPORATE WEBSITE", "SOURCEDATE": "Wed, 15 Jul 2020 00:00:00 GMT", "VAL_METHOD": "IMAGERY/OTHER", "VAL_DATE": "Fri, 17 Jun 2022 00:00:00 GMT", "WEBSITE": "https://www.williams.com/pipeline/northwest-pipeline/", "PIPECO": "NORTHWEST PIPELINE G.P.", "COMPID": "37", "OPERATOR": "NORTHWEST PIPELINE G.P.", "POSREL": "WITHIN 40 FEET", "NUM_UNITS": 2, "CERT_HP": 26000, "PLANT_COST": 29310703, "EXP_FUEL": 460447, "EXP_OTHER": 546078, "GAS_COMPRE": 172761, "OP_COMP_HR": 899, "OP_NUM_COM": 1, "OP_DATE_PE": "Tue, 01 Sep 2020 00:00:00 GMT", "EXP_POWER": 0, "ELEC_COMPR": 0 }, "geometry": { "type": "Point", "coordinates": [ -122.209707061, 47.229004951 ] } },
{ "type": "Feature", "properties": { "OBJECTID": 851, "GCOMPID": "GCOMP534", "NAME": "ALBANY", "ADDRESS": "34939 SPICER DRIVE", "CITY": "ALBANY", "STATE": "OR", "ZIP": "97322", "ZIP4": "NOT AVAILABLE", "TYPE": "NATURAL GAS COMPRESSOR STATION", "STATUS": "IN SERVICE", "COUNTY": "LINN", "COUNTYFIPS": "41043", "COUNTRY": "USA", "LATITUDE": 44.601408737, "LONGITUDE": -122.99935099299999, "NAICS_CODE": "486210", "NAICS_DESC": "BOOSTER PUMPING STATION, NATURAL GAS TRANSPORTATION", "SOURCE": "FERC FORM 2, IMAGERY", "SOURCEDATE": "Wed, 15 Jul 2020 00:00:00 GMT", "VAL_METHOD": "IMAGERY/OTHER", "VAL_DATE": "Fri, 17 Jun 2022 00:00:00 GMT", "WEBSITE": "https://www.williams.com/pipeline/northwest-pipeline/", "PIPECO": "NORTHWEST PIPELINE G.P.", "COMPID": "37", "OPERATOR": "NORTHWEST PIPELINE G.P.", "POSREL": "WITHIN 40 FEET", "NUM_UNITS": 1, "CERT_HP": 1200, "PLANT_COST": 4932298, "EXP_FUEL": 104193, "EXP_OTHER": 61752, "GAS_COMPRE": 43743, "OP_COMP_HR": 1701, "OP_NUM_COM": 1, "OP_DATE_PE": "Tue, 14 Jan 2020 00:00:00 GMT", "EXP_POWER": 0, "ELEC_COMPR": 0 }, "geometry": { "type": "Point", "coordinates": [ -122.999350993, 44.601408737 ] } },
{ "type": "Feature", "properties": { "OBJECTID": 859, "GCOMPID": "GCOMP541", "NAME": "BURLEY", "ADDRESS": "359 S. 1300 W.", "CITY": "MURTAUGH", "STATE": "ID", "ZIP": "83344", "ZIP4": "NOT AVAILABLE", "TYPE": "NATURAL GAS COMPRESSOR STATION", "STATUS": "IN SERVICE", "COUNTY": "TWIN FALLS", "COUNTYFIPS": "16083", "COUNTRY": "USA", "LATITUDE": 42.481310283, "LONGITUDE": -114.04853397399999, "NAICS_CODE": "486210", "NAICS_DESC": "BOOSTER PUMPING STATION, NATURAL GAS TRANSPORTATION", "SOURCE": "EPA ENVIROFACTS, FERC FORM 2, CORPORATE WEBSITE", "SOURCEDATE": "Wed, 15 Jul 2020 00:00:00 GMT", "VAL_METHOD": "IMAGERY/OTHER", "VAL_DATE": "Fri, 17 Jun 2022 00:00:00 GMT", "WEBSITE": "https://www.williams.com/pipeline/northwest-pipeline/", "PIPECO": "NORTHWEST PIPELINE G.P.", "COMPID": "37", "OPERATOR": "NORTHWEST PIPELINE G.P.", "POSREL": "WITHIN 40 FEET", "NUM_UNITS": 2, "CERT_HP": 17480, "PLANT_COST": 22923776, "EXP_FUEL": 622182, "EXP_OTHER": 422797, "GAS_COMPRE": 270296, "OP_COMP_HR": 2185, "OP_NUM_COM": 2, "OP_DATE_PE": "Wed, 15 Apr 2020 00:00:00 GMT", "EXP_POWER": 0, "ELEC_COMPR": 0 }, "geometry": { "type": "Point", "coordinates": [ -114.048533974, 42.481310283 ] } },
{ "type": "Feature", "properties": { "OBJECTID": 874, "GCOMPID": "GCOMP555", "NAME": "LA PLATA B", "ADDRESS": "3743 COUNTY ROAD-307; SE SEC 35 T34N R9W", "CITY": "DURANGO", "STATE": "CO", "ZIP": "81301", "ZIP4": "NOT AVAILABLE", "TYPE": "NATURAL GAS COMPRESSOR STATION", "STATUS": "IN SERVICE", "COUNTY": "LA PLATA", "COUNTYFIPS": "08067", "COUNTRY": "USA", "LATITUDE": 37.14389, "LONGITUDE": -107.78756, "NAICS_CODE": "486210", "NAICS_DESC": "BOOSTER PUMPING STATION, NATURAL GAS TRANSPORTATION", "SOURCE": "EPA ENVIROFACTS, FERC FORM 2, CORPORATE WEBSITE", "SOURCEDATE": "Wed, 15 Jul 2020 00:00:00 GMT", "VAL_METHOD": "IMAGERY/OTHER", "VAL_DATE": "Fri, 17 Jun 2022 00:00:00 GMT", "WEBSITE": "https://www.williams.com/pipeline/northwest-pipeline/", "PIPECO": "NORTHWEST PIPELINE G.P.", "COMPID": "37", "OPERATOR": "NORTHWEST PIPELINE G.P.", "POSREL": "WITHIN 40 FEET", "NUM_UNITS": 4, "CERT_HP": 45400, "PLANT_COST": 127350667, "EXP_FUEL": 1802108, "EXP_OTHER": 0, "GAS_COMPRE": 778108, "OP_COMP_HR": 9046, "OP_NUM_COM": 0, "OP_DATE_PE": "Wed, 27 Jun 2012 00:00:00 GMT", "EXP_POWER": 0, "ELEC_COMPR": 0 }, "geometry": { "type": "Point", "coordinates": [ -107.78756, 37.14389 ] } },
{ "type": "Feature", "properties": { "OBJECTID": 877, "GCOMPID": "GCOMP558", "NAME": "SODA SPRINGS", "ADDRESS": "37538 US HIGHWAY 30", "CITY": "GEORGETOWN", "STATE": "ID", "ZIP": "83239", "ZIP4": "NOT AVAILABLE", "TYPE": "NATURAL GAS COMPRESSOR STATION", "STATUS": "IN SERVICE", "COUNTY": "BEAR LAKE", "COUNTYFIPS": "16007", "COUNTRY": "USA", "LATITUDE": 42.543021376, "LONGITUDE": -111.419871578, "NAICS_CODE": "486210", "NAICS_DESC": "BOOSTER PUMPING STATION, NATURAL GAS TRANSPORTATION", "SOURCE": "EPA ENVIROFACTS, FERC FORM 2, CORPORATE WEBSITE", "SOURCEDATE": "Wed, 15 Jul 2020 00:00:00 GMT", "VAL_METHOD": "IMAGERY/OTHER", "VAL_DATE": "Fri, 17 Jun 2022 00:00:00 GMT", "WEBSITE": "https://www.williams.com/pipeline/northwest-pipeline/", "PIPECO": "NORTHWEST PIPELINE G.P.", "COMPID": "37", "OPERATOR": "NORTHWEST PIPELINE G.P.", "POSREL": "WITHIN 40 FEET", "NUM_UNITS": 4, "CERT_HP": 12000, "PLANT_COST": 9896019, "EXP_FUEL": 519281, "EXP_OTHER": 330720, "GAS_COMPRE": 222039, "OP_COMP_HR": 7772, "OP_NUM_COM": 3, "OP_DATE_PE": "Mon, 23 Nov 2020 00:00:00 GMT", "EXP_POWER": 0, "ELEC_COMPR": 0 }, "geometry": { "type": "Point", "coordinates": [ -111.419871578, 42.543021376000098 ] } },
{ "type": "Feature", "properties": { "OBJECTID": 922, "GCOMPID": "GCOMP60", "NAME": "MOAB", "ADDRESS": "10527 US-191", "CITY": "MOAB", "STATE": "UT", "ZIP": "84532", "ZIP4": "NOT AVAILABLE", "TYPE": "NATURAL GAS COMPRESSOR STATION", "STATUS": "IN SERVICE", "COUNTY": "GRAND", "COUNTYFIPS": "49019", "COUNTRY": "USA", "LATITUDE": 38.3269, "LONGITUDE": -109.4307, "NAICS_CODE": "486210", "NAICS_DESC": "BOOSTER PUMPING STATION, NATURAL GAS TRANSPORTATION", "SOURCE": "EPA ENVIROFACTS, FERC FORM 2, CORPORATE WEBSITE", "SOURCEDATE": "Wed, 15 Jul 2020 00:00:00 GMT", "VAL_METHOD": "IMAGERY/OTHER", "VAL_DATE": "Fri, 17 Jun 2022 00:00:00 GMT", "WEBSITE": "https://www.williams.com/pipeline/northwest-pipeline/", "PIPECO": "NORTHWEST PIPELINE G.P.", "COMPID": "37", "OPERATOR": "NORTHWEST PIPELINE G.P.", "POSREL": "WITHIN 40 FEET", "NUM_UNITS": 5, "CERT_HP": 12690, "PLANT_COST": 16799380, "EXP_FUEL": 186016, "EXP_OTHER": 356944, "GAS_COMPRE": 77487, "OP_COMP_HR": 3630, "OP_NUM_COM": 2, "OP_DATE_PE": "Sat, 27 Jun 2020 00:00:00 GMT", "EXP_POWER": 0, "ELEC_COMPR": 0 }, "geometry": { "type": "Point", "coordinates": [ -109.4307, 38.326900000000101 ] } },
{ "type": "Feature", "properties": { "OBJECTID": 930, "GCOMPID": "GCOMP607", "NAME": "PLYMOUTH", "ADDRESS": "42612 E CHRISTY ROAD", "CITY": "PLYMOUTH", "STATE": "WA", "ZIP": "99346", "ZIP4": "NOT AVAILABLE", "TYPE": "NATURAL GAS COMPRESSOR STATION", "STATUS": "IN SERVICE", "COUNTY": "BENTON", "COUNTYFIPS": "53005", "COUNTRY": "USA", "LATITUDE": 45.931292657999997, "LONGITUDE": -119.411333665, "NAICS_CODE": "486210", "NAICS_DESC": "BOOSTER PUMPING STATION, NATURAL GAS TRANSPORTATION", "SOURCE": "EPA ENVIROFACTS, FERC FORM 2, CORPORATE WEBSITE", "SOURCEDATE": "Wed, 15 Jul 2020 00:00:00 GMT", "VAL_METHOD": "IMAGERY/OTHER", "VAL_DATE": "Fri, 17 Jun 2022 00:00:00 GMT", "WEBSITE": "https://www.williams.com/pipeline/northwest-pipeline/", "PIPECO": "NORTHWEST PIPELINE G.P.", "COMPID": "37", "OPERATOR": "NORTHWEST PIPELINE G.P.", "POSREL": "WITHIN 40 FEET", "NUM_UNITS": 5, "CERT_HP": 5343, "PLANT_COST": 16832485, "EXP_FUEL": 227715, "EXP_OTHER": 314198, "GAS_COMPRE": 93476, "OP_COMP_HR": 10293, "OP_NUM_COM": 5, "OP_DATE_PE": "Sun, 15 Nov 2020 00:00:00 GMT", "EXP_POWER": 0, "ELEC_COMPR": 0 }, "geometry": { "type": "Point", "coordinates": [ -119.411333665, 45.931292658000103 ] } },
{ "type": "Feature", "properties": { "OBJECTID": 972, "GCOMPID": "GCOMP645", "NAME": "SUMAS", "ADDRESS": "4738 JONES ROAD", "CITY": "SUMAS", "STATE": "WA", "ZIP": "98295", "ZIP4": "NOT AVAILABLE", "TYPE": "NATURAL GAS COMPRESSOR STATION", "STATUS": "IN SERVICE", "COUNTY": "WHATCOM", "COUNTYFIPS": "53073", "COUNTRY": "USA", "LATITUDE": 49.001, "LONGITUDE": -122.2214, "NAICS_CODE": "486210", "NAICS_DESC": "BOOSTER PUMPING STATION, NATURAL GAS TRANSPORTATION", "SOURCE": "EPA ENVIROFACTS, FERC FORM 2, CORPORATE WEBSITE", "SOURCEDATE": "Wed, 15 Jul 2020 00:00:00 GMT", "VAL_METHOD": "IMAGERY/OTHER", "VAL_DATE": "Fri, 17 Jun 2022 00:00:00 GMT", "WEBSITE": "https://www.williams.com/pipeline/northwest-pipeline/", "PIPECO": "NORTHWEST PIPELINE G.P.", "COMPID": "37", "OPERATOR": "NORTHWEST PIPELINE G.P.", "POSREL": "WITHIN 40 FEET", "NUM_UNITS": 9, "CERT_HP": 55000, "PLANT_COST": 76526206, "EXP_FUEL": 3160099, "EXP_OTHER": 1458209, "GAS_COMPRE": 1356393, "OP_COMP_HR": 11773, "OP_NUM_COM": 4, "OP_DATE_PE": "Wed, 01 Jan 2020 00:00:00 GMT", "EXP_POWER": 0, "ELEC_COMPR": 0 }, "geometry": { "type": "Point", "coordinates": [ -122.2214, 49.001 ] } },
{ "type": "Feature", "properties": { "OBJECTID": 1069, "GCOMPID": "GCOMP732", "NAME": "VERNAL", "ADDRESS": "599 S 500 E", "CITY": "VERNAL", "STATE": "UT", "ZIP": "84078", "ZIP4": "NOT AVAILABLE", "TYPE": "NATURAL GAS COMPRESSOR STATION", "STATUS": "IN SERVICE", "COUNTY": "UINTAH", "COUNTYFIPS": "49047", "COUNTRY": "USA", "LATITUDE": 40.569358699, "LONGITUDE": -109.33094494, "NAICS_CODE": "486210", "NAICS_DESC": "BOOSTER PUMPING STATION, NATURAL GAS TRANSPORTATION", "SOURCE": "EPA ENVIROFACTS, FERC FORM 2, CORPORATE WEBSITE", "SOURCEDATE": "Wed, 15 Jul 2020 00:00:00 GMT", "VAL_METHOD": "IMAGERY/OTHER", "VAL_DATE": "Fri, 17 Jun 2022 00:00:00 GMT", "WEBSITE": "https://www.williams.com/pipeline/northwest-pipeline/", "PIPECO": "NORTHWEST PIPELINE G.P.", "COMPID": "37", "OPERATOR": "NORTHWEST PIPELINE G.P.", "POSREL": "WITHIN 40 FEET", "NUM_UNITS": 1, "CERT_HP": 10310, "PLANT_COST": 23037967, "EXP_FUEL": 1006019, "EXP_OTHER": 185200, "GAS_COMPRE": 422554, "OP_COMP_HR": 4597, "OP_NUM_COM": 1, "OP_DATE_PE": "Sat, 27 Jun 2020 00:00:00 GMT", "EXP_POWER": 0, "ELEC_COMPR": 0 }, "geometry": { "type": "Point", "coordinates": [ -109.33094494, 40.569358699000098 ] } },
{ "type": "Feature", "properties": { "OBJECTID": 1094, "GCOMPID": "GCOMP755", "NAME": "MCMINNVILLE", "ADDRESS": "6302 TORVEND ROAD NE", "CITY": "SILVERTON", "STATE": "OR", "ZIP": "97381", "ZIP4": "NOT AVAILABLE", "TYPE": "NATURAL GAS COMPRESSOR STATION", "STATUS": "IN SERVICE", "COUNTY": "MARION", "COUNTYFIPS": "41047", "COUNTRY": "USA", "LATITUDE": 45.016104765999998, "LONGITUDE": -122.839781206, "NAICS_CODE": "486210", "NAICS_DESC": "BOOSTER PUMPING STATION, NATURAL GAS TRANSPORTATION", "SOURCE": "EPA ENVIROFACTS, FERC FORM 2, CORPORATE WEBSITE", "SOURCEDATE": "Wed, 15 Jul 2020 00:00:00 GMT", "VAL_METHOD": "IMAGERY/OTHER", "VAL_DATE": "Fri, 17 Jun 2022 00:00:00 GMT", "WEBSITE": "https://www.williams.com/pipeline/northwest-pipeline/", "PIPECO": "NORTHWEST PIPELINE G.P.", "COMPID": "37", "OPERATOR": "NORTHWEST PIPELINE G.P.", "POSREL": "WITHIN 40 FEET", "NUM_UNITS": 1, "CERT_HP": 3550, "PLANT_COST": 5679035, "EXP_FUEL": 11259, "EXP_OTHER": 30787, "GAS_COMPRE": 3612, "OP_COMP_HR": 13, "OP_NUM_COM": 1, "OP_DATE_PE": "Tue, 01 Dec 2020 00:00:00 GMT", "EXP_POWER": 0, "ELEC_COMPR": 0 }, "geometry": { "type": "Point", "coordinates": [ -122.839781206, 45.016104766000097 ] } },
{ "type": "Feature", "properties": { "OBJECTID": 1114, "GCOMPID": "GCOMP773", "NAME": "ROOSEVELT", "ADDRESS": "652 SIXPRONG ROAD; ROOSEVELT GRADE ROAD", "CITY": "BICKLETON", "STATE": "WA", "ZIP": "99322", "ZIP4": "NOT AVAILABLE", "TYPE": "NATURAL GAS COMPRESSOR STATION", "STATUS": "IN SERVICE", "COUNTY": "KLICKITAT", "COUNTYFIPS": "53039", "COUNTRY": "USA", "LATITUDE": 45.800737165000001, "LONGITUDE": -120.167384842, "NAICS_CODE": "486210", "NAICS_DESC": "BOOSTER PUMPING STATION, NATURAL GAS TRANSPORTATION", "SOURCE": "FERC FORM 2, IMAGERY", "SOURCEDATE": "Wed, 15 Jul 2020 00:00:00 GMT", "VAL_METHOD": "IMAGERY/OTHER", "VAL_DATE": "Fri, 17 Jun 2022 00:00:00 GMT", "WEBSITE": "https://www.williams.com/pipeline/northwest-pipeline/", "PIPECO": "NORTHWEST PIPELINE G.P.", "COMPID": "37", "OPERATOR": "NORTHWEST PIPELINE G.P.", "POSREL": "WITHIN 40 FEET", "NUM_UNITS": 3, "CERT_HP": 19470, "PLANT_COST": 35776189, "EXP_FUEL": 844479, "EXP_OTHER": 243550, "GAS_COMPRE": 377108, "OP_COMP_HR": 3877, "OP_NUM_COM": 3, "OP_DATE_PE": "Sat, 25 Apr 2020 00:00:00 GMT", "EXP_POWER": 0, "ELEC_COMPR": 0 }, "geometry": { "type": "Point", "coordinates": [ -120.167384842, 45.800737165 ] } },
{ "type": "Feature", "properties": { "OBJECTID": 1128, "GCOMPID": "GCOMP786", "NAME": "LAVA HOT SPRINGS", "ADDRESS": "6680 E. OLD OREGON ROAD", "CITY": "LAVA HOT SPRINGS", "STATE": "ID", "ZIP": "83246", "ZIP4": "NOT AVAILABLE", "TYPE": "NATURAL GAS COMPRESSOR STATION", "STATUS": "IN SERVICE", "COUNTY": "BANNOCK", "COUNTYFIPS": "16005", "COUNTRY": "USA", "LATITUDE": 42.630418538000001, "LONGITUDE": -112.09125287800001, "NAICS_CODE": "486210", "NAICS_DESC": "BOOSTER PUMPING STATION, NATURAL GAS TRANSPORTATION", "SOURCE": "EPA ENVIROFACTS, FERC FORM 2, CORPORATE WEBSITE", "SOURCEDATE": "Wed, 15 Jul 2020 00:00:00 GMT", "VAL_METHOD": "IMAGERY/OTHER", "VAL_DATE": "Fri, 17 Jun 2022 00:00:00 GMT", "WEBSITE": "https://www.williams.com/pipeline/northwest-pipeline/", "PIPECO": "NORTHWEST PIPELINE G.P.", "COMPID": "37", "OPERATOR": "NORTHWEST PIPELINE G.P.", "POSREL": "WITHIN 40 FEET", "NUM_UNITS": 2, "CERT_HP": 8807, "PLANT_COST": 16961195, "EXP_FUEL": 469417, "EXP_OTHER": 38204, "GAS_COMPRE": 210587, "OP_COMP_HR": 3650, "OP_NUM_COM": 2, "OP_DATE_PE": "Mon, 23 Nov 2020 00:00:00 GMT", "EXP_POWER": 0, "ELEC_COMPR": 0 }, "geometry": { "type": "Point", "coordinates": [ -112.091252878, 42.6304185380001 ] } },
{ "type": "Feature", "properties": { "OBJECTID": 1131, "GCOMPID": "GCOMP789", "NAME": "RANGELY", "ADDRESS": "67221 COUNTY-139; SEC 5 T2S R96W", "CITY": "RANGELY", "STATE": "CO", "ZIP": "81648", "ZIP4": "NOT AVAILABLE", "TYPE": "NATURAL GAS COMPRESSOR STATION", "STATUS": "IN SERVICE", "COUNTY": "RIO BLANCO", "COUNTYFIPS": "08103", "COUNTRY": "USA", "LATITUDE": 40.046054732000002, "LONGITUDE": -108.773530669, "NAICS_CODE": "486210", "NAICS_DESC": "BOOSTER PUMPING STATION, NATURAL GAS TRANSPORTATION", "SOURCE": "EPA ENVIROFACTS, FERC FORM 2, CORPORATE WEBSITE", "SOURCEDATE": "Wed, 15 Jul 2020 00:00:00 GMT", "VAL_METHOD": "IMAGERY/OTHER", "VAL_DATE": "Fri, 17 Jun 2022 00:00:00 GMT", "WEBSITE": "https://www.williams.com/pipeline/northwest-pipeline/", "PIPECO": "NORTHWEST PIPELINE G.P.", "COMPID": "37", "OPERATOR": "NORTHWEST PIPELINE G.P.", "POSREL": "WITHIN 40 FEET", "NUM_UNITS": 4, "CERT_HP": 8000, "PLANT_COST": 13300715, "EXP_FUEL": 687953, "EXP_OTHER": 558676, "GAS_COMPRE": 283615, "OP_COMP_HR": 21113, "OP_NUM_COM": 4, "OP_DATE_PE": "Sat, 27 Jun 2020 00:00:00 GMT", "EXP_POWER": 0, "ELEC_COMPR": 0 }, "geometry": { "type": "Point", "coordinates": [ -108.773530669, 40.046054732000101 ] } },
{ "type": "Feature", "properties": { "OBJECTID": 1177, "GCOMPID": "GCOMP83", "NAME": "WINCHESTER", "ADDRESS": "1137 BROZIO ROAD", "CITY": "WINCHESTER", "STATE": "OR", "ZIP": "97495", "ZIP4": "NOT AVAILABLE", "TYPE": "NATURAL GAS COMPRESSOR STATION", "STATUS": "IN SERVICE", "COUNTY": "DOUGLAS", "COUNTYFIPS": "41019", "COUNTRY": "USA", "LATITUDE": 43.310500247999997, "LONGITUDE": -123.394631244, "NAICS_CODE": "486210", "NAICS_DESC": "BOOSTER PUMPING STATION, NATURAL GAS TRANSPORTATION", "SOURCE": "EPA ENVIROFACTS, FERC FORM 2, CORPORATE WEBSITE", "SOURCEDATE": "Wed, 15 Jul 2020 00:00:00 GMT", "VAL_METHOD": "IMAGERY/OTHER", "VAL_DATE": "Fri, 17 Jun 2022 00:00:00 GMT", "WEBSITE": "https://www.williams.com/pipeline/northwest-pipeline/", "PIPECO": "NORTHWEST PIPELINE G.P.", "COMPID": "37", "OPERATOR": "NORTHWEST PIPELINE G.P.", "POSREL": "WITHIN 40 FEET", "NUM_UNITS": 1, "CERT_HP": 1343, "PLANT_COST": 7937437, "EXP_FUEL": 84, "EXP_OTHER": 31964, "GAS_COMPRE": 64, "OP_COMP_HR": 4, "OP_NUM_COM": 1, "OP_DATE_PE": "Wed, 19 Feb 2020 00:00:00 GMT", "EXP_POWER": 0, "ELEC_COMPR": 0 }, "geometry": { "type": "Point", "coordinates": [ -123.394631244, 43.310500248 ] } },
{ "type": "Feature", "properties": { "OBJECTID": 1182, "GCOMPID": "GCOMP834", "NAME": "CALDWELL", "ADDRESS": "7405 EL PASO ROAD", "CITY": "CALDWELL", "STATE": "ID", "ZIP": "83607", "ZIP4": "NOT AVAILABLE", "TYPE": "NATURAL GAS COMPRESSOR STATION", "STATUS": "IN SERVICE", "COUNTY": "CANYON", "COUNTYFIPS": "16027", "COUNTRY": "USA", "LATITUDE": 43.81223151, "LONGITUDE": -116.690739042, "NAICS_CODE": "486210", "NAICS_DESC": "BOOSTER PUMPING STATION, NATURAL GAS TRANSPORTATION", "SOURCE": "EPA ENVIROFACTS, FERC FORM 2, CORPORATE WEBSITE", "SOURCEDATE": "Wed, 15 Jul 2020 00:00:00 GMT", "VAL_METHOD": "IMAGERY/OTHER", "VAL_DATE": "Fri, 17 Jun 2022 00:00:00 GMT", "WEBSITE": "https://www.williams.com/pipeline/northwest-pipeline/", "PIPECO": "NORTHWEST PIPELINE G.P.", "COMPID": "37", "OPERATOR": "NORTHWEST PIPELINE G.P.", "POSREL": "WITHIN 40 FEET", "NUM_UNITS": 4, "CERT_HP": 6300, "PLANT_COST": 12666972, "EXP_FUEL": 46090, "EXP_OTHER": 425929, "GAS_COMPRE": 18758, "OP_COMP_HR": 862, "OP_NUM_COM": 4, "OP_DATE_PE": "Wed, 15 Apr 2020 00:00:00 GMT", "EXP_POWER": 0, "ELEC_COMPR": 0 }, "geometry": { "type": "Point", "coordinates": [ -116.690739042, 43.812231510000103 ] } },
{ "type": "Feature", "properties": { "OBJECTID": 1212, "GCOMPID": "GCOMP861", "NAME": "MESA", "ADDRESS": "8019 OVERTURF ROAD", "CITY": "PASCO", "STATE": "WA", "ZIP": "99301", "ZIP4": "NOT AVAILABLE", "TYPE": "NATURAL GAS COMPRESSOR STATION", "STATUS": "IN SERVICE", "COUNTY": "FRANKLIN", "COUNTYFIPS": "53021", "COUNTRY": "USA", "LATITUDE": 46.503061, "LONGITUDE": -118.913983, "NAICS_CODE": "486210", "NAICS_DESC": "BOOSTER PUMPING STATION, NATURAL GAS TRANSPORTATION", "SOURCE": "EPA ENVIROFACTS, FERC FORM 2, CORPORATE WEBSITE", "SOURCEDATE": "Wed, 15 Jul 2020 00:00:00 GMT", "VAL_METHOD": "IMAGERY/OTHER", "VAL_DATE": "Fri, 17 Jun 2022 00:00:00 GMT", "WEBSITE": "https://www.williams.com/pipeline/northwest-pipeline/", "PIPECO": "NORTHWEST PIPELINE G.P.", "COMPID": "37", "OPERATOR": "NORTHWEST PIPELINE G.P.", "POSREL": "WITHIN 40 FEET", "NUM_UNITS": 1, "CERT_HP": 1343, "PLANT_COST": 8414527, "EXP_FUEL": 7115, "EXP_OTHER": 57582, "GAS_COMPRE": 2819, "OP_COMP_HR": 29, "OP_NUM_COM": 1, "OP_DATE_PE": "Fri, 17 Apr 2020 00:00:00 GMT", "EXP_POWER": 0, "ELEC_COMPR": 0 }, "geometry": { "type": "Point", "coordinates": [ -118.913983, 46.503061000000102 ] } },
{ "type": "Feature", "properties": { "OBJECTID": 1240, "GCOMPID": "GCOMP887", "NAME": "EUGENE", "ADDRESS": "85166 HIDEWAY HILLS ROAD NORTH", "CITY": "EUGENE", "STATE": "OR", "ZIP": "97405", "ZIP4": "NOT AVAILABLE", "TYPE": "NATURAL GAS COMPRESSOR STATION", "STATUS": "IN SERVICE", "COUNTY": "LANE", "COUNTYFIPS": "41039", "COUNTRY": "USA", "LATITUDE": 43.976074976, "LONGITUDE": -123.048917038, "NAICS_CODE": "486210", "NAICS_DESC": "BOOSTER PUMPING STATION, NATURAL GAS TRANSPORTATION", "SOURCE": "EPA ENVIROFACTS, FERC FORM 2, CORPORATE WEBSITE", "SOURCEDATE": "Wed, 15 Jul 2020 00:00:00 GMT", "VAL_METHOD": "IMAGERY/OTHER", "VAL_DATE": "Fri, 17 Jun 2022 00:00:00 GMT", "WEBSITE": "https://www.williams.com/pipeline/northwest-pipeline/", "PIPECO": "NORTHWEST PIPELINE G.P.", "COMPID": "37", "OPERATOR": "NORTHWEST PIPELINE G.P.", "POSREL": "WITHIN 40 FEET", "NUM_UNITS": 1, "CERT_HP": 1339, "PLANT_COST": 7634619, "EXP_FUEL": 9063, "EXP_OTHER": 32317, "GAS_COMPRE": 3564, "OP_COMP_HR": 61, "OP_NUM_COM": 1, "OP_DATE_PE": "Thu, 16 Jan 2020 00:00:00 GMT", "EXP_POWER": 0, "ELEC_COMPR": 0 }, "geometry": { "type": "Point", "coordinates": [ -123.048917038, 43.976074976000099 ] } },
{ "type": "Feature", "properties": { "OBJECTID": 1294, "GCOMPID": "GCOMP935", "NAME": "MEACHAM", "ADDRESS": "BEAVER CREEK ROAD; OFF OF I-84 E", "CITY": "PENDLETON", "STATE": "OR", "ZIP": "97801", "ZIP4": "NOT AVAILABLE", "TYPE": "NATURAL GAS COMPRESSOR STATION", "STATUS": "IN SERVICE", "COUNTY": "UMATILLA", "COUNTYFIPS": "41059", "COUNTRY": "USA", "LATITUDE": 45.490381, "LONGITUDE": -118.416369, "NAICS_CODE": "486210", "NAICS_DESC": "BOOSTER PUMPING STATION, NATURAL GAS TRANSPORTATION", "SOURCE": "EPA ENVIROFACTS, FERC FORM 2, CORPORATE WEBSITE", "SOURCEDATE": "Wed, 15 Jul 2020 00:00:00 GMT", "VAL_METHOD": "IMAGERY/OTHER", "VAL_DATE": "Fri, 17 Jun 2022 00:00:00 GMT", "WEBSITE": "https://www.williams.com/pipeline/northwest-pipeline/", "PIPECO": "NORTHWEST PIPELINE G.P.", "COMPID": "37", "OPERATOR": "NORTHWEST PIPELINE G.P.", "POSREL": "WITHIN 40 FEET", "NUM_UNITS": 2, "CERT_HP": 8780, "PLANT_COST": 16979374, "EXP_FUEL": 66735, "EXP_OTHER": 185675, "GAS_COMPRE": 29302, "OP_COMP_HR": 637, "OP_NUM_COM": 2, "OP_DATE_PE": "Sat, 11 Jul 2020 00:00:00 GMT", "EXP_POWER": 0, "ELEC_COMPR": 0 }, "geometry": { "type": "Point", "coordinates": [ -118.416369, 45.490381 ] } },
{ "type": "Feature", "properties": { "OBJECTID": 1302, "GCOMPID": "GCOMP942", "NAME": "LITTLE VALLEY", "ADDRESS": "BOB TINDALE ROAD", "CITY": "GRAND VIEW", "STATE": "ID", "ZIP": "83624", "ZIP4": "NOT AVAILABLE", "TYPE": "NATURAL GAS COMPRESSOR STATION", "STATUS": "IN SERVICE", "COUNTY": "OWYHEE", "COUNTYFIPS": "16073", "COUNTRY": "USA", "LATITUDE": 42.772927496999998, "LONGITUDE": -115.95981228, "NAICS_CODE": "486210", "NAICS_DESC": "BOOSTER PUMPING STATION, NATURAL GAS TRANSPORTATION", "SOURCE": "EPA ENVIROFACTS, FERC FORM 2, CORPORATE WEBSITE", "SOURCEDATE": "Wed, 15 Jul 2020 00:00:00 GMT", "VAL_METHOD": "IMAGERY/OTHER", "VAL_DATE": "Fri, 17 Jun 2022 00:00:00 GMT", "WEBSITE": "https://www.williams.com/pipeline/northwest-pipeline/", "PIPECO": "NORTHWEST PIPELINE G.P.", "COMPID": "37", "OPERATOR": "NORTHWEST PIPELINE G.P.", "POSREL": "WITHIN 40 FEET", "NUM_UNITS": 2, "CERT_HP": 2483, "PLANT_COST": 6210893, "EXP_FUEL": 37898, "EXP_OTHER": 12086, "GAS_COMPRE": 14658, "OP_COMP_HR": 545, "OP_NUM_COM": 2, "OP_DATE_PE": "Wed, 05 Feb 2020 00:00:00 GMT", "EXP_POWER": 0, "ELEC_COMPR": 0 }, "geometry": { "type": "Point", "coordinates": [ -115.95981228, 42.772927497000097 ] } },
{ "type": "Feature", "properties": { "OBJECTID": 1347, "GCOMPID": "GCOMP983", "NAME": "CISCO", "ADDRESS": "CORNER OF OLD CISCO HIGHWAY AND UT-128; SE QTR S 24, T21S, R23E", "CITY": "THOMPSON", "STATE": "UT", "ZIP": "84540", "ZIP4": "NOT AVAILABLE", "TYPE": "NATURAL GAS COMPRESSOR STATION", "STATUS": "IN SERVICE", "COUNTY": "GRAND", "COUNTYFIPS": "49019", "COUNTRY": "USA", "LATITUDE": 38.933350554999997, "LONGITUDE": -109.351931513, "NAICS_CODE": "486210", "NAICS_DESC": "BOOSTER PUMPING STATION, NATURAL GAS TRANSPORTATION", "SOURCE": "FERC FORM 2, IMAGERY", "SOURCEDATE": "Wed, 15 Jul 2020 00:00:00 GMT", "VAL_METHOD": "IMAGERY/OTHER", "VAL_DATE": "Fri, 17 Jun 2022 00:00:00 GMT", "WEBSITE": "https://www.williams.com/pipeline/northwest-pipeline/", "PIPECO": "NORTHWEST PIPELINE G.P.", "COMPID": "37", "OPERATOR": "NORTHWEST PIPELINE G.P.", "POSREL": "WITHIN 40 FEET", "NUM_UNITS": 2, "CERT_HP": 11000, "PLANT_COST": 10625317, "EXP_FUEL": 91120, "EXP_OTHER": 156879, "GAS_COMPRE": 52175, "OP_COMP_HR": 1192, "OP_NUM_COM": 1, "OP_DATE_PE": "Sat, 27 Jun 2020 00:00:00 GMT", "EXP_POWER": 0, "ELEC_COMPR": 0 }, "geometry": { "type": "Point", "coordinates": [ -109.351931513, 38.933350555000096 ] } }
]
}
