{
"type": "FeatureCollection",
"name": "P0239-compressor-stations",
"crs": { "type": "name", "properties": { "name": "urn:ogc:def:crs:OGC:1.3:CRS84" } },
"features": [
{ "type": "Feature", "properties": { "OBJECTID": 57, "GCOMPID": "GCOMP1049", "NAME": "TEXAS-HANSFORD-HANSFORD COUNTY", "ADDRESS": "FM-1261", "CITY": "SPEARMAN", "STATE": "TX", "ZIP": "79081", "ZIP4": "NOT AVAILABLE", "TYPE": "NATURAL GAS COMPRESSOR STATION", "STATUS": "IN SERVICE", "COUNTY": "HANSFORD", "COUNTYFIPS": "48195", "COUNTRY": "USA", "LATITUDE": 36.476077090858702, "LONGITUDE": -101.221389759606, "NAICS_CODE": "486210", "NAICS_DESC": "BOOSTER PUMPING STATION, NATURAL GAS TRANSPORTATION", "SOURCE": "EPA ENVIROFACTS, FERC FORM 2, CORPORATE WEBSITE", "SOURCEDATE": "Wed, 15 Jul 2020 00:00:00 GMT", "VAL_METHOD": "IMAGERY/OTHER", "VAL_DATE": "Fri, 24 Jun 2022 00:00:00 GMT", "WEBSITE": "http://peplmessenger.energytransfer.com/", "PIPECO": "PANHANDLE EASTERN PIPE LINE COMPANY L.P.", "COMPID": "28", "OPERATOR": "PANHANDLE EASTERN PIPE LINE COMPANY L.P.", "POSREL": "WITHIN 40 FEET", "NUM_UNITS": 11, "CERT_HP": 8200, "PLANT_COST": 8959286, "EXP_FUEL": 199130, "EXP_OTHER": 839419, "GAS_COMPRE": 115483, "OP_COMP_HR": 29881, "OP_NUM_COM": 6, "OP_DATE_PE": "Sat, 18 Apr 2020 00:00:00 GMT", "EXP_POWER": 0, "ELEC_COMPR": 0 }, "geometry": { "type": "Point", "coordinates": [ -101.22138976, 36.476077091 ] } },
{ "type": "Feature", "properties": { "OBJECTID": 148, "GCOMPID": "GCOMP1131", "NAME": "KANSAS-HAVEN-RENO COUNTY", "ADDRESS": "KENT ROAD AND HIGHWAY K-96", "CITY": "HAVEN", "STATE": "KS", "ZIP": "67543", "ZIP4": "NOT AVAILABLE", "TYPE": "NATURAL GAS COMPRESSOR STATION", "STATUS": "IN SERVICE", "COUNTY": "RENO", "COUNTYFIPS": "20155", "COUNTRY": "USA", "LATITUDE": 37.906394184, "LONGITUDE": -97.809124091000001, "NAICS_CODE": "486210", "NAICS_DESC": "BOOSTER PUMPING STATION, NATURAL GAS TRANSPORTATION", "SOURCE": "EPA ENVIROFACTS, FERC FORM 2, CORPORATE WEBSITE", "SOURCEDATE": "Wed, 15 Jul 2020 00:00:00 GMT", "VAL_METHOD": "IMAGERY/OTHER", "VAL_DATE": "Fri, 17 Jun 2022 00:00:00 GMT", "WEBSITE": "http://peplmessenger.energytransfer.com/", "PIPECO": "PANHANDLE EASTERN PIPE LINE COMPANY L.P.", "COMPID": "28", "OPERATOR": "PANHANDLE EASTERN PIPE LINE COMPANY L.P.", "POSREL": "WITHIN 40 FEET", "NUM_UNITS": 7, "CERT_HP": 38200, "PLANT_COST": 67811722, "EXP_FUEL": 1481025, "EXP_OTHER": 1753039, "GAS_COMPRE": 892903, "OP_COMP_HR": 18192, "OP_NUM_COM": 5, "OP_DATE_PE": "Tue, 21 Jan 2020 00:00:00 GMT", "EXP_POWER": 0, "ELEC_COMPR": 0 }, "geometry": { "type": "Point", "coordinates": [ -97.809124090999902, 37.906394184000099 ] } },
{ "type": "Feature", "properties": { "OBJECTID": 288, "GCOMPID": "GCOMP1258", "NAME": "OKLAHOMA-ADAMS-TEXAS COUNTY", "ADDRESS": "ROAD R/ MILE 52", "CITY": "ADAMS", "STATE": "OK", "ZIP": "73901", "ZIP4": "NOT AVAILABLE", "TYPE": "NATURAL GAS COMPRESSOR STATION", "STATUS": "IN SERVICE", "COUNTY": "TEXAS", "COUNTYFIPS": "40139", "COUNTRY": "USA", "LATITUDE": 36.746624, "LONGITUDE": -101.097058, "NAICS_CODE": "486210", "NAICS_DESC": "BOOSTER PUMPING STATION, NATURAL GAS TRANSPORTATION", "SOURCE": "FERC FORM 2, IMAGERY", "SOURCEDATE": "Wed, 15 Jul 2020 00:00:00 GMT", "VAL_METHOD": "IMAGERY/OTHER", "VAL_DATE": "Fri, 17 Jun 2022 00:00:00 GMT", "WEBSITE": "http://peplmessenger.energytransfer.com/", "PIPECO": "PANHANDLE EASTERN PIPE LINE COMPANY L.P.", "COMPID": "28", "OPERATOR": "PANHANDLE EASTERN PIPE LINE COMPANY L.P.", "POSREL": "WITHIN 40 FEET", "NUM_UNITS": 3, "CERT_HP": 1740, "PLANT_COST": 1387047, "EXP_FUEL": 86125, "EXP_OTHER": 0, "GAS_COMPRE": 33958, "OP_COMP_HR": 12050, "OP_NUM_COM": 2, "OP_DATE_PE": "Sun, 03 May 2020 00:00:00 GMT", "EXP_POWER": 0, "ELEC_COMPR": 0 }, "geometry": { "type": "Point", "coordinates": [ -101.097058, 36.746624 ] } },
{ "type": "Feature", "properties": { "OBJECTID": 319, "GCOMPID": "GCOMP1286", "NAME": "KANSAS-LIBERAL-SEWARD COUNTY", "ADDRESS": "S23,24,25-T33S-R32W; PANHANDLE ROAD", "CITY": "LIBERAL", "STATE": "KS", "ZIP": "67901", "ZIP4": "NOT AVAILABLE", "TYPE": "NATURAL GAS COMPRESSOR STATION", "STATUS": "IN SERVICE", "COUNTY": "SEWARD", "COUNTYFIPS": "20175", "COUNTRY": "USA", "LATITUDE": 37.154775422999997, "LONGITUDE": -100.75566541000001, "NAICS_CODE": "486210", "NAICS_DESC": "BOOSTER PUMPING STATION, NATURAL GAS TRANSPORTATION", "SOURCE": "EPA ENVIROFACTS, FERC FORM 2, CORPORATE WEBSITE", "SOURCEDATE": "Wed, 15 Jul 2020 00:00:00 GMT", "VAL_METHOD": "IMAGERY/OTHER", "VAL_DATE": "Fri, 17 Jun 2022 00:00:00 GMT", "WEBSITE": "http://peplmessenger.energytransfer.com/", "PIPECO": "PANHANDLE EASTERN PIPE LINE COMPANY L.P.", "COMPID": "28", "OPERATOR": "PANHANDLE EASTERN PIPE LINE COMPANY L.P.", "POSREL": "WITHIN 40 FEET", "NUM_UNITS": 4, "CERT_HP": 20150, "PLANT_COST": 40553950, "EXP_FUEL": 1004188, "EXP_OTHER": 1524343, "GAS_COMPRE": 597185, "OP_COMP_HR": 11603, "OP_NUM_COM": 2, "OP_DATE_PE": "Thu, 16 Jan 2020 00:00:00 GMT", "EXP_POWER": 0, "ELEC_COMPR": 0 }, "geometry": { "type": "Point", "coordinates": [ -100.75566541, 37.154775423 ] } },
{ "type": "Feature", "properties": { "OBJECTID": 381, "GCOMPID": "GCOMP1341", "NAME": "KANSAS-SATANTA-HASKELL COUNTY", "ADDRESS": "US-56", "CITY": "SATANTA", "STATE": "KS", "ZIP": "67870", "ZIP4": "NOT AVAILABLE", "TYPE": "NATURAL GAS COMPRESSOR STATION", "STATUS": "IN SERVICE", "COUNTY": "HASKELL", "COUNTYFIPS": "20081", "COUNTRY": "USA", "LATITUDE": 37.400613149000002, "LONGITUDE": -101.029320212, "NAICS_CODE": "486210", "NAICS_DESC": "BOOSTER PUMPING STATION, NATURAL GAS TRANSPORTATION", "SOURCE": "EPA ENVIROFACTS, FERC FORM 2, CORPORATE WEBSITE", "SOURCEDATE": "Wed, 15 Jul 2020 00:00:00 GMT", "VAL_METHOD": "IMAGERY/OTHER", "VAL_DATE": "Fri, 17 Jun 2022 00:00:00 GMT", "WEBSITE": "http://peplmessenger.energytransfer.com/", "PIPECO": "PANHANDLE EASTERN PIPE LINE COMPANY L.P.", "COMPID": "28", "OPERATOR": "PANHANDLE EASTERN PIPE LINE COMPANY L.P.", "POSREL": "WITHIN 40 FEET", "NUM_UNITS": 10, "CERT_HP": 8177, "PLANT_COST": 10138092, "EXP_FUEL": 104880, "EXP_OTHER": 727773, "GAS_COMPRE": 61646, "OP_COMP_HR": 17775, "OP_NUM_COM": 5, "OP_DATE_PE": "Tue, 14 Apr 2020 00:00:00 GMT", "EXP_POWER": 0, "ELEC_COMPR": 0 }, "geometry": { "type": "Point", "coordinates": [ -101.029320212, 37.400613149 ] } },
{ "type": "Feature", "properties": { "OBJECTID": 466, "GCOMPID": "GCOMP188", "NAME": "ILLINOIS-PLEASANT HILL-PIKE COUNTY", "ADDRESS": "14906 IL-96", "CITY": "PLEASANT HILL", "STATE": "IL", "ZIP": "62366", "ZIP4": "NOT AVAILABLE", "TYPE": "NATURAL GAS COMPRESSOR STATION", "STATUS": "IN SERVICE", "COUNTY": "PIKE", "COUNTYFIPS": "17149", "COUNTRY": "USA", "LATITUDE": 39.471776142000003, "LONGITUDE": -90.914111891000005, "NAICS_CODE": "486210", "NAICS_DESC": "BOOSTER PUMPING STATION, NATURAL GAS TRANSPORTATION", "SOURCE": "EPA ENVIROFACTS, FERC FORM 2, CORPORATE WEBSITE", "SOURCEDATE": "Wed, 15 Jul 2020 00:00:00 GMT", "VAL_METHOD": "IMAGERY/OTHER", "VAL_DATE": "Fri, 17 Jun 2022 00:00:00 GMT", "WEBSITE": "http://peplmessenger.energytransfer.com/", "PIPECO": "PANHANDLE EASTERN PIPE LINE COMPANY L.P.", "COMPID": "28", "OPERATOR": "PANHANDLE EASTERN PIPE LINE COMPANY L.P.", "POSREL": "WITHIN 40 FEET", "NUM_UNITS": 7, "CERT_HP": 25896, "PLANT_COST": 48652619, "EXP_FUEL": 730771, "EXP_OTHER": 1706512, "GAS_COMPRE": 458447, "OP_COMP_HR": 9502, "OP_NUM_COM": 5, "OP_DATE_PE": "Fri, 17 Apr 2020 00:00:00 GMT", "EXP_POWER": 0, "ELEC_COMPR": 0 }, "geometry": { "type": "Point", "coordinates": [ -90.914111890999905, 39.471776142000103 ] } },
{ "type": "Feature", "properties": { "OBJECTID": 498, "GCOMPID": "GCOMP216", "NAME": "MISSOURI-HOUSTONIA-PETTIS COUNTY", "ADDRESS": "16076 HIGHWAY T", "CITY": "HOUSTONIA", "STATE": "MO", "ZIP": "65333", "ZIP4": "NOT AVAILABLE", "TYPE": "NATURAL GAS COMPRESSOR STATION", "STATUS": "IN SERVICE", "COUNTY": "PETTIS", "COUNTYFIPS": "29159", "COUNTRY": "USA", "LATITUDE": 38.846012453, "LONGITUDE": -93.366020008999996, "NAICS_CODE": "486210", "NAICS_DESC": "BOOSTER PUMPING STATION, NATURAL GAS TRANSPORTATION", "SOURCE": "EPA ENVIROFACTS, FERC FORM 2, CORPORATE WEBSITE", "SOURCEDATE": "Wed, 15 Jul 2020 00:00:00 GMT", "VAL_METHOD": "IMAGERY/OTHER", "VAL_DATE": "Fri, 17 Jun 2022 00:00:00 GMT", "WEBSITE": "http://peplmessenger.energytransfer.com/", "PIPECO": "PANHANDLE EASTERN PIPE LINE COMPANY L.P.", "COMPID": "28", "OPERATOR": "PANHANDLE EASTERN PIPE LINE COMPANY L.P.", "POSREL": "WITHIN 40 FEET", "NUM_UNITS": 11, "CERT_HP": 35760, "PLANT_COST": 53660283, "EXP_FUEL": 1065891, "EXP_OTHER": 1988002, "GAS_COMPRE": 685435, "OP_COMP_HR": 17484, "OP_NUM_COM": 6, "OP_DATE_PE": "Sat, 18 Apr 2020 00:00:00 GMT", "EXP_POWER": 0, "ELEC_COMPR": 0 }, "geometry": { "type": "Point", "coordinates": [ -93.366020009, 38.8460124530001 ] } },
{ "type": "Feature", "properties": { "OBJECTID": 506, "GCOMPID": "GCOMP223", "NAME": "MISSOURI-CENTRALIA-BOONE COUNTY", "ADDRESS": "16151 NORTH ROUTE Z", "CITY": "CENTRALIA", "STATE": "MO", "ZIP": "65240", "ZIP4": "4015", "TYPE": "NATURAL GAS COMPRESSOR STATION", "STATUS": "IN SERVICE", "COUNTY": "BOONE", "COUNTYFIPS": "29019", "COUNTRY": "USA", "LATITUDE": 39.138248023000003, "LONGITUDE": -92.138866436000001, "NAICS_CODE": "486210", "NAICS_DESC": "BOOSTER PUMPING STATION, NATURAL GAS TRANSPORTATION", "SOURCE": "EPA ENVIROFACTS, FERC FORM 2, CORPORATE WEBSITE", "SOURCEDATE": "Wed, 15 Jul 2020 00:00:00 GMT", "VAL_METHOD": "IMAGERY/OTHER", "VAL_DATE": "Fri, 17 Jun 2022 00:00:00 GMT", "WEBSITE": "http://peplmessenger.energytransfer.com/", "PIPECO": "PANHANDLE EASTERN PIPE LINE COMPANY L.P.", "COMPID": "28", "OPERATOR": "PANHANDLE EASTERN PIPE LINE COMPANY L.P.", "POSREL": "WITHIN 40 FEET", "NUM_UNITS": 6, "CERT_HP": 29800, "PLANT_COST": 56831440, "EXP_FUEL": 1242316, "EXP_OTHER": 1799815, "GAS_COMPRE": 754120, "OP_COMP_HR": 15053, "OP_NUM_COM": 2, "OP_DATE_PE": "Sun, 05 Apr 2020 00:00:00 GMT", "EXP_POWER": 0, "ELEC_COMPR": 0 }, "geometry": { "type": "Point", "coordinates": [ -92.138866435999901, 39.138248023000102 ] } },
{ "type": "Feature", "properties": { "OBJECTID": 595, "GCOMPID": "GCOMP303", "NAME": "KANSAS-GREENSBURG-KIOWA COUNTY", "ADDRESS": "19TH AVENUE/NORTH OF J STREET", "CITY": "GREENSBURG", "STATE": "KS", "ZIP": "67054", "ZIP4": "NOT AVAILABLE", "TYPE": "NATURAL GAS COMPRESSOR STATION", "STATUS": "IN SERVICE", "COUNTY": "KIOWA", "COUNTYFIPS": "20097", "COUNTRY": "USA", "LATITUDE": 37.614217629553202, "LONGITUDE": -99.396955471678893, "NAICS_CODE": "486210", "NAICS_DESC": "BOOSTER PUMPING STATION, NATURAL GAS TRANSPORTATION", "SOURCE": "FERC FORM 2, IMAGERY", "SOURCEDATE": "Wed, 15 Jul 2020 00:00:00 GMT", "VAL_METHOD": "IMAGERY/OTHER", "VAL_DATE": "Fri, 24 Jun 2022 00:00:00 GMT", "WEBSITE": "http://peplmessenger.energytransfer.com/", "PIPECO": "PANHANDLE EASTERN PIPE LINE COMPANY L.P.", "COMPID": "28", "OPERATOR": "PANHANDLE EASTERN PIPE LINE COMPANY L.P.", "POSREL": "WITHIN 40 FEET", "NUM_UNITS": 6, "CERT_HP": 26400, "PLANT_COST": 44848165, "EXP_FUEL": 51001, "EXP_OTHER": 727008, "GAS_COMPRE": 31612, "OP_COMP_HR": 379, "OP_NUM_COM": 1, "OP_DATE_PE": "Tue, 21 Jan 2020 00:00:00 GMT", "EXP_POWER": 0, "ELEC_COMPR": 0 }, "geometry": { "type": "Point", "coordinates": [ -99.396955472, 37.61421763 ] } },
{ "type": "Feature", "properties": { "OBJECTID": 728, "GCOMPID": "GCOMP423", "NAME": "INDIANA-EDGERTON-ALLEN COUNTY", "ADDRESS": "25419 PAULDING ROAD", "CITY": "MONROEVILLE", "STATE": "IN", "ZIP": "46773", "ZIP4": "9789", "TYPE": "NATURAL GAS COMPRESSOR STATION", "STATUS": "IN SERVICE", "COUNTY": "ALLEN", "COUNTYFIPS": "18003", "COUNTRY": "USA", "LATITUDE": 41.03775678, "LONGITUDE": -84.809664588000004, "NAICS_CODE": "486210", "NAICS_DESC": "BOOSTER PUMPING STATION, NATURAL GAS TRANSPORTATION", "SOURCE": "EPA ENVIROFACTS, FERC FORM 2, CORPORATE WEBSITE", "SOURCEDATE": "Wed, 15 Jul 2020 00:00:00 GMT", "VAL_METHOD": "IMAGERY/OTHER", "VAL_DATE": "Fri, 17 Jun 2022 00:00:00 GMT", "WEBSITE": "http://peplmessenger.energytransfer.com/", "PIPECO": "PANHANDLE EASTERN PIPE LINE COMPANY L.P.", "COMPID": "28", "OPERATOR": "PANHANDLE EASTERN PIPE LINE COMPANY L.P.", "POSREL": "WITHIN 40 FEET", "NUM_UNITS": 12, "CERT_HP": 22400, "PLANT_COST": 19219436, "EXP_FUEL": 18856, "EXP_OTHER": 1797384, "GAS_COMPRE": 10790, "OP_COMP_HR": 263, "OP_NUM_COM": 1, "OP_DATE_PE": "Wed, 11 Mar 2020 00:00:00 GMT", "EXP_POWER": 0, "ELEC_COMPR": 0 }, "geometry": { "type": "Point", "coordinates": [ -84.809664588, 41.037756780000102 ] } },
{ "type": "Feature", "properties": { "OBJECTID": 738, "GCOMPID": "GCOMP432", "NAME": "INDIANA-MONTEZUMA-PARKE COUNTY", "ADDRESS": "2623 N COUNTY ROAD 600 W", "CITY": "MONTEZUMA", "STATE": "IN", "ZIP": "47862", "ZIP4": "NOT AVAILABLE", "TYPE": "NATURAL GAS COMPRESSOR STATION", "STATUS": "IN SERVICE", "COUNTY": "PARKE", "COUNTYFIPS": "18121", "COUNTRY": "USA", "LATITUDE": 39.802658963, "LONGITUDE": -87.350089239, "NAICS_CODE": "486210", "NAICS_DESC": "BOOSTER PUMPING STATION, NATURAL GAS TRANSPORTATION", "SOURCE": "EPA ENVIROFACTS, FERC FORM 2, CORPORATE WEBSITE", "SOURCEDATE": "Wed, 15 Jul 2020 00:00:00 GMT", "VAL_METHOD": "IMAGERY/OTHER", "VAL_DATE": "Fri, 17 Jun 2022 00:00:00 GMT", "WEBSITE": "http://peplmessenger.energytransfer.com/", "PIPECO": "PANHANDLE EASTERN PIPE LINE COMPANY L.P.", "COMPID": "28", "OPERATOR": "PANHANDLE EASTERN PIPE LINE COMPANY L.P.", "POSREL": "WITHIN 40 FEET", "NUM_UNITS": 6, "CERT_HP": 36100, "PLANT_COST": 61793883, "EXP_FUEL": 2648, "EXP_OTHER": 1138040, "GAS_COMPRE": 1813, "OP_COMP_HR": 36, "OP_NUM_COM": 2, "OP_DATE_PE": "Thu, 11 Jun 2020 00:00:00 GMT", "EXP_POWER": 0, "ELEC_COMPR": 0 }, "geometry": { "type": "Point", "coordinates": [ -87.3500892389999, 39.802658963 ] } },
{ "type": "Feature", "properties": { "OBJECTID": 773, "GCOMPID": "GCOMP464", "NAME": "KANSAS-LOUISBURG-MIAMI COUNTY", "ADDRESS": "29115 METCALF ROAD", "CITY": "LOUISBURG", "STATE": "KS", "ZIP": "66053", "ZIP4": "8313", "TYPE": "NATURAL GAS COMPRESSOR STATION", "STATUS": "IN SERVICE", "COUNTY": "MIAMI", "COUNTYFIPS": "20121", "COUNTRY": "USA", "LATITUDE": 38.600059853489199, "LONGITUDE": -94.673371887512403, "NAICS_CODE": "486210", "NAICS_DESC": "BOOSTER PUMPING STATION, NATURAL GAS TRANSPORTATION", "SOURCE": "EPA ENVIROFACTS, FERC FORM 2, CORPORATE WEBSITE", "SOURCEDATE": "Wed, 15 Jul 2020 00:00:00 GMT", "VAL_METHOD": "IMAGERY/OTHER", "VAL_DATE": "Fri, 24 Jun 2022 00:00:00 GMT", "WEBSITE": "http://peplmessenger.energytransfer.com/", "PIPECO": "PANHANDLE EASTERN PIPE LINE COMPANY L.P.", "COMPID": "28", "OPERATOR": "PANHANDLE EASTERN PIPE LINE COMPANY L.P.", "POSREL": "WITHIN 40 FEET", "NUM_UNITS": 11, "CERT_HP": 33280, "PLANT_COST": 54796061, "EXP_FUEL": 1232176, "EXP_OTHER": 2142461, "GAS_COMPRE": 752017, "OP_COMP_HR": 29147, "OP_NUM_COM": 8, "OP_DATE_PE": "Tue, 21 Jan 2020 00:00:00 GMT", "EXP_POWER": 0, "ELEC_COMPR": 0 }, "geometry": { "type": "Point", "coordinates": [ -94.673371888, 38.600059853000097 ] } },
{ "type": "Feature", "properties": { "OBJECTID": 929, "GCOMPID": "GCOMP606", "NAME": "ALVA N HOPETON COMPRESSOR STATION (OKLAHOMA-HOPETON-WOODS COUNTY)", "ADDRESS": "42589 GRADY ROAD; 6.5 MILES SW OF ALVA; 0.3 MILE W OF ROADS E0200 AND N2430", "CITY": "ALVA", "STATE": "OK", "ZIP": "73717", "ZIP4": "NOT AVAILABLE", "TYPE": "NATURAL GAS COMPRESSOR STATION", "STATUS": "IN SERVICE", "COUNTY": "WOODS", "COUNTYFIPS": "40151", "COUNTRY": "USA", "LATITUDE": 36.72619, "LONGITUDE": -98.69101, "NAICS_CODE": "486210", "NAICS_DESC": "BOOSTER PUMPING STATION, NATURAL GAS TRANSPORTATION", "SOURCE": "EPA ENVIROFACTS, FERC FORM 2, CORPORATE WEBSITE", "SOURCEDATE": "Wed, 15 Jul 2020 00:00:00 GMT", "VAL_METHOD": "IMAGERY/OTHER", "VAL_DATE": "Fri, 17 Jun 2022 00:00:00 GMT", "WEBSITE": "http://peplmessenger.energytransfer.com/", "PIPECO": "PANHANDLE EASTERN PIPE LINE COMPANY L.P.", "COMPID": "28", "OPERATOR": "PANHANDLE EASTERN PIPE LINE COMPANY L.P.", "POSREL": "WITHIN 40 FEET", "NUM_UNITS": 5, "CERT_HP": 20800, "PLANT_COST": 23224996, "EXP_FUEL": 1846335, "EXP_OTHER": 1885448, "GAS_COMPRE": 675957, "OP_COMP_HR": 19715, "OP_NUM_COM": 4, "OP_DATE_PE": "Tue, 09 Oct 2012 00:00:00 GMT", "EXP_POWER": 0, "ELEC_COMPR": 0 }, "geometry": { "type": "Point", "coordinates": [ -98.69101, 36.72619 ] } },
{ "type": "Feature", "properties": { "OBJECTID": 995, "GCOMPID": "GCOMP666", "NAME": "KANSAS-COLUMBIAN-GRANT COUNTY", "ADDRESS": "5079 S ROAD S", "CITY": "ULYSSES", "STATE": "KS", "ZIP": "67880", "ZIP4": "NOT AVAILABLE", "TYPE": "NATURAL GAS COMPRESSOR STATION", "STATUS": "IN SERVICE", "COUNTY": "GRANT", "COUNTYFIPS": "20067", "COUNTRY": "USA", "LATITUDE": 37.516804387000001, "LONGITUDE": -101.199524246, "NAICS_CODE": "486210", "NAICS_DESC": "BOOSTER PUMPING STATION, NATURAL GAS TRANSPORTATION", "SOURCE": "FERC FORM 2, IMAGERY", "SOURCEDATE": "Wed, 15 Jul 2020 00:00:00 GMT", "VAL_METHOD": "IMAGERY/OTHER", "VAL_DATE": "Fri, 17 Jun 2022 00:00:00 GMT", "WEBSITE": "http://peplmessenger.energytransfer.com/", "PIPECO": "PANHANDLE EASTERN PIPE LINE COMPANY L.P.", "COMPID": "28", "OPERATOR": "PANHANDLE EASTERN PIPE LINE COMPANY L.P.", "POSREL": "WITHIN 40 FEET", "NUM_UNITS": 2, "CERT_HP": 7030, "PLANT_COST": 5819548, "EXP_FUEL": 12596, "EXP_OTHER": 74191, "GAS_COMPRE": 8098, "OP_COMP_HR": 480, "OP_NUM_COM": 1, "OP_DATE_PE": "Wed, 17 Jun 2020 00:00:00 GMT", "EXP_POWER": 0, "ELEC_COMPR": 0 }, "geometry": { "type": "Point", "coordinates": [ -101.199524246, 37.516804387 ] } },
{ "type": "Feature", "properties": { "OBJECTID": 1048, "GCOMPID": "GCOMP713", "NAME": "ILLINOIS-TUSCOLA-DOUGLAS COUNTY", "ADDRESS": "575 E US HIGHWAY 36", "CITY": "TUSCOLA", "STATE": "IL", "ZIP": "61953", "ZIP4": "7586", "TYPE": "NATURAL GAS COMPRESSOR STATION", "STATUS": "IN SERVICE", "COUNTY": "DOUGLAS", "COUNTYFIPS": "17041", "COUNTRY": "USA", "LATITUDE": 39.790242, "LONGITUDE": -88.358652, "NAICS_CODE": "486210", "NAICS_DESC": "BOOSTER PUMPING STATION, NATURAL GAS TRANSPORTATION", "SOURCE": "EPA ENVIROFACTS, FERC FORM 2, CORPORATE WEBSITE", "SOURCEDATE": "Wed, 15 Jul 2020 00:00:00 GMT", "VAL_METHOD": "IMAGERY/OTHER", "VAL_DATE": "Fri, 17 Jun 2022 00:00:00 GMT", "WEBSITE": "http://peplmessenger.energytransfer.com/", "PIPECO": "PANHANDLE EASTERN PIPE LINE COMPANY L.P.", "COMPID": "28", "OPERATOR": "PANHANDLE EASTERN PIPE LINE COMPANY L.P.", "POSREL": "WITHIN 40 FEET", "NUM_UNITS": 11, "CERT_HP": 26800, "PLANT_COST": 42065191, "EXP_FUEL": 828941, "EXP_OTHER": 2676150, "GAS_COMPRE": 510629, "OP_COMP_HR": 28309, "OP_NUM_COM": 7, "OP_DATE_PE": "Fri, 17 Apr 2020 00:00:00 GMT", "EXP_POWER": 0, "ELEC_COMPR": 0 }, "geometry": { "type": "Point", "coordinates": [ -88.358652, 39.790242 ] } },
{ "type": "Feature", "properties": { "OBJECTID": 1268, "GCOMPID": "GCOMP911", "NAME": "INDIANA-ZIONSVILLE-MARION COUNTY", "ADDRESS": "9371 ZIONSVILLE ROAD", "CITY": "INDIANAPOLIS", "STATE": "IN", "ZIP": "46268", "ZIP4": "NOT AVAILABLE", "TYPE": "NATURAL GAS COMPRESSOR STATION", "STATUS": "IN SERVICE", "COUNTY": "MARION", "COUNTYFIPS": "18097", "COUNTRY": "USA", "LATITUDE": 39.920668039, "LONGITUDE": -86.259022267999995, "NAICS_CODE": "486210", "NAICS_DESC": "BOOSTER PUMPING STATION, NATURAL GAS TRANSPORTATION", "SOURCE": "EPA ENVIROFACTS, FERC FORM 2, CORPORATE WEBSITE", "SOURCEDATE": "Wed, 15 Jul 2020 00:00:00 GMT", "VAL_METHOD": "IMAGERY/OTHER", "VAL_DATE": "Fri, 17 Jun 2022 00:00:00 GMT", "WEBSITE": "http://peplmessenger.energytransfer.com/", "PIPECO": "PANHANDLE EASTERN PIPE LINE COMPANY L.P.", "COMPID": "28", "OPERATOR": "PANHANDLE EASTERN PIPE LINE COMPANY L.P.", "POSREL": "WITHIN 40 FEET", "NUM_UNITS": 8, "CERT_HP": 26950, "PLANT_COST": 39933554, "EXP_FUEL": 118359, "EXP_OTHER": 2259021, "GAS_COMPRE": 70774, "OP_COMP_HR": 2772, "OP_NUM_COM": 3, "OP_DATE_PE": "Sat, 29 Aug 2020 00:00:00 GMT", "EXP_POWER": 0, "ELEC_COMPR": 0 }, "geometry": { "type": "Point", "coordinates": [ -86.259022268, 39.920668039000098 ] } },
{ "type": "Feature", "properties": { "OBJECTID": 1282, "GCOMPID": "GCOMP924", "NAME": "KANSAS-OLPE-LYON COUNTY", "ADDRESS": "985 ROAD 90", "CITY": "OLPE", "STATE": "KS", "ZIP": "66865", "ZIP4": "NOT AVAILABLE", "TYPE": "NATURAL GAS COMPRESSOR STATION", "STATUS": "IN SERVICE", "COUNTY": "LYON", "COUNTYFIPS": "20111", "COUNTRY": "USA", "LATITUDE": 38.289820192999997, "LONGITUDE": -96.192556193000001, "NAICS_CODE": "486210", "NAICS_DESC": "BOOSTER PUMPING STATION, NATURAL GAS TRANSPORTATION", "SOURCE": "EPA ENVIROFACTS, FERC FORM 2, CORPORATE WEBSITE", "SOURCEDATE": "Wed, 15 Jul 2020 00:00:00 GMT", "VAL_METHOD": "IMAGERY/OTHER", "VAL_DATE": "Fri, 17 Jun 2022 00:00:00 GMT", "WEBSITE": "http://peplmessenger.energytransfer.com/", "PIPECO": "PANHANDLE EASTERN PIPE LINE COMPANY L.P.", "COMPID": "28", "OPERATOR": "PANHANDLE EASTERN PIPE LINE COMPANY L.P.", "POSREL": "WITHIN 40 FEET", "NUM_UNITS": 6, "CERT_HP": 39810, "PLANT_COST": 68472692, "EXP_FUEL": 1116433, "EXP_OTHER": 1628960, "GAS_COMPRE": 713013, "OP_COMP_HR": 12226, "OP_NUM_COM": 4, "OP_DATE_PE": "Tue, 21 Jan 2020 00:00:00 GMT", "EXP_POWER": 0, "ELEC_COMPR": 0 }, "geometry": { "type": "Point", "coordinates": [ -96.192556193, 38.289820193 ] } },
{ "type": "Feature", "properties": { "OBJECTID": 1309, "GCOMPID": "GCOMP949", "NAME": "OKLAHOMA-CASHION-KINGFISHER COUNTY", "ADDRESS": "CASHION STATION; 4 MILE WEST 1/2 MILE SOUTH OF CASHION", "CITY": "CASHION", "STATE": "OK", "ZIP": "73016", "ZIP4": "NOT AVAILABLE", "TYPE": "NATURAL GAS COMPRESSOR STATION", "STATUS": "IN SERVICE", "COUNTY": "KINGFISHER", "COUNTYFIPS": "40073", "COUNTRY": "USA", "LATITUDE": 35.789328482999998, "LONGITUDE": -97.74436885, "NAICS_CODE": "486210", "NAICS_DESC": "BOOSTER PUMPING STATION, NATURAL GAS TRANSPORTATION", "SOURCE": "EPA ENVIROFACTS, FERC FORM 2, CORPORATE WEBSITE", "SOURCEDATE": "Wed, 15 Jul 2020 00:00:00 GMT", "VAL_METHOD": "IMAGERY/OTHER", "VAL_DATE": "Fri, 17 Jun 2022 00:00:00 GMT", "WEBSITE": "http://peplmessenger.energytransfer.com/", "PIPECO": "PANHANDLE EASTERN PIPE LINE COMPANY L.P.", "COMPID": "28", "OPERATOR": "PANHANDLE EASTERN PIPE LINE COMPANY L.P.", "POSREL": "WITHIN 40 FEET", "NUM_UNITS": 4, "CERT_HP": 11222, "PLANT_COST": 14390884, "EXP_FUEL": 347132, "EXP_OTHER": 899268, "GAS_COMPRE": 207998, "OP_COMP_HR": 10888, "OP_NUM_COM": 2, "OP_DATE_PE": "Tue, 04 Feb 2020 00:00:00 GMT", "EXP_POWER": 0, "ELEC_COMPR": 0 }, "geometry": { "type": "Point", "coordinates": [ -97.744368849999901, 35.789328483000098 ] } },
{ "type": "Feature", "properties": { "OBJECTID": 1321, "GCOMPID": "GCOMP96", "NAME": "TEXAS-SUNRAY-MOORE COUNTY", "ADDRESS": "11571 TEXAS BEEF ROAD", "CITY": "SUNRAY", "STATE": "TX", "ZIP": "79086", "ZIP4": "NOT AVAILABLE", "TYPE": "NATURAL GAS COMPRESSOR STATION", "STATUS": "IN SERVICE", "COUNTY": "MOORE", "COUNTYFIPS": "48341", "COUNTRY": "USA", "LATITUDE": 35.962097168000071, "LONGITUDE": -101.81561279299996, "NAICS_CODE": "486210", "NAICS_DESC": "BOOSTER PUMPING STATION, NATURAL GAS TRANSPORTATION", "SOURCE": "EPA ENVIROFACTS, FERC FORM 2, CORPORATE WEBSITE", "SOURCEDATE": "Wed, 15 Jul 2020 00:00:00 GMT", "VAL_METHOD": "IMAGERY/OTHER", "VAL_DATE": "Fri, 17 Jun 2022 00:00:00 GMT", "WEBSITE": "http://peplmessenger.energytransfer.com/", "PIPECO": "PANHANDLE EASTERN PIPE LINE COMPANY L.P.", "COMPID": "28", "OPERATOR": "PANHANDLE EASTERN PIPE LINE COMPANY L.P.", "POSREL": "WITHIN 40 FEET", "NUM_UNITS": 9, "CERT_HP": 9900, "PLANT_COST": 4275641, "EXP_FUEL": 191611, "EXP_OTHER": 861505, "GAS_COMPRE": 111099, "OP_COMP_HR": 17418, "OP_NUM_COM": 4, "OP_DATE_PE": "Thu, 03 Dec 2020 00:00:00 GMT", "EXP_POWER": 0, "ELEC_COMPR": 0 }, "geometry": { "type": "Point", "coordinates": [ -101.815612793, 35.962097168000099 ] } },
{ "type": "Feature", "properties": { "OBJECTID": 1332, "GCOMPID": "GCOMP97", "NAME": "ILLINOIS-GLENARM-SANGAMON COUNTY", "ADDRESS": "11615 OLD ROUTE 66", "CITY": "GLENARM", "STATE": "IL", "ZIP": "62536", "ZIP4": "NOT AVAILABLE", "TYPE": "NATURAL GAS COMPRESSOR STATION", "STATUS": "IN SERVICE", "COUNTY": "SANGAMON", "COUNTYFIPS": "17167", "COUNTRY": "USA", "LATITUDE": 39.63285, "LONGITUDE": -89.6309, "NAICS_CODE": "486210", "NAICS_DESC": "BOOSTER PUMPING STATION, NATURAL GAS TRANSPORTATION", "SOURCE": "EPA ENVIROFACTS, FERC FORM 2, CORPORATE WEBSITE", "SOURCEDATE": "Wed, 15 Jul 2020 00:00:00 GMT", "VAL_METHOD": "IMAGERY/OTHER", "VAL_DATE": "Fri, 17 Jun 2022 00:00:00 GMT", "WEBSITE": "http://peplmessenger.energytransfer.com/", "PIPECO": "PANHANDLE EASTERN PIPE LINE COMPANY L.P.", "COMPID": "28", "OPERATOR": "PANHANDLE EASTERN PIPE LINE COMPANY L.P.", "POSREL": "WITHIN 40 FEET", "NUM_UNITS": 7, "CERT_HP": 23500, "PLANT_COST": 47405534, "EXP_FUEL": 308920, "EXP_OTHER": 2506288, "GAS_COMPRE": 198634, "OP_COMP_HR": 6968, "OP_NUM_COM": 4, "OP_DATE_PE": "Thu, 19 Nov 2020 00:00:00 GMT", "EXP_POWER": 0, "ELEC_COMPR": 0 }, "geometry": { "type": "Point", "coordinates": [ -89.630899999999897, 39.63285 ] } },
{ "type": "Feature", "properties": { "OBJECTID": 1346, "GCOMPID": "GCOMP982", "NAME": "OKLAHOMA-MOUSER-TEXAS COUNTY", "ADDRESS": "CORNER OF MILE 33 AND E0090 ROAD; 12 MILES W OF HOOKER", "CITY": "HOOKER", "STATE": "OK", "ZIP": "73945", "ZIP4": "NOT AVAILABLE", "TYPE": "NATURAL GAS COMPRESSOR STATION", "STATUS": "IN SERVICE", "COUNTY": "TEXAS", "COUNTYFIPS": "40139", "COUNTRY": "USA", "LATITUDE": 36.87369, "LONGITUDE": -101.43358, "NAICS_CODE": "486210", "NAICS_DESC": "BOOSTER PUMPING STATION, NATURAL GAS TRANSPORTATION", "SOURCE": "EPA ENVIROFACTS, FERC FORM 2, CORPORATE WEBSITE", "SOURCEDATE": "Wed, 15 Jul 2020 00:00:00 GMT", "VAL_METHOD": "IMAGERY/OTHER", "VAL_DATE": "Fri, 17 Jun 2022 00:00:00 GMT", "WEBSITE": "http://peplmessenger.energytransfer.com/", "PIPECO": "PANHANDLE EASTERN PIPE LINE COMPANY L.P.", "COMPID": "28", "OPERATOR": "PANHANDLE EASTERN PIPE LINE COMPANY L.P.", "POSREL": "WITHIN 40 FEET", "NUM_UNITS": 7, "CERT_HP": 4594, "PLANT_COST": 3489110, "EXP_FUEL": 194480, "EXP_OTHER": 0, "GAS_COMPRE": 74120, "OP_COMP_HR": 17359, "OP_NUM_COM": 2, "OP_DATE_PE": "Tue, 25 Dec 2012 00:00:00 GMT", "EXP_POWER": 0, "ELEC_COMPR": 0 }, "geometry": { "type": "Point", "coordinates": [ -101.43358, 36.873690000000103 ] } },
{ "type": "Feature", "properties": { "OBJECTID": 1348, "GCOMPID": "GCOMP984", "NAME": "OKLAHOMA-SEILING-DEWEY COUNTY", "ADDRESS": "CORNER OF US-60 AND N2240 ROAD; 6 MILES W ON HIGHWAY 60", "CITY": "SEILING", "STATE": "OK", "ZIP": "73663", "ZIP4": "NOT AVAILABLE", "TYPE": "NATURAL GAS COMPRESSOR STATION", "STATUS": "IN SERVICE", "COUNTY": "DEWEY", "COUNTYFIPS": "40043", "COUNTRY": "USA", "LATITUDE": 36.145452176, "LONGITUDE": -99.012724819, "NAICS_CODE": "486210", "NAICS_DESC": "BOOSTER PUMPING STATION, NATURAL GAS TRANSPORTATION", "SOURCE": "EPA ENVIROFACTS, FERC FORM 2, CORPORATE WEBSITE", "SOURCEDATE": "Wed, 15 Jul 2020 00:00:00 GMT", "VAL_METHOD": "IMAGERY/OTHER", "VAL_DATE": "Fri, 17 Jun 2022 00:00:00 GMT", "WEBSITE": "http://peplmessenger.energytransfer.com/", "PIPECO": "PANHANDLE EASTERN PIPE LINE COMPANY L.P.", "COMPID": "28", "OPERATOR": "PANHANDLE EASTERN PIPE LINE COMPANY L.P.", "POSREL": "WITHIN 40 FEET", "NUM_UNITS": 1, "CERT_HP": 10860, "PLANT_COST": 8118997, "EXP_FUEL": -198, "EXP_OTHER": 8500, "GAS_COMPRE": -146, "OP_COMP_HR": 0, "OP_NUM_COM": 0, "OP_DATE_PE": "Sun, 05 Apr 2020 00:00:00 GMT", "EXP_POWER": 0, "ELEC_COMPR": 0 }, "geometry": { "type": "Point", "coordinates": [ -99.012724819, 36.145452176 ] } },
{ "type": "Feature", "properties": { "OBJECTID": null, "GCOMPID": null, "NAME": null, "ADDRESS": null, "CITY": null, "STATE": null, "ZIP": null, "ZIP4": null, "TYPE": null, "STATUS": null, "COUNTY": null, "COUNTYFIPS": null, "COUNTRY": null, "LATITUDE": null, "LONGITUDE": null, "NAICS_CODE": null, "NAICS_DESC": null, "SOURCE": null, "SOURCEDATE": null, "VAL_METHOD": null, "VAL_DATE": null, "WEBSITE": null, "PIPECO": null, "COMPID": null, "OPERATOR": null, "POSREL": null, "NUM_UNITS": null, "CERT_HP": null, "PLANT_COST": null, "EXP_FUEL": null, "EXP_OTHER": null, "GAS_COMPRE": null, "OP_COMP_HR": null, "OP_NUM_COM": null, "OP_DATE_PE": null, "EXP_POWER": null, "ELEC_COMPR": null }, "geometry": { "type": "Point", "coordinates": [ -101.201826874573371, 37.705760056126408 ] } }
]
}
