{
"type": "FeatureCollection",
"name": "P0246-compressor-stations",
"crs": { "type": "name", "properties": { "name": "urn:ogc:def:crs:OGC:1.3:CRS84" } },
"features": [
{ "type": "Feature", "properties": { "OBJECTID": 12, "GCOMPID": "GCOMP1008", "NAME": "R28184002/102 AT BIG HOLE", "ADDRESS": "COUNTY ROAD 4/WEST OF COUNTY-192N", "CITY": "CRAIG", "STATE": "CO", "ZIP": "81625", "ZIP4": "NOT AVAILABLE", "TYPE": "NATURAL GAS COMPRESSOR STATION", "STATUS": "IN SERVICE", "COUNTY": "MOFFAT", "COUNTYFIPS": "08081", "COUNTRY": "USA", "LATITUDE": 40.977975094999998, "LONGITUDE": -107.974271853, "NAICS_CODE": "486210", "NAICS_DESC": "BOOSTER PUMPING STATION, NATURAL GAS TRANSPORTATION", "SOURCE": "EPA ENVIROFACTS, FERC FORM 2, CORPORATE WEBSITE", "SOURCEDATE": "Wed, 15 Jul 2020 00:00:00 GMT", "VAL_METHOD": "IMAGERY/OTHER", "VAL_DATE": "Fri, 17 Jun 2022 00:00:00 GMT", "WEBSITE": "http://www.tallgrassenergylp.com/", "PIPECO": "ROCKIES EXPRESS PIPELINE L.L.C.", "COMPID": "575", "OPERATOR": "ROCKIES EXPRESS PIPELINE L.L.C.", "POSREL": "WITHIN 40 FEET", "NUM_UNITS": 2, "CERT_HP": 17695, "PLANT_COST": 37353911, "EXP_FUEL": 0, "EXP_OTHER": 0, "GAS_COMPRE": 48456, "OP_COMP_HR": 409, "OP_NUM_COM": 1, "OP_DATE_PE": "Sat, 22 Feb 2020 00:00:00 GMT", "EXP_POWER": 0, "ELEC_COMPR": 0 }, "geometry": { "type": "Point", "coordinates": [ -107.973938596612527, 40.978107334985083 ] } },
{ "type": "Feature", "properties": { "OBJECTID": 30, "GCOMPID": "GCOMP1024", "NAME": "R28264007 AT BERTRAND", "ADDRESS": "E ROAD/SOUTH OF 735 ROAD", "CITY": "BERTRAND", "STATE": "NE", "ZIP": "68927", "ZIP4": "NOT AVAILABLE", "TYPE": "NATURAL GAS COMPRESSOR STATION", "STATUS": "IN SERVICE", "COUNTY": "PHELPS", "COUNTYFIPS": "31137", "COUNTRY": "USA", "LATITUDE": 40.475154, "LONGITUDE": -99.550596, "NAICS_CODE": "486210", "NAICS_DESC": "BOOSTER PUMPING STATION, NATURAL GAS TRANSPORTATION", "SOURCE": "FERC FORM 2, CORPORATE WEBSITE, IMAGERY", "SOURCEDATE": "Wed, 15 Jul 2020 00:00:00 GMT", "VAL_METHOD": "IMAGERY/OTHER", "VAL_DATE": "Fri, 17 Jun 2022 00:00:00 GMT", "WEBSITE": "http://www.tallgrassenergylp.com/", "PIPECO": "ROCKIES EXPRESS PIPELINE L.L.C.", "COMPID": "575", "OPERATOR": "ROCKIES EXPRESS PIPELINE L.L.C.", "POSREL": "WITHIN 40 FEET", "NUM_UNITS": 5, "CERT_HP": 35082, "PLANT_COST": 75683588, "EXP_FUEL": 0, "EXP_OTHER": 0, "GAS_COMPRE": 386509, "OP_COMP_HR": 9181, "OP_NUM_COM": 3, "OP_DATE_PE": "Wed, 29 Apr 2020 00:00:00 GMT", "EXP_POWER": 0, "ELEC_COMPR": 0 }, "geometry": { "type": "Point", "coordinates": [ -99.550303297557093, 40.476392261229996 ] } },
{ "type": "Feature", "properties": { "OBJECTID": 208, "GCOMPID": "GCOMP1186", "NAME": "R28304009 AT TURNEY", "ADDRESS": "NE STATE HIGHWAY A/NE 284TH STREET (MO-123)", "CITY": "TURNEY", "STATE": "MO", "ZIP": "64493", "ZIP4": "NOT AVAILABLE", "TYPE": "NATURAL GAS COMPRESSOR STATION", "STATUS": "IN SERVICE", "COUNTY": "CLINTON", "COUNTYFIPS": "29049", "COUNTRY": "USA", "LATITUDE": 39.60967146, "LONGITUDE": -94.322669851000001, "NAICS_CODE": "486210", "NAICS_DESC": "BOOSTER PUMPING STATION, NATURAL GAS TRANSPORTATION", "SOURCE": "FERC FORM 2, CORPORATE WEBSITE", "SOURCEDATE": "Wed, 15 Jul 2020 00:00:00 GMT", "VAL_METHOD": "IMAGERY/OTHER", "VAL_DATE": "Fri, 17 Jun 2022 00:00:00 GMT", "WEBSITE": "http://www.tallgrassenergylp.com/", "PIPECO": "ROCKIES EXPRESS PIPELINE L.L.C.", "COMPID": "575", "OPERATOR": "ROCKIES EXPRESS PIPELINE L.L.C.", "POSREL": "WITHIN 40 FEET", "NUM_UNITS": 2, "CERT_HP": 35000, "PLANT_COST": 41337655, "EXP_FUEL": 0, "EXP_OTHER": 0, "GAS_COMPRE": 0, "OP_COMP_HR": 0, "OP_NUM_COM": 0, "OP_DATE_PE": "Mon, 01 Jan 2001 00:00:00 GMT", "EXP_POWER": 0, "ELEC_COMPR": 115562861 }, "geometry": { "type": "Point", "coordinates": [ -94.32257465719033, 39.611047165399754 ] } },
{ "type": "Feature", "properties": { "OBJECTID": 285, "GCOMPID": "GCOMP1255", "NAME": "R28194003/103 AT WAMSUTTER", "ADDRESS": "RASMUSSEN ROAD/N OF I-80", "CITY": "WAMSUTTER", "STATE": "WY", "ZIP": "82336", "ZIP4": "NOT AVAILABLE", "TYPE": "NATURAL GAS COMPRESSOR STATION", "STATUS": "IN SERVICE", "COUNTY": "SWEETWATER", "COUNTYFIPS": "56037", "COUNTRY": "USA", "LATITUDE": 41.670791936000001, "LONGITUDE": -108.035251694, "NAICS_CODE": "486210", "NAICS_DESC": "BOOSTER PUMPING STATION, NATURAL GAS TRANSPORTATION", "SOURCE": "EPA ENVIROFACTS, FERC FORM 2, CORPORATE WEBSITE", "SOURCEDATE": "Wed, 15 Jul 2020 00:00:00 GMT", "VAL_METHOD": "IMAGERY/OTHER", "VAL_DATE": "Fri, 17 Jun 2022 00:00:00 GMT", "WEBSITE": "http://www.tallgrassenergylp.com/", "PIPECO": "ROCKIES EXPRESS PIPELINE L.L.C.", "COMPID": "575", "OPERATOR": "ROCKIES EXPRESS PIPELINE L.L.C.", "POSREL": "WITHIN 40 FEET", "NUM_UNITS": 3, "CERT_HP": 18885, "PLANT_COST": 39062892, "EXP_FUEL": 0, "EXP_OTHER": 0, "GAS_COMPRE": 58311, "OP_COMP_HR": 14, "OP_NUM_COM": 1, "OP_DATE_PE": "Wed, 15 Apr 2020 00:00:00 GMT", "EXP_POWER": 0, "ELEC_COMPR": 0 }, "geometry": { "type": "Point", "coordinates": [ -108.035251694, 41.670791936 ] } },
{ "type": "Feature", "properties": { "OBJECTID": 406, "GCOMPID": "GCOMP1364", "NAME": "R28204004/104 AT ARLINGTON", "ADDRESS": "WY-13/I-80", "CITY": "ARLINGTON", "STATE": "WY", "ZIP": "82083", "ZIP4": "NOT AVAILABLE", "TYPE": "NATURAL GAS COMPRESSOR STATION", "STATUS": "IN SERVICE", "COUNTY": "CARBON", "COUNTYFIPS": "56007", "COUNTRY": "USA", "LATITUDE": 41.606083, "LONGITUDE": -106.204815, "NAICS_CODE": "486210", "NAICS_DESC": "BOOSTER PUMPING STATION, NATURAL GAS TRANSPORTATION", "SOURCE": "EPA ENVIROFACTS, FERC FORM 2, CORPORATE WEBSITE", "SOURCEDATE": "Wed, 15 Jul 2020 00:00:00 GMT", "VAL_METHOD": "IMAGERY/OTHER", "VAL_DATE": "Fri, 17 Jun 2022 00:00:00 GMT", "WEBSITE": "http://www.tallgrassenergylp.com/", "PIPECO": "ROCKIES EXPRESS PIPELINE L.L.C.", "COMPID": "575", "OPERATOR": "ROCKIES EXPRESS PIPELINE L.L.C.", "POSREL": "WITHIN 40 FEET", "NUM_UNITS": 4, "CERT_HP": 37294, "PLANT_COST": 75531058, "EXP_FUEL": 0, "EXP_OTHER": 0, "GAS_COMPRE": 2496, "OP_COMP_HR": 66, "OP_NUM_COM": 3, "OP_DATE_PE": "Tue, 09 Jun 2020 00:00:00 GMT", "EXP_POWER": 0, "ELEC_COMPR": 297130 }, "geometry": { "type": "Point", "coordinates": [ -106.205394614817777, 41.605270300881322 ] } },
{ "type": "Feature", "properties": { "OBJECTID": 423, "GCOMPID": "GCOMP149", "NAME": "R30014100 AT CHANDLERSVILLE", "ADDRESS": "1358 IRISH RIDGE ROAD", "CITY": "PHILO", "STATE": "OH", "ZIP": "43771", "ZIP4": "NOT AVAILABLE", "TYPE": "NATURAL GAS COMPRESSOR STATION", "STATUS": "IN SERVICE", "COUNTY": "MUSKINGUM", "COUNTYFIPS": "39119", "COUNTRY": "USA", "LATITUDE": 39.841386751999998, "LONGITUDE": -81.941039222000001, "NAICS_CODE": "486210", "NAICS_DESC": "BOOSTER PUMPING STATION, NATURAL GAS TRANSPORTATION", "SOURCE": "EPA ENVIROFACTS, FERC FORM 2, CORPORATE WEBSITE", "SOURCEDATE": "Wed, 15 Jul 2020 00:00:00 GMT", "VAL_METHOD": "IMAGERY/OTHER", "VAL_DATE": "Fri, 17 Jun 2022 00:00:00 GMT", "WEBSITE": "http://www.tallgrassenergylp.com/", "PIPECO": "ROCKIES EXPRESS PIPELINE L.L.C.", "COMPID": "575", "OPERATOR": "ROCKIES EXPRESS PIPELINE L.L.C.", "POSREL": "WITHIN 40 FEET", "NUM_UNITS": 6, "CERT_HP": 58488, "PLANT_COST": 214445003, "EXP_FUEL": 0, "EXP_OTHER": 0, "GAS_COMPRE": 3307220, "OP_COMP_HR": 31497, "OP_NUM_COM": 5, "OP_DATE_PE": "Fri, 18 Dec 2020 00:00:00 GMT", "EXP_POWER": 0, "ELEC_COMPR": 0 }, "geometry": { "type": "Point", "coordinates": [ -81.940901952104383, 39.840214017198775 ] } },
{ "type": "Feature", "properties": { "OBJECTID": 668, "GCOMPID": "GCOMP37", "NAME": "R28244006 AT JULESBURG", "ADDRESS": "10093 COUNTY ROAD 55", "CITY": "JULESBURG", "STATE": "CO", "ZIP": "80737", "ZIP4": "NOT AVAILABLE", "TYPE": "NATURAL GAS COMPRESSOR STATION", "STATUS": "IN SERVICE", "COUNTY": "SEDGWICK", "COUNTYFIPS": "08115", "COUNTRY": "USA", "LATITUDE": 40.896615, "LONGITUDE": -102.132797, "NAICS_CODE": "486210", "NAICS_DESC": "BOOSTER PUMPING STATION, NATURAL GAS TRANSPORTATION", "SOURCE": "EPA ENVIROFACTS, FERC FORM 2, CORPORATE WEBSITE", "SOURCEDATE": "Wed, 15 Jul 2020 00:00:00 GMT", "VAL_METHOD": "IMAGERY/OTHER", "VAL_DATE": "Fri, 17 Jun 2022 00:00:00 GMT", "WEBSITE": "http://www.tallgrassenergylp.com/", "PIPECO": "ROCKIES EXPRESS PIPELINE L.L.C.", "COMPID": "575", "OPERATOR": "ROCKIES EXPRESS PIPELINE L.L.C.", "POSREL": "WITHIN 40 FEET", "NUM_UNITS": 2, "CERT_HP": 35000, "PLANT_COST": 38224599, "EXP_FUEL": 0, "EXP_OTHER": 0, "GAS_COMPRE": 0, "OP_COMP_HR": 0, "OP_NUM_COM": 0, "OP_DATE_PE": "Mon, 01 Jan 2001 00:00:00 GMT", "EXP_POWER": 0, "ELEC_COMPR": 106063075 }, "geometry": { "type": "Point", "coordinates": [ -102.132215889445476, 40.895551784105464 ] } },
{ "type": "Feature", "properties": { "OBJECTID": 722, "GCOMPID": "GCOMP418", "NAME": "R28334011 AT BLUE MOUND", "ADDRESS": "2488 N 1400E ROAD", "CITY": "BLUE MOUND", "STATE": "IL", "ZIP": "62513", "ZIP4": "NOT AVAILABLE", "TYPE": "NATURAL GAS COMPRESSOR STATION", "STATUS": "IN SERVICE", "COUNTY": "CHRISTIAN", "COUNTYFIPS": "17021", "COUNTRY": "USA", "LATITUDE": 39.712245, "LONGITUDE": -89.269176, "NAICS_CODE": "486210", "NAICS_DESC": "BOOSTER PUMPING STATION, NATURAL GAS TRANSPORTATION", "SOURCE": "EPA ENVIROFACTS, FERC FORM 2, CORPORATE WEBSITE", "SOURCEDATE": "Wed, 15 Jul 2020 00:00:00 GMT", "VAL_METHOD": "IMAGERY/OTHER", "VAL_DATE": "Fri, 17 Jun 2022 00:00:00 GMT", "WEBSITE": "http://www.tallgrassenergylp.com/", "PIPECO": "ROCKIES EXPRESS PIPELINE L.L.C.", "COMPID": "575", "OPERATOR": "ROCKIES EXPRESS PIPELINE L.L.C.", "POSREL": "WITHIN 40 FEET", "NUM_UNITS": 5, "CERT_HP": 35724, "PLANT_COST": 96789476, "EXP_FUEL": 0, "EXP_OTHER": 0, "GAS_COMPRE": 4424, "OP_COMP_HR": 113, "OP_NUM_COM": 5, "OP_DATE_PE": "Tue, 17 Mar 2020 00:00:00 GMT", "EXP_POWER": 0, "ELEC_COMPR": 0 }, "geometry": { "type": "Point", "coordinates": [ -89.268943026869579, 39.713582547742504 ] } },
{ "type": "Feature", "properties": { "OBJECTID": 994, "GCOMPID": "GCOMP665", "NAME": "R28274008 AT STEELE CITY", "ADDRESS": "50731 W 131 ROAD", "CITY": "ODELL", "STATE": "NE", "ZIP": "68415", "ZIP4": "NOT AVAILABLE", "TYPE": "NATURAL GAS COMPRESSOR STATION", "STATUS": "IN SERVICE", "COUNTY": "GAGE", "COUNTYFIPS": "31067", "COUNTRY": "USA", "LATITUDE": 40.016778, "LONGITUDE": -96.897791, "NAICS_CODE": "486210", "NAICS_DESC": "BOOSTER PUMPING STATION, NATURAL GAS TRANSPORTATION", "SOURCE": "EPA ENVIROFACTS, FERC FORM 2, CORPORATE WEBSITE", "SOURCEDATE": "Wed, 15 Jul 2020 00:00:00 GMT", "VAL_METHOD": "IMAGERY/OTHER", "VAL_DATE": "Fri, 17 Jun 2022 00:00:00 GMT", "WEBSITE": "http://www.tallgrassenergylp.com/", "PIPECO": "ROCKIES EXPRESS PIPELINE L.L.C.", "COMPID": "575", "OPERATOR": "ROCKIES EXPRESS PIPELINE L.L.C.", "POSREL": "WITHIN 40 FEET", "NUM_UNITS": 2, "CERT_HP": 31012, "PLANT_COST": 41822504, "EXP_FUEL": 0, "EXP_OTHER": 0, "GAS_COMPRE": 71153, "OP_COMP_HR": 515, "OP_NUM_COM": 1, "OP_DATE_PE": "Fri, 13 Mar 2020 00:00:00 GMT", "EXP_POWER": 0, "ELEC_COMPR": 0 }, "geometry": { "type": "Point", "coordinates": [ -96.897458719220865, 40.018236925627747 ] } },
{ "type": "Feature", "properties": { "OBJECTID": 1117, "GCOMPID": "GCOMP776", "NAME": "R28214005 AT CHEYENNE", "ADDRESS": "65537 US-85", "CITY": "CARR", "STATE": "CO", "ZIP": "80612", "ZIP4": "NOT AVAILABLE", "TYPE": "NATURAL GAS COMPRESSOR STATION", "STATUS": "IN SERVICE", "COUNTY": "WELD", "COUNTYFIPS": "08123", "COUNTRY": "USA", "LATITUDE": 40.949487, "LONGITUDE": -104.796943, "NAICS_CODE": "486210", "NAICS_DESC": "BOOSTER PUMPING STATION, NATURAL GAS TRANSPORTATION", "SOURCE": "EPA ENVIROFACTS, FERC FORM 2, CORPORATE WEBSITE", "SOURCEDATE": "Wed, 15 Jul 2020 00:00:00 GMT", "VAL_METHOD": "IMAGERY/OTHER", "VAL_DATE": "Fri, 17 Jun 2022 00:00:00 GMT", "WEBSITE": "http://www.tallgrassenergylp.com/", "PIPECO": "ROCKIES EXPRESS PIPELINE L.L.C.", "COMPID": "575", "OPERATOR": "ROCKIES EXPRESS PIPELINE L.L.C.", "POSREL": "WITHIN 40 FEET", "NUM_UNITS": 2, "CERT_HP": 35000, "PLANT_COST": 162204826, "EXP_FUEL": 0, "EXP_OTHER": 0, "GAS_COMPRE": 0, "OP_COMP_HR": 524, "OP_NUM_COM": 1, "OP_DATE_PE": "Wed, 28 Oct 2020 00:00:00 GMT", "EXP_POWER": 0, "ELEC_COMPR": 125080150 }, "geometry": { "type": "Point", "coordinates": [ -104.797031132907392, 40.948985548599914 ] } },
{ "type": "Feature", "properties": { "OBJECTID": 1142, "GCOMPID": "GCOMP799", "NAME": "R28354012 AT BAINBRIDGE", "ADDRESS": "6821 N COUNTY ROAD 25 W", "CITY": "BAINBRIDGE", "STATE": "IN", "ZIP": "46105", "ZIP4": "NOT AVAILABLE", "TYPE": "NATURAL GAS COMPRESSOR STATION", "STATUS": "IN SERVICE", "COUNTY": "PUTNAM", "COUNTYFIPS": "18133", "COUNTRY": "USA", "LATITUDE": 39.75863, "LONGITUDE": -86.850277, "NAICS_CODE": "486210", "NAICS_DESC": "BOOSTER PUMPING STATION, NATURAL GAS TRANSPORTATION", "SOURCE": "EPA ENVIROFACTS, FERC FORM 2, CORPORATE WEBSITE", "SOURCEDATE": "Wed, 15 Jul 2020 00:00:00 GMT", "VAL_METHOD": "IMAGERY/OTHER", "VAL_DATE": "Fri, 17 Jun 2022 00:00:00 GMT", "WEBSITE": "http://www.tallgrassenergylp.com/", "PIPECO": "ROCKIES EXPRESS PIPELINE L.L.C.", "COMPID": "575", "OPERATOR": "ROCKIES EXPRESS PIPELINE L.L.C.", "POSREL": "WITHIN 40 FEET", "NUM_UNITS": 2, "CERT_HP": 31654, "PLANT_COST": 51368978, "EXP_FUEL": 0, "EXP_OTHER": 0, "GAS_COMPRE": 629326, "OP_COMP_HR": 5428, "OP_NUM_COM": 2, "OP_DATE_PE": "Wed, 30 Dec 2020 00:00:00 GMT", "EXP_POWER": 0, "ELEC_COMPR": 0 }, "geometry": { "type": "Point", "coordinates": [ -86.850242057550247, 39.759783250052749 ] } },
{ "type": "Feature", "properties": { "OBJECTID": 1153, "GCOMPID": "GCOMP808", "NAME": "R28374013 AT HAMILTON", "ADDRESS": "688 TODHUNTER ROAD/SOUTH OF YANKEE ROAD", "CITY": "HAMILTON", "STATE": "OH", "ZIP": "45011", "ZIP4": "NOT AVAILABLE", "TYPE": "NATURAL GAS COMPRESSOR STATION", "STATUS": "IN SERVICE", "COUNTY": "BUTLER", "COUNTYFIPS": "39017", "COUNTRY": "USA", "LATITUDE": 39.466383, "LONGITUDE": -84.376885, "NAICS_CODE": "486210", "NAICS_DESC": "BOOSTER PUMPING STATION, NATURAL GAS TRANSPORTATION", "SOURCE": "FERC FORM 2, CORPORATE WEBSITE", "SOURCEDATE": "Wed, 15 Jul 2020 00:00:00 GMT", "VAL_METHOD": "IMAGERY/OTHER", "VAL_DATE": "Fri, 17 Jun 2022 00:00:00 GMT", "WEBSITE": "http://www.tallgrassenergylp.com/", "PIPECO": "ROCKIES EXPRESS PIPELINE L.L.C.", "COMPID": "575", "OPERATOR": "ROCKIES EXPRESS PIPELINE L.L.C.", "POSREL": "WITHIN 40 FEET", "NUM_UNITS": 2, "CERT_HP": 35000, "PLANT_COST": 86825949, "EXP_FUEL": 0, "EXP_OTHER": 0, "GAS_COMPRE": 0, "OP_COMP_HR": 17389, "OP_NUM_COM": 2, "OP_DATE_PE": "Tue, 25 Aug 2020 00:00:00 GMT", "EXP_POWER": 0, "ELEC_COMPR": 48383449 }, "geometry": { "type": "Point", "coordinates": [ -84.378113570211966, 39.464400888353524 ] } },
{ "type": "Feature", "properties": { "OBJECTID": 1290, "GCOMPID": "GCOMP931", "NAME": "R28314010 AT MEXICO", "ADDRESS": "AUDRAIN ROAD COUNTY ROAD-441/STATE HIGHWAY KK", "CITY": "MEXICO", "STATE": "MO", "ZIP": "65265", "ZIP4": "NOT AVAILABLE", "TYPE": "NATURAL GAS COMPRESSOR STATION", "STATUS": "IN SERVICE", "COUNTY": "AUDRAIN", "COUNTYFIPS": "29007", "COUNTRY": "USA", "LATITUDE": 39.227267, "LONGITUDE": -91.77785, "NAICS_CODE": "486210", "NAICS_DESC": "BOOSTER PUMPING STATION, NATURAL GAS TRANSPORTATION", "SOURCE": "FERC FORM 2, CORPORATE WEBSITE", "SOURCEDATE": "Wed, 15 Jul 2020 00:00:00 GMT", "VAL_METHOD": "IMAGERY/OTHER", "VAL_DATE": "Fri, 17 Jun 2022 00:00:00 GMT", "WEBSITE": "http://www.tallgrassenergylp.com/", "PIPECO": "ROCKIES EXPRESS PIPELINE L.L.C.", "COMPID": "575", "OPERATOR": "ROCKIES EXPRESS PIPELINE L.L.C.", "POSREL": "WITHIN 40 FEET", "NUM_UNITS": 2, "CERT_HP": 31856, "PLANT_COST": 38716608, "EXP_FUEL": 0, "EXP_OTHER": 0, "GAS_COMPRE": 13495, "OP_COMP_HR": 91, "OP_NUM_COM": 1, "OP_DATE_PE": "Thu, 05 Mar 2020 00:00:00 GMT", "EXP_POWER": 0, "ELEC_COMPR": 0 }, "geometry": { "type": "Point", "coordinates": [ -91.777797474746293, 39.227406461190782 ] } },
{ "type": "Feature", "properties": { "OBJECTID": 1317, "GCOMPID": "GCOMP956", "NAME": "R30014100 AT ECHO SPRINGS", "ADDRESS": "CIG ROAD", "CITY": "WAMSUTTER", "STATE": "WY", "ZIP": "82336", "ZIP4": "NOT AVAILABLE", "TYPE": "NATURAL GAS COMPRESSOR STATION", "STATUS": "IN SERVICE", "COUNTY": "SWEETWATER", "COUNTYFIPS": "56037", "COUNTRY": "USA", "LATITUDE": 41.680248994666002, "LONGITUDE": -107.983217180159, "NAICS_CODE": "486210", "NAICS_DESC": "BOOSTER PUMPING STATION, NATURAL GAS TRANSPORTATION", "SOURCE": "EPA ENVIROFACTS, FERC FORM 2, CORPORATE WEBSITE", "SOURCEDATE": "Wed, 15 Jul 2020 00:00:00 GMT", "VAL_METHOD": "IMAGERY/OTHER", "VAL_DATE": "Fri, 24 Jun 2022 00:00:00 GMT", "WEBSITE": "http://www.tallgrassenergylp.com/", "PIPECO": "ROCKIES EXPRESS PIPELINE L.L.C.", "COMPID": "575", "OPERATOR": "ROCKIES EXPRESS PIPELINE L.L.C.", "POSREL": "WITHIN 40 FEET", "NUM_UNITS": 2, "CERT_HP": 5718, "PLANT_COST": 28162171, "EXP_FUEL": 0, "EXP_OTHER": 0, "GAS_COMPRE": 171274, "OP_COMP_HR": 10446, "OP_NUM_COM": 2, "OP_DATE_PE": "Thu, 23 Jul 2020 00:00:00 GMT", "EXP_POWER": 0, "ELEC_COMPR": 0 }, "geometry": { "type": "Point", "coordinates": [ -107.98321718, 41.680248995 ] } },
{ "type": "Feature", "properties": { "OBJECTID": 2063, "GCOMPID": "GCOMP2066", "NAME": "WAMSUTTER COMPRESSOR STATION", "ADDRESS": "20 RASMUSSEN ROAD", "CITY": "WAMSUTTER", "STATE": "WY", "ZIP": "82336", "ZIP4": "NOT AVAILABLE", "TYPE": "NATURAL GAS COMPRESSOR STATION", "STATUS": "IN SERVICE", "COUNTY": "SWEETWATER", "COUNTYFIPS": "56037", "COUNTRY": "USA", "LATITUDE": 41.668795, "LONGITUDE": -108.023838, "NAICS_CODE": "486210", "NAICS_DESC": "BOOSTER PUMPING STATION, NATURAL GAS TRANSPORTATION", "SOURCE": "EPA ENVIROFACTS, IMAGERY", "SOURCEDATE": "Fri, 27 May 2022 00:00:00 GMT", "VAL_METHOD": "IMAGERY/OTHER", "VAL_DATE": "Sat, 25 Jun 2022 00:00:00 GMT", "WEBSITE": "https://www.tallgrass.com/", "PIPECO": "TALLGRASS ENERGY L.P.", "COMPID": "NOT AVAILABLE", "OPERATOR": "ROCKIES EXPRESS PIPELINE LLC", "POSREL": "WITHIN 40 FEET", "NUM_UNITS": 3, "CERT_HP": 18885, "PLANT_COST": 39062892, "EXP_FUEL": 0, "EXP_OTHER": 0, "GAS_COMPRE": 58311, "OP_COMP_HR": 14, "OP_NUM_COM": 1, "OP_DATE_PE": "Wed, 15 Apr 2020 00:00:00 GMT", "EXP_POWER": 0, "ELEC_COMPR": 0 }, "geometry": { "type": "Point", "coordinates": [ -108.023838, 41.668795 ] } },
{ "type": "Feature", "properties": { "OBJECTID": null, "GCOMPID": null, "NAME": null, "ADDRESS": null, "CITY": null, "STATE": null, "ZIP": null, "ZIP4": null, "TYPE": null, "STATUS": null, "COUNTY": null, "COUNTYFIPS": null, "COUNTRY": null, "LATITUDE": null, "LONGITUDE": null, "NAICS_CODE": null, "NAICS_DESC": null, "SOURCE": null, "SOURCEDATE": null, "VAL_METHOD": null, "VAL_DATE": null, "WEBSITE": null, "PIPECO": null, "COMPID": null, "OPERATOR": null, "POSREL": null, "NUM_UNITS": null, "CERT_HP": null, "PLANT_COST": null, "EXP_FUEL": null, "EXP_OTHER": null, "GAS_COMPRE": null, "OP_COMP_HR": null, "OP_NUM_COM": null, "OP_DATE_PE": null, "EXP_POWER": null, "ELEC_COMPR": null }, "geometry": { "type": "Point", "coordinates": [ -108.292908121746962, 39.898613166160196 ] } }
]
}
