{
"type": "FeatureCollection",
"name": "P0263-compressor-stations",
"crs": { "type": "name", "properties": { "name": "urn:ogc:def:crs:OGC:1.3:CRS84" } },
"features": [
{ "type": "Feature", "properties": { "OBJECTID": 73, "GCOMPID": "GCOMP1063", "NAME": "GRAHAM LAKE FIELD", "ADDRESS": "GOSSETT LANE AND HIGHWAY 601", "CITY": "GREENVILLE", "STATE": "KY", "ZIP": "42345", "ZIP4": "NOT AVAILABLE", "TYPE": "NATURAL GAS COMPRESSOR STATION", "STATUS": "IN SERVICE", "COUNTY": "MUHLENBERG", "COUNTYFIPS": "21177", "COUNTRY": "USA", "LATITUDE": 37.259505, "LONGITUDE": -87.250065, "NAICS_CODE": 486210, "NAICS_DESC": "BOOSTER PUMPING STATION, NATURAL GAS TRANSPORTATION", "SOURCE": "EPA ENVIROFACTS, FERC FORM 2, CORPORATE WEBSITE", "SOURCEDATE": "7/15/2020 12:00:00 AM", "VAL_METHOD": "IMAGERY/OTHER", "VAL_DATE": "6/20/2022 12:00:00 AM", "WEBSITE": "https://www.txgt.com/about-us/subsidiaries/texas-gas-transmission-llc/default.aspx", "PIPECO": "TEXAS GAS TRANSMISSION L.L.C.", "COMPID": 18, "OPERATOR": "TEXAS GAS TRANSMISSION L.L.C.", "POSREL": "WITHIN 40 FEET", "NUM_UNITS": 2, "CERT_HP": 990, "PLANT_COST": 3392853, "EXP_FUEL": 699, "EXP_OTHER": 4521, "GAS_COMPRE": 351, "OP_COMP_HR": 0, "OP_NUM_COM": 0, "OP_DATE_PE": "1/1/2001 12:00:00 AM", "EXP_POWER": 0, "ELEC_COMPR": 0, "x": -9712632.8074800093, "y": 4475340.4297454199 }, "geometry": { "type": "Point", "coordinates": [ -87.250065, 37.259505 ] } },
{ "type": "Feature", "properties": { "OBJECTID": 87, "GCOMPID": "GCOMP1076", "NAME": "MAMOU", "ADDRESS": "HIGHWAY 374", "CITY": "MAMOU", "STATE": "LA", "ZIP": "70554", "ZIP4": "NOT AVAILABLE", "TYPE": "NATURAL GAS COMPRESSOR STATION", "STATUS": "IN SERVICE", "COUNTY": "EVANGELINE PARISH", "COUNTYFIPS": "22039", "COUNTRY": "USA", "LATITUDE": 30.559753031541501, "LONGITUDE": -92.501717592496306, "NAICS_CODE": 486210, "NAICS_DESC": "BOOSTER PUMPING STATION, NATURAL GAS TRANSPORTATION", "SOURCE": "EPA ENVIROFACTS, FERC FORM 2, CORPORATE WEBSITE", "SOURCEDATE": "7/15/2020 12:00:00 AM", "VAL_METHOD": "IMAGERY/OTHER", "VAL_DATE": "6/24/2022 12:00:00 AM", "WEBSITE": "https://www.txgt.com/about-us/subsidiaries/texas-gas-transmission-llc/default.aspx", "PIPECO": "TEXAS GAS TRANSMISSION L.L.C.", "COMPID": 18, "OPERATOR": "TEXAS GAS TRANSMISSION L.L.C.", "POSREL": "WITHIN 40 FEET", "NUM_UNITS": 2, "CERT_HP": 2216, "PLANT_COST": 2186120, "EXP_FUEL": 0, "EXP_OTHER": 0, "GAS_COMPRE": 0, "OP_COMP_HR": 0, "OP_NUM_COM": 0, "OP_DATE_PE": "7/15/2020 12:00:00 AM", "EXP_POWER": 0, "ELEC_COMPR": 0, "x": -10297244.099844599, "y": 3575705.7134131002 }, "geometry": { "type": "Point", "coordinates": [ -92.501717592496306, 30.559753031541501 ] } },
{ "type": "Feature", "properties": { "OBJECTID": 154, "GCOMPID": "GCOMP1137", "NAME": "MIDLAND FIELD", "ADDRESS": "KY-175/KY-70", "CITY": "GRAHAM", "STATE": "KY", "ZIP": "42344", "ZIP4": "NOT AVAILABLE", "TYPE": "NATURAL GAS COMPRESSOR STATION", "STATUS": "IN SERVICE", "COUNTY": "MUHLENBERG", "COUNTYFIPS": "21177", "COUNTRY": "USA", "LATITUDE": 37.296641, "LONGITUDE": -87.3138, "NAICS_CODE": 486210, "NAICS_DESC": "BOOSTER PUMPING STATION, NATURAL GAS TRANSPORTATION", "SOURCE": "FERC FORM 2, CORPORATE WEBSITE", "SOURCEDATE": "7/15/2020 12:00:00 AM", "VAL_METHOD": "IMAGERY/OTHER", "VAL_DATE": "6/20/2022 12:00:00 AM", "WEBSITE": "https://www.txgt.com/about-us/subsidiaries/texas-gas-transmission-llc/default.aspx", "PIPECO": "TEXAS GAS TRANSMISSION L.L.C.", "COMPID": 18, "OPERATOR": "TEXAS GAS TRANSMISSION L.L.C.", "POSREL": "WITHIN 40 FEET", "NUM_UNITS": 8, "CERT_HP": 27000, "PLANT_COST": 58443101, "EXP_FUEL": 310655, "EXP_OTHER": 2069784, "GAS_COMPRE": 173580, "OP_COMP_HR": 7348, "OP_NUM_COM": 5, "OP_DATE_PE": "2/14/2020 12:00:00 AM", "EXP_POWER": 602516, "ELEC_COMPR": 3936000, "x": -9719727.7552257292, "y": 4480535.7710269503 }, "geometry": { "type": "Point", "coordinates": [ -87.3138, 37.296641 ] } },
{ "type": "Feature", "properties": { "OBJECTID": 252, "GCOMPID": "GCOMP1225", "NAME": "BLOCK A 334A - HIOS", "ADDRESS": "OFFSHORE GULF OF MEXICO", "CITY": "NOT APPLICABLE", "STATE": "NOT APPLICABLE", "ZIP": "NOT APPLICABLE", "ZIP4": "NOT APPLICABLE", "TYPE": "NATURAL GAS COMPRESSOR STATION", "STATUS": "IN SERVICE", "COUNTY": "NOT APPLICABLE", "COUNTYFIPS": "NOT APPLICABLE", "COUNTRY": "USA", "LATITUDE": 28.120637, "LONGITUDE": -93.674194, "NAICS_CODE": 486210, "NAICS_DESC": "BOOSTER PUMPING STATION, NATURAL GAS TRANSPORTATION", "SOURCE": "FERC FORM 2", "SOURCEDATE": "7/15/2020 12:00:00 AM", "VAL_METHOD": "IMAGERY/OTHER", "VAL_DATE": "6/20/2022 12:00:00 AM", "WEBSITE": "http://infopost.bwpmlp.com/", "PIPECO": "TEXAS GAS TRANSMISSION L.L.C.", "COMPID": 18, "OPERATOR": "TEXAS GAS TRANSMISSION L.L.C.", "POSREL": "THIRD PARTY", "NUM_UNITS": 0, "CERT_HP": 0, "PLANT_COST": 81373, "EXP_FUEL": 0, "EXP_OTHER": 0, "GAS_COMPRE": 0, "OP_COMP_HR": 0, "OP_NUM_COM": 0, "OP_DATE_PE": "7/15/2020 12:00:00 AM", "EXP_POWER": 0, "ELEC_COMPR": 0, "x": -10427763.576550299, "y": 3264191.8866644101 }, "geometry": { "type": "Point", "coordinates": [ -93.674194, 28.120637 ] } },
{ "type": "Feature", "properties": { "OBJECTID": 335, "GCOMPID": "GCOMP130", "NAME": "GUTHRIE", "ADDRESS": "129 TEXAS GAS ROAD", "CITY": "STERLINGTON", "STATE": "LA", "ZIP": "71280", "ZIP4": "NOT AVAILABLE", "TYPE": "NATURAL GAS COMPRESSOR STATION", "STATUS": "IN SERVICE", "COUNTY": "OUACHITA PARISH", "COUNTYFIPS": "22073", "COUNTRY": "USA", "LATITUDE": 32.680533, "LONGITUDE": -92.020934, "NAICS_CODE": 486210, "NAICS_DESC": "BOOSTER PUMPING STATION, NATURAL GAS TRANSPORTATION", "SOURCE": "EPA ENVIROFACTS, FERC FORM 2, CORPORATE WEBSITE", "SOURCEDATE": "7/15/2020 12:00:00 AM", "VAL_METHOD": "IMAGERY/OTHER", "VAL_DATE": "6/20/2022 12:00:00 AM", "WEBSITE": "https://www.txgt.com/about-us/subsidiaries/texas-gas-transmission-llc/default.aspx", "PIPECO": "TEXAS GAS TRANSMISSION L.L.C.", "COMPID": 18, "OPERATOR": "TEXAS GAS TRANSMISSION L.L.C.", "POSREL": "WITHIN 40 FEET", "NUM_UNITS": 2, "CERT_HP": 2216, "PLANT_COST": 7351790, "EXP_FUEL": 698, "EXP_OTHER": 318659, "GAS_COMPRE": 374, "OP_COMP_HR": 0, "OP_NUM_COM": 0, "OP_DATE_PE": "1/1/2001 12:00:00 AM", "EXP_POWER": 0, "ELEC_COMPR": 0, "x": -10243723.515201399, "y": 3852976.42969624 }, "geometry": { "type": "Point", "coordinates": [ -92.020934, 32.680533 ] } },
{ "type": "Feature", "properties": { "OBJECTID": 451, "GCOMPID": "GCOMP174", "NAME": "OAKTOWN FIELD", "ADDRESS": "14535 N COUNTY ROAD 50 W", "CITY": "OAKTOWN", "STATE": "IN", "ZIP": "47561", "ZIP4": "NOT AVAILABLE", "TYPE": "NATURAL GAS COMPRESSOR STATION", "STATUS": "IN SERVICE", "COUNTY": "KNOX", "COUNTYFIPS": "18083", "COUNTRY": "USA", "LATITUDE": 38.886175, "LONGITUDE": -87.472607, "NAICS_CODE": 486210, "NAICS_DESC": "BOOSTER PUMPING STATION, NATURAL GAS TRANSPORTATION", "SOURCE": "EPA ENVIROFACTS, FERC FORM 2, CORPORATE WEBSITE", "SOURCEDATE": "7/15/2020 12:00:00 AM", "VAL_METHOD": "IMAGERY/OTHER", "VAL_DATE": "6/20/2022 12:00:00 AM", "WEBSITE": "https://www.txgt.com/about-us/subsidiaries/texas-gas-transmission-llc/default.aspx", "PIPECO": "TEXAS GAS TRANSMISSION L.L.C.", "COMPID": 18, "OPERATOR": "TEXAS GAS TRANSMISSION L.L.C.", "POSREL": "WITHIN 40 FEET", "NUM_UNITS": 1, "CERT_HP": 590, "PLANT_COST": 1955814, "EXP_FUEL": 11230, "EXP_OTHER": 274987, "GAS_COMPRE": 6092, "OP_COMP_HR": 600, "OP_NUM_COM": 1, "OP_DATE_PE": "12/24/2020 12:00:00 AM", "EXP_POWER": 0, "ELEC_COMPR": 0, "x": -9737406.0696001407, "y": 4705380.2080020197 }, "geometry": { "type": "Point", "coordinates": [ -87.472607, 38.886175 ] } },
{ "type": "Feature", "properties": { "OBJECTID": 511, "GCOMPID": "GCOMP228", "NAME": "MORGAN CITY", "ADDRESS": "1631 HIGHWAY 662", "CITY": "AMELIA", "STATE": "LA", "ZIP": "70340", "ZIP4": "NOT AVAILABLE", "TYPE": "NATURAL GAS COMPRESSOR STATION", "STATUS": "IN SERVICE", "COUNTY": "SAINT MARY PARISH", "COUNTYFIPS": "22101", "COUNTRY": "USA", "LATITUDE": 29.701029, "LONGITUDE": -91.086066, "NAICS_CODE": 486210, "NAICS_DESC": "BOOSTER PUMPING STATION, NATURAL GAS TRANSPORTATION", "SOURCE": "EPA ENVIROFACTS, FERC FORM 2, CORPORATE WEBSITE", "SOURCEDATE": "7/15/2020 12:00:00 AM", "VAL_METHOD": "IMAGERY/OTHER", "VAL_DATE": "6/20/2022 12:00:00 AM", "WEBSITE": "https://www.txgt.com/about-us/subsidiaries/texas-gas-transmission-llc/default.aspx", "PIPECO": "TEXAS GAS TRANSMISSION L.L.C.", "COMPID": 18, "OPERATOR": "TEXAS GAS TRANSMISSION L.L.C.", "POSREL": "WITHIN 40 FEET", "NUM_UNITS": 2, "CERT_HP": 9212, "PLANT_COST": 7087617, "EXP_FUEL": 450, "EXP_OTHER": 252740, "GAS_COMPRE": 177, "OP_COMP_HR": 0, "OP_NUM_COM": 0, "OP_DATE_PE": "7/15/2020 12:00:00 AM", "EXP_POWER": 0, "ELEC_COMPR": 0, "x": -10139654.485482501, "y": 3465177.5069212499 }, "geometry": { "type": "Point", "coordinates": [ -91.086066, 29.701029 ] } },
{ "type": "Feature", "properties": { "OBJECTID": 517, "GCOMPID": "GCOMP233", "NAME": "EUNICE", "ADDRESS": "1661 COULEE ROAD", "CITY": "EUNICE", "STATE": "LA", "ZIP": "70535", "ZIP4": "NOT AVAILABLE", "TYPE": "NATURAL GAS COMPRESSOR STATION", "STATUS": "IN SERVICE", "COUNTY": "SAINT LANDRY PARISH", "COUNTYFIPS": "22097", "COUNTRY": "USA", "LATITUDE": 30.455877, "LONGITUDE": -92.532695, "NAICS_CODE": 486210, "NAICS_DESC": "BOOSTER PUMPING STATION, NATURAL GAS TRANSPORTATION", "SOURCE": "EPA ENVIROFACTS, FERC FORM 2, CORPORATE WEBSITE", "SOURCEDATE": "7/15/2020 12:00:00 AM", "VAL_METHOD": "IMAGERY/OTHER", "VAL_DATE": "6/20/2022 12:00:00 AM", "WEBSITE": "https://www.txgt.com/about-us/subsidiaries/texas-gas-transmission-llc/default.aspx", "PIPECO": "TEXAS GAS TRANSMISSION L.L.C.", "COMPID": 18, "OPERATOR": "TEXAS GAS TRANSMISSION L.L.C.", "POSREL": "WITHIN 40 FEET", "NUM_UNITS": 5, "CERT_HP": 6650, "PLANT_COST": 21248736, "EXP_FUEL": 803502, "EXP_OTHER": 1387828, "GAS_COMPRE": 421967, "OP_COMP_HR": 35462, "OP_NUM_COM": 5, "OP_DATE_PE": "10/25/2020 12:00:00 AM", "EXP_POWER": 0, "ELEC_COMPR": 0, "x": -10300692.489129299, "y": 3562284.20977626 }, "geometry": { "type": "Point", "coordinates": [ -92.532695, 30.455877 ] } },
{ "type": "Feature", "properties": { "OBJECTID": 618, "GCOMPID": "GCOMP324", "NAME": "WOODLAWN", "ADDRESS": "20421 HIGHWAY 101", "CITY": "WOODLAWN", "STATE": "LA", "ZIP": "70647", "ZIP4": "NOT AVAILABLE", "TYPE": "NATURAL GAS COMPRESSOR STATION", "STATUS": "IN SERVICE", "COUNTY": "JEFFERSON DAVIS PARISH", "COUNTYFIPS": "22053", "COUNTRY": "USA", "LATITUDE": 30.288471, "LONGITUDE": -92.959577, "NAICS_CODE": 486210, "NAICS_DESC": "BOOSTER PUMPING STATION, NATURAL GAS TRANSPORTATION", "SOURCE": "EPA ENVIROFACTS, FERC FORM 2, CORPORATE WEBSITE", "SOURCEDATE": "7/15/2020 12:00:00 AM", "VAL_METHOD": "IMAGERY/OTHER", "VAL_DATE": "6/20/2022 12:00:00 AM", "WEBSITE": "https://www.txgt.com/about-us/subsidiaries/texas-gas-transmission-llc/default.aspx", "PIPECO": "TEXAS GAS TRANSMISSION L.L.C.", "COMPID": 18, "OPERATOR": "TEXAS GAS TRANSMISSION L.L.C.", "POSREL": "WITHIN 40 FEET", "NUM_UNITS": 1, "CERT_HP": 896, "PLANT_COST": 1779181, "EXP_FUEL": 240, "EXP_OTHER": 38291, "GAS_COMPRE": 95, "OP_COMP_HR": 0, "OP_NUM_COM": 0, "OP_DATE_PE": "7/15/2020 12:00:00 AM", "EXP_POWER": 0, "ELEC_COMPR": 0, "x": -10348212.775998101, "y": 3540684.2556436099 }, "geometry": { "type": "Point", "coordinates": [ -92.959577, 30.288471 ] } },
{ "type": "Feature", "properties": { "OBJECTID": 667, "GCOMPID": "GCOMP369", "NAME": "WEST GREENVILLE TRANSMISSION STATION", "ADDRESS": "2245 US HIGHWAY 62 WEST", "CITY": "GREENVILLE", "STATE": "KY", "ZIP": "42345", "ZIP4": "NOT AVAILABLE", "TYPE": "NATURAL GAS COMPRESSOR STATION", "STATUS": "IN SERVICE", "COUNTY": "MUHLENBERG", "COUNTYFIPS": "21177", "COUNTRY": "USA", "LATITUDE": 37.210694, "LONGITUDE": -87.208167, "NAICS_CODE": 486210, "NAICS_DESC": "BOOSTER PUMPING STATION, NATURAL GAS TRANSPORTATION", "SOURCE": "EPA ENVIROFACTS, FERC FORM 2, CORPORATE WEBSITE", "SOURCEDATE": "7/15/2020 12:00:00 AM", "VAL_METHOD": "IMAGERY/OTHER", "VAL_DATE": "6/20/2022 12:00:00 AM", "WEBSITE": "https://www.txgt.com/about-us/subsidiaries/texas-gas-transmission-llc/default.aspx", "PIPECO": "TEXAS GAS TRANSMISSION L.L.C.", "COMPID": 18, "OPERATOR": "TEXAS GAS TRANSMISSION L.L.C.", "POSREL": "WITHIN 40 FEET", "NUM_UNITS": 3, "CERT_HP": 3760, "PLANT_COST": 6744282, "EXP_FUEL": 87016, "EXP_OTHER": 349156, "GAS_COMPRE": 45510, "OP_COMP_HR": 2071, "OP_NUM_COM": 1, "OP_DATE_PE": "5/22/2020 12:00:00 AM", "EXP_POWER": 0, "ELEC_COMPR": 0, "x": -9707968.7434547599, "y": 4468515.6455538301 }, "geometry": { "type": "Point", "coordinates": [ -87.208167, 37.210694 ] } },
{ "type": "Feature", "properties": { "OBJECTID": 690, "GCOMPID": "GCOMP39", "NAME": "GREENVILLE", "ADDRESS": "1012 BEAUCHAMP STREET", "CITY": "GREENVILLE", "STATE": "MS", "ZIP": "38701", "ZIP4": "NOT AVAILABLE", "TYPE": "NATURAL GAS COMPRESSOR STATION", "STATUS": "IN SERVICE", "COUNTY": "WASHINGTON", "COUNTYFIPS": "28151", "COUNTRY": "USA", "LATITUDE": 33.393186088999997, "LONGITUDE": -91.016818787000005, "NAICS_CODE": 486210, "NAICS_DESC": "BOOSTER PUMPING STATION, NATURAL GAS TRANSPORTATION", "SOURCE": "EPA ENVIROFACTS, FERC FORM 2, CORPORATE WEBSITE", "SOURCEDATE": "7/15/2020 12:00:00 AM", "VAL_METHOD": "IMAGERY/OTHER", "VAL_DATE": "6/20/2022 12:00:00 AM", "WEBSITE": "https://www.txgt.com/about-us/subsidiaries/texas-gas-transmission-llc/default.aspx", "PIPECO": "TEXAS GAS TRANSMISSION L.L.C.", "COMPID": 18, "OPERATOR": "TEXAS GAS TRANSMISSION L.L.C.", "POSREL": "WITHIN 40 FEET", "NUM_UNITS": 11, "CERT_HP": 43026, "PLANT_COST": 54982162, "EXP_FUEL": 1452922, "EXP_OTHER": 1160642, "GAS_COMPRE": 771814, "OP_COMP_HR": 16816, "OP_NUM_COM": 1, "OP_DATE_PE": "6/18/2020 12:00:00 AM", "EXP_POWER": 0, "ELEC_COMPR": 0, "x": -10131945.920992499, "y": 3947609.8886707998 }, "geometry": { "type": "Point", "coordinates": [ -91.016818787, 33.393186089 ] } },
{ "type": "Feature", "properties": { "OBJECTID": 741, "GCOMPID": "GCOMP435", "NAME": "LAKE CORMORANT", "ADDRESS": "2672 WILSON MILL ROAD", "CITY": "LAKE CORMORANT", "STATE": "MS", "ZIP": "38641", "ZIP4": "NOT AVAILABLE", "TYPE": "NATURAL GAS COMPRESSOR STATION", "STATUS": "IN SERVICE", "COUNTY": "DE SOTO", "COUNTYFIPS": "28033", "COUNTRY": "USA", "LATITUDE": 34.899794532000001, "LONGITUDE": -90.165159, "NAICS_CODE": 486210, "NAICS_DESC": "BOOSTER PUMPING STATION, NATURAL GAS TRANSPORTATION", "SOURCE": "EPA ENVIROFACTS, FERC FORM 2, CORPORATE WEBSITE", "SOURCEDATE": "7/15/2020 12:00:00 AM", "VAL_METHOD": "IMAGERY/OTHER", "VAL_DATE": "6/20/2022 12:00:00 AM", "WEBSITE": "https://www.txgt.com/about-us/subsidiaries/texas-gas-transmission-llc/default.aspx", "PIPECO": "TEXAS GAS TRANSMISSION L.L.C.", "COMPID": 18, "OPERATOR": "TEXAS GAS TRANSMISSION L.L.C.", "POSREL": "WITHIN 40 FEET", "NUM_UNITS": 9, "CERT_HP": 34773, "PLANT_COST": 39134730, "EXP_FUEL": 944086, "EXP_OTHER": 888519, "GAS_COMPRE": 505488, "OP_COMP_HR": 21324, "OP_NUM_COM": 6, "OP_DATE_PE": "4/17/2020 12:00:00 AM", "EXP_POWER": 0, "ELEC_COMPR": 0, "x": -10037139.587174499, "y": 4150271.9455265398 }, "geometry": { "type": "Point", "coordinates": [ -90.165159, 34.899794532 ] } },
{ "type": "Feature", "properties": { "OBJECTID": 828, "GCOMPID": "GCOMP513", "NAME": "CLARKSDALE", "ADDRESS": "3305 HIGHWAY 61 SOUTH", "CITY": "CLARKSDALE", "STATE": "MS", "ZIP": "38614", "ZIP4": "NOT AVAILABLE", "TYPE": "NATURAL GAS COMPRESSOR STATION", "STATUS": "IN SERVICE", "COUNTY": "COAHOMA", "COUNTYFIPS": "28027", "COUNTRY": "USA", "LATITUDE": 34.148916, "LONGITUDE": -90.635793, "NAICS_CODE": 486210, "NAICS_DESC": "BOOSTER PUMPING STATION, NATURAL GAS TRANSPORTATION", "SOURCE": "EPA ENVIROFACTS, FERC FORM 2, CORPORATE WEBSITE", "SOURCEDATE": "7/15/2020 12:00:00 AM", "VAL_METHOD": "IMAGERY/OTHER", "VAL_DATE": "6/20/2022 12:00:00 AM", "WEBSITE": "https://www.txgt.com/about-us/subsidiaries/texas-gas-transmission-llc/default.aspx", "PIPECO": "TEXAS GAS TRANSMISSION L.L.C.", "COMPID": 18, "OPERATOR": "TEXAS GAS TRANSMISSION L.L.C.", "POSREL": "WITHIN 40 FEET", "NUM_UNITS": 9, "CERT_HP": 38090, "PLANT_COST": 29915816, "EXP_FUEL": 16613, "EXP_OTHER": 736590, "GAS_COMPRE": 8629, "OP_COMP_HR": 49, "OP_NUM_COM": 1, "OP_DATE_PE": "7/14/2020 12:00:00 AM", "EXP_POWER": 0, "ELEC_COMPR": 0, "x": -10089530.3244045, "y": 4048815.37694484 }, "geometry": { "type": "Point", "coordinates": [ -90.635793, 34.148916 ] } },
{ "type": "Feature", "properties": { "OBJECTID": 835, "GCOMPID": "GCOMP52", "NAME": "JEFFERSONTOWN", "ADDRESS": "10327 GASLIGHT WAY", "CITY": "LOUISVILLE", "STATE": "KY", "ZIP": "40299", "ZIP4": "NOT AVAILABLE", "TYPE": "NATURAL GAS COMPRESSOR STATION", "STATUS": "IN SERVICE", "COUNTY": "JEFFERSON", "COUNTYFIPS": "21111", "COUNTRY": "USA", "LATITUDE": 38.216777, "LONGITUDE": -85.565484, "NAICS_CODE": 486210, "NAICS_DESC": "BOOSTER PUMPING STATION, NATURAL GAS TRANSPORTATION", "SOURCE": "EPA ENVIROFACTS, FERC FORM 2, CORPORATE WEBSITE", "SOURCEDATE": "7/15/2020 12:00:00 AM", "VAL_METHOD": "IMAGERY/OTHER", "VAL_DATE": "6/20/2022 12:00:00 AM", "WEBSITE": "https://www.txgt.com/about-us/subsidiaries/texas-gas-transmission-llc/default.aspx", "PIPECO": "TEXAS GAS TRANSMISSION L.L.C.", "COMPID": 18, "OPERATOR": "TEXAS GAS TRANSMISSION L.L.C.", "POSREL": "WITHIN 40 FEET", "NUM_UNITS": 10, "CERT_HP": 26830, "PLANT_COST": 43976902, "EXP_FUEL": 28120, "EXP_OTHER": 790348, "GAS_COMPRE": 14569, "OP_COMP_HR": 62, "OP_NUM_COM": 2, "OP_DATE_PE": "8/20/2020 12:00:00 AM", "EXP_POWER": 0, "ELEC_COMPR": 0, "x": -9525106.1083599906, "y": 4610094.5561666498 }, "geometry": { "type": "Point", "coordinates": [ -85.565484, 38.216777 ] } },
{ "type": "Feature", "properties": { "OBJECTID": 856, "GCOMPID": "GCOMP539", "NAME": "SLAUGHTERS", "ADDRESS": "3562 STATE ROUTE 1405", "CITY": "SLAUGHTERS", "STATE": "KY", "ZIP": "42456", "ZIP4": "NOT AVAILABLE", "TYPE": "NATURAL GAS COMPRESSOR STATION", "STATUS": "IN SERVICE", "COUNTY": "WEBSTER", "COUNTYFIPS": "21233", "COUNTRY": "USA", "LATITUDE": 37.508759, "LONGITUDE": -87.501119, "NAICS_CODE": 486210, "NAICS_DESC": "BOOSTER PUMPING STATION, NATURAL GAS TRANSPORTATION", "SOURCE": "EPA ENVIROFACTS, FERC FORM 2, CORPORATE WEBSITE", "SOURCEDATE": "7/15/2020 12:00:00 AM", "VAL_METHOD": "IMAGERY/OTHER", "VAL_DATE": "6/20/2022 12:00:00 AM", "WEBSITE": "https://www.txgt.com/about-us/subsidiaries/texas-gas-transmission-llc/default.aspx", "PIPECO": "TEXAS GAS TRANSMISSION L.L.C.", "COMPID": 18, "OPERATOR": "TEXAS GAS TRANSMISSION L.L.C.", "POSREL": "WITHIN 40 FEET", "NUM_UNITS": 11, "CERT_HP": 42448, "PLANT_COST": 74161484, "EXP_FUEL": 503025, "EXP_OTHER": 1239761, "GAS_COMPRE": 266575, "OP_COMP_HR": 11122, "OP_NUM_COM": 5, "OP_DATE_PE": "9/1/2020 12:00:00 AM", "EXP_POWER": 0, "ELEC_COMPR": 0, "x": -9740580.0109216291, "y": 4510260.4855466001 }, "geometry": { "type": "Point", "coordinates": [ -87.501119, 37.508759 ] } },
{ "type": "Feature", "properties": { "OBJECTID": 858, "GCOMPID": "GCOMP540", "NAME": "WILFRED FIELD", "ADDRESS": "3570 E COUNTY ROAD 750 N", "CITY": "SHELBURN", "STATE": "IN", "ZIP": "47879", "ZIP4": "NOT AVAILABLE", "TYPE": "NATURAL GAS COMPRESSOR STATION", "STATUS": "IN SERVICE", "COUNTY": "SULLIVAN", "COUNTYFIPS": "18153", "COUNTRY": "USA", "LATITUDE": 39.194311782864503, "LONGITUDE": -87.342601776620995, "NAICS_CODE": 486210, "NAICS_DESC": "BOOSTER PUMPING STATION, NATURAL GAS TRANSPORTATION", "SOURCE": "EPA ENVIROFACTS, FERC FORM 2, CORPORATE WEBSITE", "SOURCEDATE": "7/15/2020 12:00:00 AM", "VAL_METHOD": "IMAGERY/OTHER", "VAL_DATE": "6/24/2022 12:00:00 AM", "WEBSITE": "https://www.txgt.com/about-us/subsidiaries/texas-gas-transmission-llc/default.aspx", "PIPECO": "TEXAS GAS TRANSMISSION L.L.C.", "COMPID": 18, "OPERATOR": "TEXAS GAS TRANSMISSION L.L.C.", "POSREL": "WITHIN 40 FEET", "NUM_UNITS": 4, "CERT_HP": 45400, "PLANT_COST": 127350667, "EXP_FUEL": 1802108, "EXP_OTHER": 0, "GAS_COMPRE": 778108, "OP_COMP_HR": 9046, "OP_NUM_COM": 0, "OP_DATE_PE": "5/20/2012 12:00:00 AM", "EXP_POWER": 0, "ELEC_COMPR": 0, "x": -9722933.9543753099, "y": 4749543.4112537103 }, "geometry": { "type": "Point", "coordinates": [ -87.342601776620995, 39.194311782864503 ] } },
{ "type": "Feature", "properties": { "OBJECTID": 883, "GCOMPID": "GCOMP563", "NAME": "KENTON", "ADDRESS": "3793 TEXAS GAS LANE", "CITY": "KENTON", "STATE": "TN", "ZIP": "38233", "ZIP4": "NOT AVAILABLE", "TYPE": "NATURAL GAS COMPRESSOR STATION", "STATUS": "IN SERVICE", "COUNTY": "GIBSON", "COUNTYFIPS": "47153", "COUNTRY": "USA", "LATITUDE": 36.237627, "LONGITUDE": -89.029997, "NAICS_CODE": 486210, "NAICS_DESC": "BOOSTER PUMPING STATION, NATURAL GAS TRANSPORTATION", "SOURCE": "EPA ENVIROFACTS, FERC FORM 2, CORPORATE WEBSITE", "SOURCEDATE": "7/15/2020 12:00:00 AM", "VAL_METHOD": "IMAGERY/OTHER", "VAL_DATE": "6/20/2022 12:00:00 AM", "WEBSITE": "https://www.txgt.com/about-us/subsidiaries/texas-gas-transmission-llc/default.aspx", "PIPECO": "TEXAS GAS TRANSMISSION L.L.C.", "COMPID": 18, "OPERATOR": "TEXAS GAS TRANSMISSION L.L.C.", "POSREL": "WITHIN 40 FEET", "NUM_UNITS": 12, "CERT_HP": 34650, "PLANT_COST": 28807145, "EXP_FUEL": 131373, "EXP_OTHER": 568910, "GAS_COMPRE": 76115, "OP_COMP_HR": 3681, "OP_NUM_COM": 3, "OP_DATE_PE": "4/17/2020 12:00:00 AM", "EXP_POWER": 0, "ELEC_COMPR": 0, "x": -9910773.9313666709, "y": 4333367.9362305999 }, "geometry": { "type": "Point", "coordinates": [ -89.029997, 36.237627 ] } },
{ "type": "Feature", "properties": { "OBJECTID": 892, "GCOMPID": "GCOMP572", "NAME": "COVINGTON", "ADDRESS": "3947 TABERNACLE CHARLESTON ROAD", "CITY": "COVINGTON", "STATE": "TN", "ZIP": "38049", "ZIP4": "NOT AVAILABLE", "TYPE": "NATURAL GAS COMPRESSOR STATION", "STATUS": "IN SERVICE", "COUNTY": "FAYETTE", "COUNTYFIPS": "47047", "COUNTRY": "USA", "LATITUDE": 35.523048, "LONGITUDE": -89.583679, "NAICS_CODE": 486210, "NAICS_DESC": "BOOSTER PUMPING STATION, NATURAL GAS TRANSPORTATION", "SOURCE": "EPA ENVIROFACTS, FERC FORM 2, CORPORATE WEBSITE", "SOURCEDATE": "7/15/2020 12:00:00 AM", "VAL_METHOD": "IMAGERY/OTHER", "VAL_DATE": "6/20/2022 12:00:00 AM", "WEBSITE": "https://www.txgt.com/about-us/subsidiaries/texas-gas-transmission-llc/default.aspx", "PIPECO": "TEXAS GAS TRANSMISSION L.L.C.", "COMPID": 18, "OPERATOR": "TEXAS GAS TRANSMISSION L.L.C.", "POSREL": "WITHIN 40 FEET", "NUM_UNITS": 11, "CERT_HP": 29000, "PLANT_COST": 26687708, "EXP_FUEL": 20726, "EXP_OTHER": 720731, "GAS_COMPRE": 11121, "OP_COMP_HR": 72, "OP_NUM_COM": 1, "OP_DATE_PE": "2/14/2020 12:00:00 AM", "EXP_POWER": 0, "ELEC_COMPR": 0, "x": -9972409.5296680704, "y": 4235190.4227715703 }, "geometry": { "type": "Point", "coordinates": [ -89.583679, 35.523048 ] } },
{ "type": "Feature", "properties": { "OBJECTID": 894, "GCOMPID": "GCOMP574", "NAME": "PINEVILLE", "ADDRESS": "3983 HIGHWAY 107 SOUTH", "CITY": "PINEVILLE", "STATE": "LA", "ZIP": "71360", "ZIP4": "NOT AVAILABLE", "TYPE": "NATURAL GAS COMPRESSOR STATION", "STATUS": "IN SERVICE", "COUNTY": "RAPIDES PARISH", "COUNTYFIPS": "22079", "COUNTRY": "USA", "LATITUDE": 31.297983, "LONGITUDE": -92.333697, "NAICS_CODE": 486210, "NAICS_DESC": "BOOSTER PUMPING STATION, NATURAL GAS TRANSPORTATION", "SOURCE": "EPA ENVIROFACTS, FERC FORM 2, CORPORATE WEBSITE", "SOURCEDATE": "7/15/2020 12:00:00 AM", "VAL_METHOD": "IMAGERY/OTHER", "VAL_DATE": "6/20/2022 12:00:00 AM", "WEBSITE": "https://www.txgt.com/about-us/subsidiaries/texas-gas-transmission-llc/default.aspx", "PIPECO": "TEXAS GAS TRANSMISSION L.L.C.", "COMPID": 18, "OPERATOR": "TEXAS GAS TRANSMISSION L.L.C.", "POSREL": "WITHIN 40 FEET", "NUM_UNITS": 9, "CERT_HP": 25488, "PLANT_COST": 59106576, "EXP_FUEL": 644522, "EXP_OTHER": 986470, "GAS_COMPRE": 340216, "OP_COMP_HR": 27288, "OP_NUM_COM": 7, "OP_DATE_PE": "2/22/2020 12:00:00 AM", "EXP_POWER": 0, "ELEC_COMPR": 0, "x": -10278540.1331004, "y": 3671508.6754461499 }, "geometry": { "type": "Point", "coordinates": [ -92.333697, 31.297983 ] } },
{ "type": "Feature", "properties": { "OBJECTID": 942, "GCOMPID": "GCOMP618", "NAME": "YOUNGSVILLE", "ADDRESS": "4443 VEROT SCHOOL ROAD", "CITY": "YOUNGSVILLE", "STATE": "LA", "ZIP": "70592", "ZIP4": "NOT AVAILABLE", "TYPE": "NATURAL GAS COMPRESSOR STATION", "STATUS": "IN SERVICE", "COUNTY": "LAFAYETTE PARISH", "COUNTYFIPS": "22055", "COUNTRY": "USA", "LATITUDE": 30.088266, "LONGITUDE": -92.030941, "NAICS_CODE": 486210, "NAICS_DESC": "BOOSTER PUMPING STATION, NATURAL GAS TRANSPORTATION", "SOURCE": "EPA ENVIROFACTS, FERC FORM 2, CORPORATE WEBSITE", "SOURCEDATE": "7/15/2020 12:00:00 AM", "VAL_METHOD": "IMAGERY/OTHER", "VAL_DATE": "6/20/2022 12:00:00 AM", "WEBSITE": "https://www.txgt.com/about-us/subsidiaries/texas-gas-transmission-llc/default.aspx", "PIPECO": "TEXAS GAS TRANSMISSION L.L.C.", "COMPID": 18, "OPERATOR": "TEXAS GAS TRANSMISSION L.L.C.", "POSREL": "WITHIN 40 FEET", "NUM_UNITS": 7, "CERT_HP": 11960, "PLANT_COST": 22903155, "EXP_FUEL": 705838, "EXP_OTHER": 1890598, "GAS_COMPRE": 376147, "OP_COMP_HR": 25646, "OP_NUM_COM": 4, "OP_DATE_PE": "10/20/2020 12:00:00 AM", "EXP_POWER": 0, "ELEC_COMPR": 0, "x": -10244837.4893458, "y": 3514900.6679106201 }, "geometry": { "type": "Point", "coordinates": [ -92.030941, 30.088266 ] } },
{ "type": "Feature", "properties": { "OBJECTID": 959, "GCOMPID": "GCOMP633", "NAME": "COLUMBIA", "ADDRESS": "4583 HIGHWAY 165 NORTH", "CITY": "COLUMBIA", "STATE": "LA", "ZIP": "71418", "ZIP4": "NOT AVAILABLE", "TYPE": "NATURAL GAS COMPRESSOR STATION", "STATUS": "IN SERVICE", "COUNTY": "CALDWELL PARISH", "COUNTYFIPS": "22021", "COUNTRY": "USA", "LATITUDE": 32.158091, "LONGITUDE": -92.090968, "NAICS_CODE": 486210, "NAICS_DESC": "BOOSTER PUMPING STATION, NATURAL GAS TRANSPORTATION", "SOURCE": "EPA ENVIROFACTS, FERC FORM 2, CORPORATE WEBSITE", "SOURCEDATE": "7/15/2020 12:00:00 AM", "VAL_METHOD": "IMAGERY/OTHER", "VAL_DATE": "6/20/2022 12:00:00 AM", "WEBSITE": "https://www.txgt.com/about-us/subsidiaries/texas-gas-transmission-llc/default.aspx", "PIPECO": "TEXAS GAS TRANSMISSION L.L.C.", "COMPID": 18, "OPERATOR": "TEXAS GAS TRANSMISSION L.L.C.", "POSREL": "WITHIN 40 FEET", "NUM_UNITS": 9, "CERT_HP": 32341, "PLANT_COST": 55076650, "EXP_FUEL": 1829767, "EXP_OTHER": 1177371, "GAS_COMPRE": 973202, "OP_COMP_HR": 36480, "OP_NUM_COM": 3, "OP_DATE_PE": "2/22/2020 12:00:00 AM", "EXP_POWER": 0, "ELEC_COMPR": 0, "x": -10251519.664419601, "y": 3784080.4641551599 }, "geometry": { "type": "Point", "coordinates": [ -92.090968, 32.158091 ] } },
{ "type": "Feature", "properties": { "OBJECTID": 966, "GCOMPID": "GCOMP64", "NAME": "DILLSBORO", "ADDRESS": "10622 TEXAS GAS ROAD", "CITY": "DILSBORO", "STATE": "IN", "ZIP": "47001", "ZIP4": "NOT AVAILABLE", "TYPE": "NATURAL GAS COMPRESSOR STATION", "STATUS": "IN SERVICE", "COUNTY": "DEARBORN", "COUNTYFIPS": "18029", "COUNTRY": "USA", "LATITUDE": 39.018066, "LONGITUDE": -85.013149, "NAICS_CODE": 486210, "NAICS_DESC": "BOOSTER PUMPING STATION, NATURAL GAS TRANSPORTATION", "SOURCE": "EPA ENVIROFACTS, FERC FORM 2, CORPORATE WEBSITE", "SOURCEDATE": "7/15/2020 12:00:00 AM", "VAL_METHOD": "IMAGERY/OTHER", "VAL_DATE": "6/20/2022 12:00:00 AM", "WEBSITE": "https://www.txgt.com/about-us/subsidiaries/texas-gas-transmission-llc/default.aspx", "PIPECO": "TEXAS GAS TRANSMISSION L.L.C.", "COMPID": 18, "OPERATOR": "TEXAS GAS TRANSMISSION L.L.C.", "POSREL": "WITHIN 40 FEET", "NUM_UNITS": 10, "CERT_HP": 22560, "PLANT_COST": 22392463, "EXP_FUEL": 235651, "EXP_OTHER": 1359397, "GAS_COMPRE": 117967, "OP_COMP_HR": 6155, "OP_NUM_COM": 6, "OP_DATE_PE": "12/9/2020 12:00:00 AM", "EXP_POWER": 0, "ELEC_COMPR": 0, "x": -9463620.4574126899, "y": 4724259.7025431702 }, "geometry": { "type": "Point", "coordinates": [ -85.013149, 39.018066 ] } },
{ "type": "Feature", "properties": { "OBJECTID": 1001, "GCOMPID": "GCOMP671", "NAME": "HARDINSBURG", "ADDRESS": "514 US-60 WEST", "CITY": "HARDINSBURG", "STATE": "KY", "ZIP": "40143", "ZIP4": "NOT AVAILABLE", "TYPE": "NATURAL GAS COMPRESSOR STATION", "STATUS": "IN SERVICE", "COUNTY": "BRECKINRIDGE", "COUNTYFIPS": "21027", "COUNTRY": "USA", "LATITUDE": 37.786962, "LONGITUDE": -86.485582, "NAICS_CODE": 486210, "NAICS_DESC": "BOOSTER PUMPING STATION, NATURAL GAS TRANSPORTATION", "SOURCE": "EPA ENVIROFACTS, FERC FORM 2, CORPORATE WEBSITE", "SOURCEDATE": "7/15/2020 12:00:00 AM", "VAL_METHOD": "IMAGERY/OTHER", "VAL_DATE": "6/20/2022 12:00:00 AM", "WEBSITE": "https://www.txgt.com/about-us/subsidiaries/texas-gas-transmission-llc/default.aspx", "PIPECO": "TEXAS GAS TRANSMISSION L.L.C.", "COMPID": 18, "OPERATOR": "TEXAS GAS TRANSMISSION L.L.C.", "POSREL": "WITHIN 40 FEET", "NUM_UNITS": 10, "CERT_HP": 48963, "PLANT_COST": 72927625, "EXP_FUEL": 627553, "EXP_OTHER": 1146042, "GAS_COMPRE": 334404, "OP_COMP_HR": 34147, "OP_NUM_COM": 6, "OP_DATE_PE": "11/8/2020 12:00:00 AM", "EXP_POWER": 0, "ELEC_COMPR": 0, "x": -9627530.9491999, "y": 4549374.2478571599 }, "geometry": { "type": "Point", "coordinates": [ -86.485582, 37.786962 ] } },
{ "type": "Feature", "properties": { "OBJECTID": 1083, "GCOMPID": "GCOMP745", "NAME": "HAUGHTON", "ADDRESS": "6172 HIGHWAY 157 SOUTH", "CITY": "HAUGHTON", "STATE": "LA", "ZIP": "71037", "ZIP4": "NOT AVAILABLE", "TYPE": "NATURAL GAS COMPRESSOR STATION", "STATUS": "IN SERVICE", "COUNTY": "BOSSIER PARISH", "COUNTYFIPS": "22015", "COUNTRY": "USA", "LATITUDE": 32.473141, "LONGITUDE": -93.508601, "NAICS_CODE": 486210, "NAICS_DESC": "BOOSTER PUMPING STATION, NATURAL GAS TRANSPORTATION", "SOURCE": "EPA ENVIROFACTS, FERC FORM 2, CORPORATE WEBSITE", "SOURCEDATE": "7/15/2020 12:00:00 AM", "VAL_METHOD": "IMAGERY/OTHER", "VAL_DATE": "6/20/2022 12:00:00 AM", "WEBSITE": "https://www.txgt.com/about-us/subsidiaries/texas-gas-transmission-llc/default.aspx", "PIPECO": "TEXAS GAS TRANSMISSION L.L.C.", "COMPID": 18, "OPERATOR": "TEXAS GAS TRANSMISSION L.L.C.", "POSREL": "WITHIN 40 FEET", "NUM_UNITS": 3, "CERT_HP": 12338, "PLANT_COST": 30558359, "EXP_FUEL": 824157, "EXP_OTHER": 614251, "GAS_COMPRE": 433294, "OP_COMP_HR": 8704, "OP_NUM_COM": 2, "OP_DATE_PE": "11/13/2020 12:00:00 AM", "EXP_POWER": 0, "ELEC_COMPR": 0, "x": -10409329.8481114, "y": 3825579.23866517 }, "geometry": { "type": "Point", "coordinates": [ -93.508601, 32.473141 ] } },
{ "type": "Feature", "properties": { "OBJECTID": 1096, "GCOMPID": "GCOMP757", "NAME": "DIXIE FIELD", "ADDRESS": "6321 HIGHWAY 145", "CITY": "CORYDON", "STATE": "KY", "ZIP": "42406", "ZIP4": "NOT AVAILABLE", "TYPE": "NATURAL GAS COMPRESSOR STATION", "STATUS": "IN SERVICE", "COUNTY": "HENDERSON", "COUNTYFIPS": "21101", "COUNTRY": "USA", "LATITUDE": 37.6711603974084, "LONGITUDE": -87.668822074882598, "NAICS_CODE": 486210, "NAICS_DESC": "BOOSTER PUMPING STATION, NATURAL GAS TRANSPORTATION", "SOURCE": "EPA ENVIROFACTS, FERC FORM 2, CORPORATE WEBSITE", "SOURCEDATE": "7/15/2020 12:00:00 AM", "VAL_METHOD": "IMAGERY/OTHER", "VAL_DATE": "6/24/2022 12:00:00 AM", "WEBSITE": "https://www.txgt.com/about-us/subsidiaries/texas-gas-transmission-llc/default.aspx", "PIPECO": "TEXAS GAS TRANSMISSION L.L.C.", "COMPID": 18, "OPERATOR": "TEXAS GAS TRANSMISSION L.L.C.", "POSREL": "WITHIN 40 FEET", "NUM_UNITS": 3, "CERT_HP": 1800, "PLANT_COST": 4530494, "EXP_FUEL": 80414, "EXP_OTHER": 394074, "GAS_COMPRE": 41640, "OP_COMP_HR": 1702, "OP_NUM_COM": 2, "OP_DATE_PE": "2/29/2020 12:00:00 AM", "EXP_POWER": 0, "ELEC_COMPR": 0, "x": -9759248.6318350993, "y": 4533075.3930888604 }, "geometry": { "type": "Point", "coordinates": [ -87.668822074882598, 37.6711603974084 ] } },
{ "type": "Feature", "properties": { "OBJECTID": 1115, "GCOMPID": "GCOMP774", "NAME": "BALD KNOB", "ADDRESS": "655 TAYLOR ROAD", "CITY": "BALD KNOB", "STATE": "AR", "ZIP": "72010", "ZIP4": "NOT AVAILABLE", "TYPE": "NATURAL GAS COMPRESSOR STATION", "STATUS": "IN SERVICE", "COUNTY": "WHITE", "COUNTYFIPS": "05145", "COUNTRY": "USA", "LATITUDE": 35.345581215000003, "LONGITUDE": -91.499553278999997, "NAICS_CODE": 486210, "NAICS_DESC": "BOOSTER PUMPING STATION, NATURAL GAS TRANSPORTATION", "SOURCE": "FERC FORM 2, CORPORATE WEBSITE", "SOURCEDATE": "7/15/2020 12:00:00 AM", "VAL_METHOD": "IMAGERY/OTHER", "VAL_DATE": "6/20/2022 12:00:00 AM", "WEBSITE": "https://www.txgt.com/about-us/subsidiaries/texas-gas-transmission-llc/default.aspx", "PIPECO": "TEXAS GAS TRANSMISSION L.L.C.", "COMPID": 18, "OPERATOR": "TEXAS GAS TRANSMISSION L.L.C.", "POSREL": "WITHIN 40 FEET", "NUM_UNITS": 2, "CERT_HP": 26660, "PLANT_COST": 40962805, "EXP_FUEL": 71111, "EXP_OTHER": 896908, "GAS_COMPRE": 37804, "OP_COMP_HR": 3, "OP_NUM_COM": 1, "OP_DATE_PE": "11/5/2020 12:00:00 AM", "EXP_POWER": 0, "ELEC_COMPR": 0, "x": -10185683.6788303, "y": 4210943.9873376302 }, "geometry": { "type": "Point", "coordinates": [ -91.499553279, 35.345581215 ] } },
{ "type": "Feature", "properties": { "OBJECTID": 1169, "GCOMPID": "GCOMP822", "NAME": "HANSON FIELD", "ADDRESS": "7095 BRAUN ROAD", "CITY": "HANSON", "STATE": "KY", "ZIP": "42413", "ZIP4": "NOT AVAILABLE", "TYPE": "NATURAL GAS COMPRESSOR STATION", "STATUS": "IN SERVICE", "COUNTY": "HOPKINS", "COUNTYFIPS": "21107", "COUNTRY": "USA", "LATITUDE": 37.418056079700499, "LONGITUDE": -87.414489237499893, "NAICS_CODE": 486210, "NAICS_DESC": "BOOSTER PUMPING STATION, NATURAL GAS TRANSPORTATION", "SOURCE": "EPA ENVIROFACTS, FERC FORM 2, CORPORATE WEBSITE", "SOURCEDATE": "7/15/2020 12:00:00 AM", "VAL_METHOD": "IMAGERY/OTHER", "VAL_DATE": "6/24/2022 12:00:00 AM", "WEBSITE": "https://www.txgt.com/about-us/subsidiaries/texas-gas-transmission-llc/default.aspx", "PIPECO": "TEXAS GAS TRANSMISSION L.L.C.", "COMPID": 18, "OPERATOR": "TEXAS GAS TRANSMISSION L.L.C.", "POSREL": "WITHIN 40 FEET", "NUM_UNITS": 2, "CERT_HP": 3550, "PLANT_COST": 27232047, "EXP_FUEL": 50645, "EXP_OTHER": 633712, "GAS_COMPRE": 26653, "OP_COMP_HR": 1181, "OP_NUM_COM": 1, "OP_DATE_PE": "1/10/2020 12:00:00 AM", "EXP_POWER": 0, "ELEC_COMPR": 0, "x": -9730936.4298169296, "y": 4497539.7204238698 }, "geometry": { "type": "Point", "coordinates": [ -87.414489237499893, 37.418056079700499 ] } },
{ "type": "Feature", "properties": { "OBJECTID": 1171, "GCOMPID": "GCOMP824", "NAME": "BASTROP", "ADDRESS": "7152 PUMPING STATION ROAD", "CITY": "BASTROP", "STATE": "LA", "ZIP": "71220", "ZIP4": "NOT AVAILABLE", "TYPE": "NATURAL GAS COMPRESSOR STATION", "STATUS": "IN SERVICE", "COUNTY": "MOREHOUSE PARISH", "COUNTYFIPS": "22067", "COUNTRY": "USA", "LATITUDE": 32.960195, "LONGITUDE": -91.853938, "NAICS_CODE": 486210, "NAICS_DESC": "BOOSTER PUMPING STATION, NATURAL GAS TRANSPORTATION", "SOURCE": "EPA ENVIROFACTS, FERC FORM 2, CORPORATE WEBSITE", "SOURCEDATE": "7/15/2020 12:00:00 AM", "VAL_METHOD": "IMAGERY/OTHER", "VAL_DATE": "6/20/2022 12:00:00 AM", "WEBSITE": "https://www.txgt.com/about-us/subsidiaries/texas-gas-transmission-llc/default.aspx", "PIPECO": "TEXAS GAS TRANSMISSION L.L.C.", "COMPID": 18, "OPERATOR": "TEXAS GAS TRANSMISSION L.L.C.", "POSREL": "WITHIN 40 FEET", "NUM_UNITS": 11, "CERT_HP": 33788, "PLANT_COST": 41987898, "EXP_FUEL": 1356748, "EXP_OTHER": 840268, "GAS_COMPRE": 722510, "OP_COMP_HR": 13688, "OP_NUM_COM": 3, "OP_DATE_PE": "4/22/2020 12:00:00 AM", "EXP_POWER": 0, "ELEC_COMPR": 0, "x": -10225133.605516899, "y": 3890021.70646042 }, "geometry": { "type": "Point", "coordinates": [ -91.853938, 32.960195 ] } },
{ "type": "Feature", "properties": { "OBJECTID": 1190, "GCOMPID": "GCOMP841", "NAME": "SHARON", "ADDRESS": "757 SHARON ROAD", "CITY": "DUBACH", "STATE": "LA", "ZIP": "71235", "ZIP4": "NOT AVAILABLE", "TYPE": "NATURAL GAS COMPRESSOR STATION", "STATUS": "IN SERVICE", "COUNTY": "LINCOLN PARISH", "COUNTYFIPS": "22061", "COUNTRY": "USA", "LATITUDE": 32.765864, "LONGITUDE": -92.767001, "NAICS_CODE": 486210, "NAICS_DESC": "BOOSTER PUMPING STATION, NATURAL GAS TRANSPORTATION", "SOURCE": "EPA ENVIROFACTS, FERC FORM 2, CORPORATE WEBSITE", "SOURCEDATE": "7/15/2020 12:00:00 AM", "VAL_METHOD": "IMAGERY/OTHER", "VAL_DATE": "6/20/2022 12:00:00 AM", "WEBSITE": "https://www.txgt.com/about-us/subsidiaries/texas-gas-transmission-llc/default.aspx", "PIPECO": "TEXAS GAS TRANSMISSION L.L.C.", "COMPID": 18, "OPERATOR": "TEXAS GAS TRANSMISSION L.L.C.", "POSREL": "WITHIN 40 FEET", "NUM_UNITS": 4, "CERT_HP": 10240, "PLANT_COST": 37667438, "EXP_FUEL": 616715, "EXP_OTHER": 955297, "GAS_COMPRE": 326199, "OP_COMP_HR": 17327, "OP_NUM_COM": 3, "OP_DATE_PE": "5/21/2020 12:00:00 AM", "EXP_POWER": 0, "ELEC_COMPR": 0, "x": -10326775.3137391, "y": 3864267.40281191 }, "geometry": { "type": "Point", "coordinates": [ -92.767001, 32.765864 ] } },
{ "type": "Feature", "properties": { "OBJECTID": 1207, "GCOMPID": "GCOMP857", "NAME": "PETERSBURG", "ADDRESS": "7935 WEST STATE ROAD 56", "CITY": "PETERSBURG", "STATE": "IN", "ZIP": "47640", "ZIP4": "NOT AVAILABLE", "TYPE": "NATURAL GAS COMPRESSOR STATION", "STATUS": "IN SERVICE", "COUNTY": "GIBSON", "COUNTYFIPS": "18051", "COUNTRY": "USA", "LATITUDE": 38.484813, "LONGITUDE": -87.425528, "NAICS_CODE": 486210, "NAICS_DESC": "BOOSTER PUMPING STATION, NATURAL GAS TRANSPORTATION", "SOURCE": "EPA ENVIROFACTS, FERC FORM 2, CORPORATE WEBSITE", "SOURCEDATE": "7/15/2020 12:00:00 AM", "VAL_METHOD": "IMAGERY/OTHER", "VAL_DATE": "6/20/2022 12:00:00 AM", "WEBSITE": "https://www.txgt.com/about-us/subsidiaries/texas-gas-transmission-llc/default.aspx", "PIPECO": "TEXAS GAS TRANSMISSION L.L.C.", "COMPID": 18, "OPERATOR": "TEXAS GAS TRANSMISSION L.L.C.", "POSREL": "WITHIN 40 FEET", "NUM_UNITS": 6, "CERT_HP": 3760, "PLANT_COST": 9421094, "EXP_FUEL": 63580, "EXP_OTHER": 392946, "GAS_COMPRE": 32123, "OP_COMP_HR": 1100, "OP_NUM_COM": 1, "OP_DATE_PE": "9/1/2020 12:00:00 AM", "EXP_POWER": 0, "ELEC_COMPR": 0, "x": -9732165.2592930794, "y": 4648141.8401786601 }, "geometry": { "type": "Point", "coordinates": [ -87.425528, 38.484813 ] } },
{ "type": "Feature", "properties": { "OBJECTID": 1242, "GCOMPID": "GCOMP889", "NAME": "LEESVILLE", "ADDRESS": "857 ERIE CHURCH ROAD", "CITY": "BEDFORD", "STATE": "IN", "ZIP": "47421", "ZIP4": "NOT AVAILABLE", "TYPE": "NATURAL GAS COMPRESSOR STATION", "STATUS": "IN SERVICE", "COUNTY": "LAWRENCE", "COUNTYFIPS": "18093", "COUNTRY": "USA", "LATITUDE": 38.884775, "LONGITUDE": -86.397881, "NAICS_CODE": 486210, "NAICS_DESC": "BOOSTER PUMPING STATION, NATURAL GAS TRANSPORTATION", "SOURCE": "EPA ENVIROFACTS, FERC FORM 2, CORPORATE WEBSITE", "SOURCEDATE": "7/15/2020 12:00:00 AM", "VAL_METHOD": "IMAGERY/OTHER", "VAL_DATE": "6/20/2022 12:00:00 AM", "WEBSITE": "https://www.txgt.com/about-us/subsidiaries/texas-gas-transmission-llc/default.aspx", "PIPECO": "TEXAS GAS TRANSMISSION L.L.C.", "COMPID": 18, "OPERATOR": "TEXAS GAS TRANSMISSION L.L.C.", "POSREL": "WITHIN 40 FEET", "NUM_UNITS": 4, "CERT_HP": 6400, "PLANT_COST": 16654960, "EXP_FUEL": 20666, "EXP_OTHER": 569380, "GAS_COMPRE": 10958, "OP_COMP_HR": 361, "OP_NUM_COM": 2, "OP_DATE_PE": "10/19/2020 12:00:00 AM", "EXP_POWER": 0, "ELEC_COMPR": 0, "x": -9617768.1185378395, "y": 4705179.99368669 }, "geometry": { "type": "Point", "coordinates": [ -86.397881, 38.884775 ] } },
{ "type": "Feature", "properties": { "OBJECTID": 1264, "GCOMPID": "GCOMP908", "NAME": "CALVERT CITY", "ADDRESS": "93 TEXAS GAS LANE", "CITY": "CALVERT CITY", "STATE": "KY", "ZIP": "42025", "ZIP4": "NOT AVAILABLE", "TYPE": "NATURAL GAS COMPRESSOR STATION", "STATUS": "IN SERVICE", "COUNTY": "MARSHALL", "COUNTYFIPS": "21157", "COUNTRY": "USA", "LATITUDE": 36.963063, "LONGITUDE": -88.383418, "NAICS_CODE": 486210, "NAICS_DESC": "BOOSTER PUMPING STATION, NATURAL GAS TRANSPORTATION", "SOURCE": "EPA ENVIROFACTS, FERC FORM 2, CORPORATE WEBSITE", "SOURCEDATE": "7/15/2020 12:00:00 AM", "VAL_METHOD": "IMAGERY/OTHER", "VAL_DATE": "6/20/2022 12:00:00 AM", "WEBSITE": "https://www.txgt.com/about-us/subsidiaries/texas-gas-transmission-llc/default.aspx", "PIPECO": "TEXAS GAS TRANSMISSION L.L.C.", "COMPID": 18, "OPERATOR": "TEXAS GAS TRANSMISSION L.L.C.", "POSREL": "WITHIN 40 FEET", "NUM_UNITS": 8, "CERT_HP": 29440, "PLANT_COST": 25430286, "EXP_FUEL": 66706, "EXP_OTHER": 471707, "GAS_COMPRE": 34002, "OP_COMP_HR": 172, "OP_NUM_COM": 2, "OP_DATE_PE": "10/18/2020 12:00:00 AM", "EXP_POWER": 0, "ELEC_COMPR": 0, "x": -9838797.0863290392, "y": 4433959.4956025397 }, "geometry": { "type": "Point", "coordinates": [ -88.383418, 36.963063 ] } },
{ "type": "Feature", "properties": { "OBJECTID": 1293, "GCOMPID": "GCOMP934", "NAME": "ISOLA", "ADDRESS": "BEASLEY BAYOU ROAD", "CITY": "ISOLA", "STATE": "MS", "ZIP": "38754", "ZIP4": "NOT AVAILABLE", "TYPE": "NATURAL GAS COMPRESSOR STATION", "STATUS": "IN SERVICE", "COUNTY": "HUMPHREYS", "COUNTYFIPS": "28053", "COUNTRY": "USA", "LATITUDE": 33.255510133000001, "LONGITUDE": -90.617345791000005, "NAICS_CODE": 486210, "NAICS_DESC": "BOOSTER PUMPING STATION, NATURAL GAS TRANSPORTATION", "SOURCE": "EPA ENVIROFACTS, FERC FORM 2, CORPORATE WEBSITE", "SOURCEDATE": "7/15/2020 12:00:00 AM", "VAL_METHOD": "IMAGERY/OTHER", "VAL_DATE": "6/20/2022 12:00:00 AM", "WEBSITE": "https://www.txgt.com/about-us/subsidiaries/texas-gas-transmission-llc/default.aspx", "PIPECO": "TEXAS GAS TRANSMISSION L.L.C.", "COMPID": 18, "OPERATOR": "TEXAS GAS TRANSMISSION L.L.C.", "POSREL": "WITHIN 40 FEET", "NUM_UNITS": 1, "CERT_HP": 13330, "PLANT_COST": 24646245, "EXP_FUEL": 2605, "EXP_OTHER": 245764, "GAS_COMPRE": 1257, "OP_COMP_HR": 2, "OP_NUM_COM": 1, "OP_DATE_PE": "4/17/2020 12:00:00 AM", "EXP_POWER": 0, "ELEC_COMPR": 0, "x": -10087476.790492101, "y": 3929267.9768471802 }, "geometry": { "type": "Point", "coordinates": [ -90.617345791, 33.255510133 ] } },
{ "type": "Feature", "properties": { "OBJECTID": 1768, "GCOMPID": "GCOMP1773", "NAME": "BOSCO", "ADDRESS": "909-559 BOSCO LANE/RICHWOOD ROAD 2", "CITY": "OUACHITA/MONROE", "STATE": "LA", "ZIP": "71202", "ZIP4": "NOT APPLICABLE", "TYPE": "NATURAL GAS COMPRESSOR STATION", "STATUS": "IN SERVICE", "COUNTY": "OUACHITA PARISH", "COUNTYFIPS": "22073", "COUNTRY": "USA", "LATITUDE": 39.25969, "LONGITUDE": -84.75548, "NAICS_CODE": 486210, "NAICS_DESC": "BOOSTER PUMPING STATION, NATURAL GAS TRANSPORTATION", "SOURCE": "FERC FORM 2, CORPORATE WEBSITE", "SOURCEDATE": "7/15/2020 12:00:00 AM", "VAL_METHOD": "IMAGERY/OTHER", "VAL_DATE": "6/20/2022 12:00:00 AM", "WEBSITE": "https://www.txgt.com/about-us/subsidiaries/texas-gas-transmission-llc/default.aspx", "PIPECO": "TEXAS GAS TRANSMISSION L.L.C.", "COMPID": 18, "OPERATOR": "TEXAS GAS TRANSMISSION L.L.C.", "POSREL": "NOTIONAL", "NUM_UNITS": 1, "CERT_HP": 9689, "PLANT_COST": 28896770, "EXP_FUEL": 0, "EXP_OTHER": 161850, "GAS_COMPRE": 0, "OP_COMP_HR": 737, "OP_NUM_COM": 1, "OP_DATE_PE": "12/7/2020 12:00:00 AM", "EXP_POWER": 0, "ELEC_COMPR": 0, "x": -9434936.8755394798, "y": 4758938.4969089497 }, "geometry": { "type": "Point", "coordinates": [ -84.75548, 39.25969 ] } },
{ "type": "Feature", "properties": { "OBJECTID": 1776, "GCOMPID": "GCOMP1774", "NAME": "HARRISON", "ADDRESS": "10210/10238 DRY FORK ROAD", "CITY": "HARRISON", "STATE": "OH", "ZIP": "45030", "ZIP4": "NOT APPLICABLE", "TYPE": "NATURAL GAS COMPRESSOR STATION", "STATUS": "IN SERVICE", "COUNTY": "HAMILTON", "COUNTYFIPS": "39061", "COUNTRY": "USA", "LATITUDE": 39.262756951530697, "LONGITUDE": -84.760787371059294, "NAICS_CODE": 486210, "NAICS_DESC": "BOOSTER PUMPING STATION, NATURAL GAS TRANSPORTATION", "SOURCE": "FERC FORM 2, CORPORATE WEBSITE", "SOURCEDATE": "7/15/2020 12:00:00 AM", "VAL_METHOD": "IMAGERY/OTHER", "VAL_DATE": "6/20/2022 12:00:00 AM", "WEBSITE": "https://www.txgt.com/about-us/subsidiaries/texas-gas-transmission-llc/default.aspx", "PIPECO": "TEXAS GAS TRANSMISSION L.L.C.", "COMPID": 18, "OPERATOR": "TEXAS GAS TRANSMISSION L.L.C.", "POSREL": "WITHIN 1 MILE", "NUM_UNITS": 1, "CERT_HP": 14189, "PLANT_COST": 43878463, "EXP_FUEL": 1467870, "EXP_OTHER": 238202, "GAS_COMPRE": 785505, "OP_COMP_HR": 7661, "OP_NUM_COM": 1, "OP_DATE_PE": "6/15/2020 12:00:00 AM", "EXP_POWER": 0, "ELEC_COMPR": 0, "x": -9435527.6893766504, "y": 4759379.4440105399 }, "geometry": { "type": "Point", "coordinates": [ -84.760787371059294, 39.262756951530697 ] } }
]
}
