{
"type": "FeatureCollection",
"name": "P0271-compressor-stations",
"crs": { "type": "name", "properties": { "name": "urn:ogc:def:crs:EPSG::3857" } },
"features": [
{ "type": "Feature", "properties": { "OBJECTID": 2, "GCOMPID": "GCOMP10", "NAME": "NO. 515 BEAR CREEK", "ADDRESS": "0.2 MILES SOUTHEAST OF HIGHWAY 115 AND BLUEBERRY LANE", "CITY": "BEAR CREEK", "STATE": "PA", "ZIP": "18602", "ZIP4": "NOT AVAILABLE", "TYPE": "NATURAL GAS COMPRESSOR STATION", "STATUS": "IN SERVICE", "COUNTY": "LUZERNE", "COUNTYFIPS": "42079", "COUNTRY": "USA", "LATITUDE": 41.172478, "LONGITUDE": -75.672182, "NAICS_CODE": "486210", "NAICS_DESC": "BOOSTER PUMPING STATION, NATURAL GAS TRANSPORTATION", "SOURCE": "EPA ENVIROFACTS, FERC FORM 2, CORPORATE WEBSITE", "SOURCEDATE": "Wed, 15 Jul 2020 00:00:00 GMT", "VAL_METHOD": "IMAGERY/OTHER", "VAL_DATE": "Mon, 20 Jun 2022 00:00:00 GMT", "WEBSITE": "http://www.1line.williams.com/", "PIPECO": "TRANSCONTINENTAL GAS PIPE LINE COMPANY L.L.C.", "COMPID": "29", "OPERATOR": "TRANSCONTINENTAL GAS PIPE LINE COMPANY L.L.C.", "POSREL": "WITHIN 40 FEET", "NUM_UNITS": 4, "CERT_HP": 12800, "PLANT_COST": 40685421, "EXP_FUEL": 10036, "EXP_OTHER": 655341, "GAS_COMPRE": 7042, "OP_COMP_HR": 14, "OP_NUM_COM": 1, "OP_DATE_PE": "Wed, 07 Nov 2012 00:00:00 GMT", "EXP_POWER": 0, "ELEC_COMPR": 0 }, "geometry": { "type": "Point", "coordinates": [ -8423788.767455920577049, 5037815.512788009829819 ] } },
{ "type": "Feature", "properties": { "OBJECTID": 3, "GCOMPID": "GCOMP100", "NAME": "NO. 130 COMER", "ADDRESS": "117 WINNS LAKE ROAD", "CITY": "COMER", "STATE": "GA", "ZIP": "30629", "ZIP4": "NOT AVAILABLE", "TYPE": "NATURAL GAS COMPRESSOR STATION", "STATUS": "IN SERVICE", "COUNTY": "MADISON", "COUNTYFIPS": "13195", "COUNTRY": "USA", "LATITUDE": 34.151551066000003, "LONGITUDE": -83.142679529000006, "NAICS_CODE": "486210", "NAICS_DESC": "BOOSTER PUMPING STATION, NATURAL GAS TRANSPORTATION", "SOURCE": "EPA ENVIROFACTS, FERC FORM 2, CORPORATE WEBSITE", "SOURCEDATE": "Wed, 15 Jul 2020 00:00:00 GMT", "VAL_METHOD": "IMAGERY/OTHER", "VAL_DATE": "Mon, 20 Jun 2022 00:00:00 GMT", "WEBSITE": "http://www.1line.williams.com/", "PIPECO": "TRANSCONTINENTAL GAS PIPE LINE COMPANY L.L.C.", "COMPID": "29", "OPERATOR": "TRANSCONTINENTAL GAS PIPE LINE COMPANY L.L.C.", "POSREL": "WITHIN 40 FEET", "NUM_UNITS": 18, "CERT_HP": 59290, "PLANT_COST": 84070046, "EXP_FUEL": 1250623, "EXP_OTHER": 1652439, "GAS_COMPRE": 582110, "OP_COMP_HR": 17355, "OP_NUM_COM": 16, "OP_DATE_PE": "Thu, 11 Feb 2021 00:00:00 GMT", "EXP_POWER": 3681, "ELEC_COMPR": 0 }, "geometry": { "type": "Point", "coordinates": [ -9255400.748356610536575, 4049169.830034750048071 ] } },
{ "type": "Feature", "properties": { "OBJECTID": 15, "GCOMPID": "GCOMP1010", "NAME": "NO. 20 REFUGIO", "ADDRESS": "CROCKETT ROAD/W HOUSTON", "CITY": "REFUGIO", "STATE": "TX", "ZIP": "78377", "ZIP4": "NOT AVAILABLE", "TYPE": "NATURAL GAS COMPRESSOR STATION", "STATUS": "IN SERVICE", "COUNTY": "REFUGIO", "COUNTYFIPS": "48391", "COUNTRY": "USA", "LATITUDE": 28.320878, "LONGITUDE": -97.297189, "NAICS_CODE": "486210", "NAICS_DESC": "BOOSTER PUMPING STATION, NATURAL GAS TRANSPORTATION", "SOURCE": "EPA ENVIROFACTS, FERC FORM 2, CORPORATE WEBSITE", "SOURCEDATE": "Wed, 15 Jul 2020 00:00:00 GMT", "VAL_METHOD": "IMAGERY/OTHER", "VAL_DATE": "Mon, 20 Jun 2022 00:00:00 GMT", "WEBSITE": "http://www.1line.williams.com/", "PIPECO": "TRANSCONTINENTAL GAS PIPE LINE COMPANY L.L.C.", "COMPID": "29", "OPERATOR": "TRANSCONTINENTAL GAS PIPE LINE COMPANY L.L.C.", "POSREL": "WITHIN 40 FEET", "NUM_UNITS": 5, "CERT_HP": 8320, "PLANT_COST": 4401889, "EXP_FUEL": 0, "EXP_OTHER": 0, "GAS_COMPRE": 0, "OP_COMP_HR": 0, "OP_NUM_COM": 0, "OP_DATE_PE": "Fri, 27 May 2022 00:00:00 GMT", "EXP_POWER": 0, "ELEC_COMPR": 0 }, "geometry": { "type": "Point", "coordinates": [ -10831073.53509690053761, 3289489.729771010112017 ] } },
{ "type": "Feature", "properties": { "OBJECTID": 69, "GCOMPID": "GCOMP106", "NAME": "NO. 190 ELLICOTT CITY", "ADDRESS": "11910 CARROLL MILL ROAD", "CITY": "ELLICOTT CITY", "STATE": "MD", "ZIP": "21042", "ZIP4": "NOT AVAILABLE", "TYPE": "NATURAL GAS COMPRESSOR STATION", "STATUS": "IN SERVICE", "COUNTY": "HOWARD", "COUNTYFIPS": "24027", "COUNTRY": "USA", "LATITUDE": 39.266608, "LONGITUDE": -76.925377, "NAICS_CODE": "486210", "NAICS_DESC": "BOOSTER PUMPING STATION, NATURAL GAS TRANSPORTATION", "SOURCE": "EPA ENVIROFACTS, FERC FORM 2, CORPORATE WEBSITE", "SOURCEDATE": "Wed, 15 Jul 2020 00:00:00 GMT", "VAL_METHOD": "IMAGERY/OTHER", "VAL_DATE": "Mon, 20 Jun 2022 00:00:00 GMT", "WEBSITE": "http://www.1line.williams.com/", "PIPECO": "TRANSCONTINENTAL GAS PIPE LINE COMPANY L.L.C.", "COMPID": "29", "OPERATOR": "TRANSCONTINENTAL GAS PIPE LINE COMPANY L.L.C.", "POSREL": "WITHIN 40 FEET", "NUM_UNITS": 13, "CERT_HP": 59250, "PLANT_COST": 173028791, "EXP_FUEL": 4006376, "EXP_OTHER": 3276434, "GAS_COMPRE": 1823999, "OP_COMP_HR": 28402, "OP_NUM_COM": 8, "OP_DATE_PE": "Mon, 31 Aug 2020 00:00:00 GMT", "EXP_POWER": 0, "ELEC_COMPR": 0 }, "geometry": { "type": "Point", "coordinates": [ -8563293.796720599755645, 4759933.150835449807346 ] } },
{ "type": "Feature", "properties": { "OBJECTID": 96, "GCOMPID": "GCOMP1084", "NAME": "NO. 61 ETHEL", "ADDRESS": "HIGHWAY 68 AND HOWELL LANE", "CITY": "JACKSON", "STATE": "LA", "ZIP": "70748", "ZIP4": "NOT AVAILABLE", "TYPE": "NATURAL GAS COMPRESSOR STATION", "STATUS": "IN SERVICE", "COUNTY": "EAST FELICIANA PARISH", "COUNTYFIPS": "22037", "COUNTRY": "USA", "LATITUDE": 30.763097, "LONGITUDE": -91.218573, "NAICS_CODE": "486210", "NAICS_DESC": "BOOSTER PUMPING STATION, NATURAL GAS TRANSPORTATION", "SOURCE": "EPA ENVIROFACTS, FERC FORM 2, CORPORATE WEBSITE", "SOURCEDATE": "Wed, 15 Jul 2020 00:00:00 GMT", "VAL_METHOD": "IMAGERY/OTHER", "VAL_DATE": "Mon, 20 Jun 2022 00:00:00 GMT", "WEBSITE": "http://www.1line.williams.com/", "PIPECO": "TRANSCONTINENTAL GAS PIPE LINE COMPANY L.L.C.", "COMPID": "29", "OPERATOR": "TRANSCONTINENTAL GAS PIPE LINE COMPANY L.L.C.", "POSREL": "WITHIN 40 FEET", "NUM_UNITS": 2, "CERT_HP": 3050, "PLANT_COST": 3759927, "EXP_FUEL": 0, "EXP_OTHER": 0, "GAS_COMPRE": 0, "OP_COMP_HR": 0, "OP_NUM_COM": 0, "OP_DATE_PE": "Mon, 01 Jan 2001 00:00:00 GMT", "EXP_POWER": 0, "ELEC_COMPR": 0 }, "geometry": { "type": "Point", "coordinates": [ -10154405.097249, 3602020.846631499938667 ] } },
{ "type": "Feature", "properties": { "OBJECTID": 112, "GCOMPID": "GCOMP11", "NAME": "NO. 90 MYRTLEWOOD", "ADDRESS": "0.25 MILES NORTH OF AL HIGHWAY 69 AND CAMPGROUND ROAD", "CITY": "MYRTLEWOOD", "STATE": "AL", "ZIP": "36763", "ZIP4": "NOT AVAILABLE", "TYPE": "NATURAL GAS COMPRESSOR STATION", "STATUS": "IN SERVICE", "COUNTY": "MARENGO", "COUNTYFIPS": "01091", "COUNTRY": "USA", "LATITUDE": 32.203171356, "LONGITUDE": -87.949446123000001, "NAICS_CODE": "486210", "NAICS_DESC": "BOOSTER PUMPING STATION, NATURAL GAS TRANSPORTATION", "SOURCE": "EPA ENVIROFACTS, FERC FORM 2, CORPORATE WEBSITE", "SOURCEDATE": "Wed, 15 Jul 2020 00:00:00 GMT", "VAL_METHOD": "IMAGERY/OTHER", "VAL_DATE": "Mon, 20 Jun 2022 00:00:00 GMT", "WEBSITE": "http://www.1line.williams.com/", "PIPECO": "TRANSCONTINENTAL GAS PIPE LINE COMPANY L.L.C.", "COMPID": "29", "OPERATOR": "TRANSCONTINENTAL GAS PIPE LINE COMPANY L.L.C.", "POSREL": "WITHIN 40 FEET", "NUM_UNITS": 18, "CERT_HP": 80620, "PLANT_COST": 76428426, "EXP_FUEL": 5784832, "EXP_OTHER": 2844920, "GAS_COMPRE": 2536377, "OP_COMP_HR": 60092, "OP_NUM_COM": 18, "OP_DATE_PE": "Tue, 02 Feb 2021 00:00:00 GMT", "EXP_POWER": 0, "ELEC_COMPR": 0 }, "geometry": { "type": "Point", "coordinates": [ -9790487.557962810620666, 3790009.671474060043693 ] } },
{ "type": "Feature", "properties": { "OBJECTID": 212, "GCOMPID": "GCOMP119", "NAME": "NO. 35 HOUSTON", "ADDRESS": "12501 VETERANS MEMORIAL DRIVE", "CITY": "HOUSTON", "STATE": "TX", "ZIP": "77001", "ZIP4": "NOT AVAILABLE", "TYPE": "NATURAL GAS COMPRESSOR STATION", "STATUS": "IN SERVICE", "COUNTY": "HARRIS", "COUNTYFIPS": "48201", "COUNTRY": "USA", "LATITUDE": 29.96776, "LONGITUDE": -95.484721, "NAICS_CODE": "486210", "NAICS_DESC": "BOOSTER PUMPING STATION, NATURAL GAS TRANSPORTATION", "SOURCE": "EPA ENVIROFACTS, FERC FORM 2, CORPORATE WEBSITE", "SOURCEDATE": "Wed, 15 Jul 2020 00:00:00 GMT", "VAL_METHOD": "IMAGERY/OTHER", "VAL_DATE": "Mon, 20 Jun 2022 00:00:00 GMT", "WEBSITE": "http://www.1line.williams.com/", "PIPECO": "TRANSCONTINENTAL GAS PIPE LINE COMPANY L.L.C.", "COMPID": "29", "OPERATOR": "TRANSCONTINENTAL GAS PIPE LINE COMPANY L.L.C.", "POSREL": "WITHIN 40 FEET", "NUM_UNITS": 2, "CERT_HP": 14910, "PLANT_COST": 25776349, "EXP_FUEL": 2890, "EXP_OTHER": 780552, "GAS_COMPRE": 1584, "OP_COMP_HR": 0, "OP_NUM_COM": 0, "OP_DATE_PE": "Mon, 01 Jan 2001 00:00:00 GMT", "EXP_POWER": 45092, "ELEC_COMPR": 676083 }, "geometry": { "type": "Point", "coordinates": [ -10629310.52025780081749, 3499406.364905950147659 ] } },
{ "type": "Feature", "properties": { "OBJECTID": 219, "GCOMPID": "GCOMP1196", "NAME": "NO. 51 EUNICE", "ADDRESS": "NORTH OF ASHFOROAD CEMETRY ROAD/ EAST OF MCCLELLAND ROAD (3729 DURALDE HIGHWAY)", "CITY": "EUNICE", "STATE": "LA", "ZIP": "70535", "ZIP4": "NOT AVAILABLE", "TYPE": "NATURAL GAS COMPRESSOR STATION", "STATUS": "IN SERVICE", "COUNTY": "SAINT LANDRY PARISH", "COUNTYFIPS": "22097", "COUNTRY": "USA", "LATITUDE": 30.559647516999998, "LONGITUDE": -92.50146595, "NAICS_CODE": "486210", "NAICS_DESC": "BOOSTER PUMPING STATION, NATURAL GAS TRANSPORTATION", "SOURCE": "EPA ENVIROFACTS, FERC FORM 2, CORPORATE WEBSITE", "SOURCEDATE": "Wed, 15 Jul 2020 00:00:00 GMT", "VAL_METHOD": "IMAGERY/OTHER", "VAL_DATE": "Mon, 20 Jun 2022 00:00:00 GMT", "WEBSITE": "http://www.1line.williams.com/", "PIPECO": "TRANSCONTINENTAL GAS PIPE LINE COMPANY L.L.C.", "COMPID": "29", "OPERATOR": "TRANSCONTINENTAL GAS PIPE LINE COMPANY L.L.C.", "POSREL": "WITHIN 40 FEET", "NUM_UNITS": 5, "CERT_HP": 10000, "PLANT_COST": 11098882, "EXP_FUEL": 190697, "EXP_OTHER": 0, "GAS_COMPRE": 83644, "OP_COMP_HR": 4900, "OP_NUM_COM": 4, "OP_DATE_PE": "Sun, 05 Apr 2020 00:00:00 GMT", "EXP_POWER": 0, "ELEC_COMPR": 0 }, "geometry": { "type": "Point", "coordinates": [ -10297216.087185300886631, 3575692.072862579952925 ] } },
{ "type": "Feature", "properties": { "OBJECTID": 242, "GCOMPID": "GCOMP1216", "NAME": "NO. 85 BUTLER", "ADDRESS": "OFF PINEVIEW ROAD/0.6 MILES SE OF BRIGHTWATER ROAD", "CITY": "BUTLER", "STATE": "AL", "ZIP": "36904", "ZIP4": "NOT AVAILABLE", "TYPE": "NATURAL GAS COMPRESSOR STATION", "STATUS": "IN SERVICE", "COUNTY": "CHOCTAW", "COUNTYFIPS": "01023", "COUNTRY": "USA", "LATITUDE": 32.057195114000002, "LONGITUDE": -88.361446658999995, "NAICS_CODE": "486210", "NAICS_DESC": "BOOSTER PUMPING STATION, NATURAL GAS TRANSPORTATION", "SOURCE": "FERC FORM 2, CORPORATE WEBSITE", "SOURCEDATE": "Wed, 15 Jul 2020 00:00:00 GMT", "VAL_METHOD": "IMAGERY/OTHER", "VAL_DATE": "Mon, 20 Jun 2022 00:00:00 GMT", "WEBSITE": "http://www.1line.williams.com/", "PIPECO": "TRANSCONTINENTAL GAS PIPE LINE COMPANY L.L.C.", "COMPID": "29", "OPERATOR": "TRANSCONTINENTAL GAS PIPE LINE COMPANY L.L.C.", "POSREL": "WITHIN 40 FEET", "NUM_UNITS": 4, "CERT_HP": 38150, "PLANT_COST": 97169783, "EXP_FUEL": 2236696, "EXP_OTHER": 367902, "GAS_COMPRE": 1024546, "OP_COMP_HR": 8453, "OP_NUM_COM": 2, "OP_DATE_PE": "Sat, 15 Aug 2020 00:00:00 GMT", "EXP_POWER": 2825, "ELEC_COMPR": 0 }, "geometry": { "type": "Point", "coordinates": [ -9836351.247836880385876, 3770820.718417350202799 ] } },
{ "type": "Feature", "properties": { "OBJECTID": 243, "GCOMPID": "GCOMP1217", "NAME": "NO. 135 ANDERSON SOUTH CAROLINA", "ADDRESS": "OFF STATE HIGHWAY 480 (BOLT DRIVE)/4.3 MILES EAST OF ANDERSON", "CITY": "ANDERSON", "STATE": "SC", "ZIP": "29621", "ZIP4": "NOT AVAILABLE", "TYPE": "NATURAL GAS COMPRESSOR STATION", "STATUS": "IN SERVICE", "COUNTY": "ANDERSON", "COUNTYFIPS": "45007", "COUNTRY": "USA", "LATITUDE": 34.487495, "LONGITUDE": -82.575687, "NAICS_CODE": "486210", "NAICS_DESC": "BOOSTER PUMPING STATION, NATURAL GAS TRANSPORTATION", "SOURCE": "FERC FORM 2, CORPORATE WEBSITE", "SOURCEDATE": "Wed, 15 Jul 2020 00:00:00 GMT", "VAL_METHOD": "IMAGERY/OTHER", "VAL_DATE": "Mon, 20 Jun 2022 00:00:00 GMT", "WEBSITE": "http://www.1line.williams.com/", "PIPECO": "TRANSCONTINENTAL GAS PIPE LINE COMPANY L.L.C.", "COMPID": "29", "OPERATOR": "TRANSCONTINENTAL GAS PIPE LINE COMPANY L.L.C.", "POSREL": "WITHIN 40 FEET", "NUM_UNITS": 1, "CERT_HP": 20500, "PLANT_COST": 34104154, "EXP_FUEL": 6271, "EXP_OTHER": 62498, "GAS_COMPRE": 2406, "OP_COMP_HR": 17, "OP_NUM_COM": 1, "OP_DATE_PE": "Fri, 12 Feb 2021 00:00:00 GMT", "EXP_POWER": 0, "ELEC_COMPR": 0 }, "geometry": { "type": "Point", "coordinates": [ -9192283.428744740784168, 4094450.044431429821998 ] } },
{ "type": "Feature", "properties": { "OBJECTID": 322, "GCOMPID": "GCOMP1289", "NAME": "NO. 77 EMINENCE STORAGE FIELD", "ADDRESS": "SALT DOME ROAD AND ROGERS ROAD", "CITY": "SEMINARY", "STATE": "MS", "ZIP": "39479", "ZIP4": "NOT AVAILABLE", "TYPE": "NATURAL GAS COMPRESSOR STATION", "STATUS": "IN SERVICE", "COUNTY": "COVINGTON", "COUNTYFIPS": "28031", "COUNTRY": "USA", "LATITUDE": 31.596247, "LONGITUDE": -89.419276, "NAICS_CODE": "486210", "NAICS_DESC": "BOOSTER PUMPING STATION, NATURAL GAS TRANSPORTATION", "SOURCE": "EPA ENVIROFACTS, FERC FORM 2, CORPORATE WEBSITE", "SOURCEDATE": "Wed, 15 Jul 2020 00:00:00 GMT", "VAL_METHOD": "IMAGERY/OTHER", "VAL_DATE": "Mon, 20 Jun 2022 00:00:00 GMT", "WEBSITE": "http://www.1line.williams.com/", "PIPECO": "TRANSCONTINENTAL GAS PIPE LINE COMPANY L.L.C.", "COMPID": "29", "OPERATOR": "TRANSCONTINENTAL GAS PIPE LINE COMPANY L.L.C.", "POSREL": "WITHIN 40 FEET", "NUM_UNITS": 4, "CERT_HP": 15635, "PLANT_COST": 132766087, "EXP_FUEL": 349836, "EXP_OTHER": 1317225, "GAS_COMPRE": 146040, "OP_COMP_HR": 4025, "OP_NUM_COM": 4, "OP_DATE_PE": "Wed, 10 Feb 2021 00:00:00 GMT", "EXP_POWER": 0, "ELEC_COMPR": 0 }, "geometry": { "type": "Point", "coordinates": [ -9954108.271423190832138, 3710427.68018651008606 ] } },
{ "type": "Feature", "properties": { "OBJECTID": 369, "GCOMPID": "GCOMP1330", "NAME": "NO. 535 WHARTON STORAGE FIELD", "ADDRESS": "TROUT RUN ROAD AND ELK LICK RUN ROAD", "CITY": "WHARTON", "STATE": "PA", "ZIP": "16720", "ZIP4": "NOT AVAILABLE", "TYPE": "NATURAL GAS COMPRESSOR STATION", "STATUS": "IN SERVICE", "COUNTY": "POTTER", "COUNTYFIPS": "42105", "COUNTRY": "USA", "LATITUDE": 41.512861, "LONGITUDE": -77.985783, "NAICS_CODE": "486210", "NAICS_DESC": "BOOSTER PUMPING STATION, NATURAL GAS TRANSPORTATION", "SOURCE": "EPA ENVIROFACTS, FERC FORM 2, CORPORATE WEBSITE", "SOURCEDATE": "Wed, 15 Jul 2020 00:00:00 GMT", "VAL_METHOD": "IMAGERY/OTHER", "VAL_DATE": "Mon, 20 Jun 2022 00:00:00 GMT", "WEBSITE": "http://www.1line.williams.com/", "PIPECO": "TRANSCONTINENTAL GAS PIPE LINE COMPANY L.L.C.", "COMPID": "29", "OPERATOR": "TRANSCONTINENTAL GAS PIPE LINE COMPANY L.L.C.", "POSREL": "WITHIN 40 FEET", "NUM_UNITS": 5, "CERT_HP": 8500, "PLANT_COST": 139545871, "EXP_FUEL": 323869, "EXP_OTHER": 1678509, "GAS_COMPRE": 123209, "OP_COMP_HR": 8667, "OP_NUM_COM": 5, "OP_DATE_PE": "Wed, 24 Feb 2021 00:00:00 GMT", "EXP_POWER": 0, "ELEC_COMPR": 0 }, "geometry": { "type": "Point", "coordinates": [ -8681337.652674730867147, 5088285.407381859607995 ] } },
{ "type": "Feature", "properties": { "OBJECTID": 418, "GCOMPID": "GCOMP144", "NAME": "NO. 175 SCOTTSVILLE", "ADDRESS": "1344 TRANSCO ROAD", "CITY": "SCOTTSVILLE", "STATE": "VA", "ZIP": "24590", "ZIP4": "NOT AVAILABLE", "TYPE": "NATURAL GAS COMPRESSOR STATION", "STATUS": "IN SERVICE", "COUNTY": "BUCKINGHAM", "COUNTYFIPS": "51027", "COUNTRY": "USA", "LATITUDE": 37.838273, "LONGITUDE": -78.423394, "NAICS_CODE": "486210", "NAICS_DESC": "BOOSTER PUMPING STATION, NATURAL GAS TRANSPORTATION", "SOURCE": "EPA ENVIROFACTS, FERC FORM 2, CORPORATE WEBSITE", "SOURCEDATE": "Wed, 15 Jul 2020 00:00:00 GMT", "VAL_METHOD": "IMAGERY/OTHER", "VAL_DATE": "Mon, 20 Jun 2022 00:00:00 GMT", "WEBSITE": "http://www.1line.williams.com/", "PIPECO": "TRANSCONTINENTAL GAS PIPE LINE COMPANY L.L.C.", "COMPID": "29", "OPERATOR": "TRANSCONTINENTAL GAS PIPE LINE COMPANY L.L.C.", "POSREL": "WITHIN 40 FEET", "NUM_UNITS": 2, "CERT_HP": 63740, "PLANT_COST": 105722005, "EXP_FUEL": 15282, "EXP_OTHER": 689584, "GAS_COMPRE": 5834, "OP_COMP_HR": 4875, "OP_NUM_COM": 1, "OP_DATE_PE": "Fri, 16 Oct 2020 00:00:00 GMT", "EXP_POWER": 2146934, "ELEC_COMPR": 80179015 }, "geometry": { "type": "Point", "coordinates": [ -8730052.286360260099173, 4556604.336542380042374 ] } },
{ "type": "Feature", "properties": { "OBJECTID": 448, "GCOMPID": "GCOMP171", "NAME": "NO. 110 WADLEY", "ADDRESS": "1440 COUNTY ROAD 41", "CITY": "WADLEY", "STATE": "AL", "ZIP": "36276", "ZIP4": "NOT AVAILABLE", "TYPE": "NATURAL GAS COMPRESSOR STATION", "STATUS": "IN SERVICE", "COUNTY": "RANDOLPH", "COUNTYFIPS": "01111", "COUNTRY": "USA", "LATITUDE": 33.152202, "LONGITUDE": -85.511693, "NAICS_CODE": "486210", "NAICS_DESC": "BOOSTER PUMPING STATION, NATURAL GAS TRANSPORTATION", "SOURCE": "EPA ENVIROFACTS, FERC FORM 2, CORPORATE WEBSITE", "SOURCEDATE": "Wed, 15 Jul 2020 00:00:00 GMT", "VAL_METHOD": "IMAGERY/OTHER", "VAL_DATE": "Mon, 20 Jun 2022 00:00:00 GMT", "WEBSITE": "http://www.1line.williams.com/", "PIPECO": "TRANSCONTINENTAL GAS PIPE LINE COMPANY L.L.C.", "COMPID": "29", "OPERATOR": "TRANSCONTINENTAL GAS PIPE LINE COMPANY L.L.C.", "POSREL": "WITHIN 40 FEET", "NUM_UNITS": 17, "CERT_HP": 82850, "PLANT_COST": 117167499, "EXP_FUEL": 3133535, "EXP_OTHER": 1986920, "GAS_COMPRE": 1420305, "OP_COMP_HR": 29834, "OP_NUM_COM": 16, "OP_DATE_PE": "Mon, 01 Feb 2021 00:00:00 GMT", "EXP_POWER": 51599, "ELEC_COMPR": 0 }, "geometry": { "type": "Point", "coordinates": [ -9519118.121630730107427, 3915523.702632709871978 ] } },
{ "type": "Feature", "properties": { "OBJECTID": 521, "GCOMPID": "GCOMP237", "NAME": "NO. 80 SANDERVILLE", "ADDRESS": "1666 BONNER ROAD", "CITY": "HEIDELBERG", "STATE": "MS", "ZIP": "39439", "ZIP4": "NOT AVAILABLE", "TYPE": "NATURAL GAS COMPRESSOR STATION", "STATUS": "IN SERVICE", "COUNTY": "JASPER", "COUNTYFIPS": "28061", "COUNTRY": "USA", "LATITUDE": 31.815174, "LONGITUDE": -89.049347, "NAICS_CODE": "486210", "NAICS_DESC": "BOOSTER PUMPING STATION, NATURAL GAS TRANSPORTATION", "SOURCE": "EPA ENVIROFACTS, FERC FORM 2, CORPORATE WEBSITE", "SOURCEDATE": "Wed, 15 Jul 2020 00:00:00 GMT", "VAL_METHOD": "IMAGERY/OTHER", "VAL_DATE": "Mon, 20 Jun 2022 00:00:00 GMT", "WEBSITE": "http://www.1line.williams.com/", "PIPECO": "TRANSCONTINENTAL GAS PIPE LINE COMPANY L.L.C.", "COMPID": "29", "OPERATOR": "TRANSCONTINENTAL GAS PIPE LINE COMPANY L.L.C.", "POSREL": "WITHIN 40 FEET", "NUM_UNITS": 18, "CERT_HP": 71000, "PLANT_COST": 62080738, "EXP_FUEL": 2423076, "EXP_OTHER": 2256460, "GAS_COMPRE": 997067, "OP_COMP_HR": 22247, "OP_NUM_COM": 12, "OP_DATE_PE": "Fri, 12 Feb 2021 00:00:00 GMT", "EXP_POWER": 5998, "ELEC_COMPR": 0 }, "geometry": { "type": "Point", "coordinates": [ -9912927.963513519614935, 3739073.71972342999652 ] } },
{ "type": "Feature", "properties": { "OBJECTID": 531, "GCOMPID": "GCOMP246", "NAME": "NO. 45 LAKE CHARLES", "ADDRESS": "17333 HIGHWAY 171", "CITY": "RAGLEY", "STATE": "LA", "ZIP": "70657", "ZIP4": "NOT AVAILABLE", "TYPE": "NATURAL GAS COMPRESSOR STATION", "STATUS": "IN SERVICE", "COUNTY": "BEAUREGARD PARISH", "COUNTYFIPS": "22011", "COUNTRY": "USA", "LATITUDE": 30.433924, "LONGITUDE": -93.229962, "NAICS_CODE": "486210", "NAICS_DESC": "BOOSTER PUMPING STATION, NATURAL GAS TRANSPORTATION", "SOURCE": "EPA ENVIROFACTS, FERC FORM 2, CORPORATE WEBSITE", "SOURCEDATE": "Wed, 15 Jul 2020 00:00:00 GMT", "VAL_METHOD": "IMAGERY/OTHER", "VAL_DATE": "Mon, 20 Jun 2022 00:00:00 GMT", "WEBSITE": "http://www.1line.williams.com/", "PIPECO": "TRANSCONTINENTAL GAS PIPE LINE COMPANY L.L.C.", "COMPID": "29", "OPERATOR": "TRANSCONTINENTAL GAS PIPE LINE COMPANY L.L.C.", "POSREL": "WITHIN 40 FEET", "NUM_UNITS": 8, "CERT_HP": 19750, "PLANT_COST": 42657298, "EXP_FUEL": 1189043, "EXP_OTHER": 2667776, "GAS_COMPRE": 593201, "OP_COMP_HR": 31804, "OP_NUM_COM": 8, "OP_DATE_PE": "Sun, 25 Oct 2020 00:00:00 GMT", "EXP_POWER": 0, "ELEC_COMPR": 0 }, "geometry": { "type": "Point", "coordinates": [ -10378311.89651620015502, 3559449.562918019946665 ] } },
{ "type": "Feature", "properties": { "OBJECTID": 562, "GCOMPID": "GCOMP274", "NAME": "NO. 530 LEIDY-TAMARACK STORAGE FIELD", "ADDRESS": "189 GAS PLANT LANE", "CITY": "RENOVO", "STATE": "PA", "ZIP": "17764", "ZIP4": "NOT AVAILABLE", "TYPE": "NATURAL GAS COMPRESSOR STATION", "STATUS": "IN SERVICE", "COUNTY": "CLINTON", "COUNTYFIPS": "42035", "COUNTRY": "USA", "LATITUDE": 41.430198, "LONGITUDE": -77.848661, "NAICS_CODE": "486210", "NAICS_DESC": "BOOSTER PUMPING STATION, NATURAL GAS TRANSPORTATION", "SOURCE": "EPA ENVIROFACTS, FERC FORM 2, CORPORATE WEBSITE", "SOURCEDATE": "Wed, 15 Jul 2020 00:00:00 GMT", "VAL_METHOD": "IMAGERY/OTHER", "VAL_DATE": "Mon, 20 Jun 2022 00:00:00 GMT", "WEBSITE": "http://www.1line.williams.com/", "PIPECO": "TRANSCONTINENTAL GAS PIPE LINE COMPANY L.L.C.", "COMPID": "29", "OPERATOR": "TRANSCONTINENTAL GAS PIPE LINE COMPANY L.L.C.", "POSREL": "WITHIN 40 FEET", "NUM_UNITS": 0, "CERT_HP": 0, "PLANT_COST": 69296694, "EXP_FUEL": 2047672, "EXP_OTHER": 913311, "GAS_COMPRE": 1578539, "OP_COMP_HR": 0, "OP_NUM_COM": 0, "OP_DATE_PE": "Mon, 01 Jan 2001 00:00:00 GMT", "EXP_POWER": 0, "ELEC_COMPR": 0 }, "geometry": { "type": "Point", "coordinates": [ -8666073.301458170637488, 5076004.357444760389626 ] } },
{ "type": "Feature", "properties": { "OBJECTID": 583, "GCOMPID": "GCOMP293", "NAME": "NO. 167 SOUTH HILL", "ADDRESS": "1950 CHAPTICO ROAD", "CITY": "SOUTH HILL", "STATE": "VA", "ZIP": "23970", "ZIP4": "NOT AVAILABLE", "TYPE": "NATURAL GAS COMPRESSOR STATION", "STATUS": "IN SERVICE", "COUNTY": "MECKLENBURG", "COUNTYFIPS": "51117", "COUNTRY": "USA", "LATITUDE": 36.754648, "LONGITUDE": -78.132701, "NAICS_CODE": "486210", "NAICS_DESC": "BOOSTER PUMPING STATION, NATURAL GAS TRANSPORTATION", "SOURCE": "EPA ENVIROFACTS, FERC FORM 2, CORPORATE WEBSITE", "SOURCEDATE": "Wed, 15 Jul 2020 00:00:00 GMT", "VAL_METHOD": "IMAGERY/OTHER", "VAL_DATE": "Fri, 24 Jun 2022 00:00:00 GMT", "WEBSITE": "http://www.1line.williams.com/", "PIPECO": "TRANSCONTINENTAL GAS PIPE LINE COMPANY L.L.C.", "COMPID": "29", "OPERATOR": "TRANSCONTINENTAL GAS PIPE LINE COMPANY L.L.C.", "POSREL": "WITHIN 40 FEET", "NUM_UNITS": 2, "CERT_HP": 7800, "PLANT_COST": 15388307, "EXP_FUEL": 7203, "EXP_OTHER": 270406, "GAS_COMPRE": 5093, "OP_COMP_HR": 123, "OP_NUM_COM": 1, "OP_DATE_PE": "Fri, 12 Feb 2021 00:00:00 GMT", "EXP_POWER": 0, "ELEC_COMPR": 0 }, "geometry": { "type": "Point", "coordinates": [ -8697692.48962309025228, 4404962.837726520374417 ] } },
{ "type": "Feature", "properties": { "OBJECTID": 613, "GCOMPID": "GCOMP32", "NAME": "NO. 125 MONROE", "ADDRESS": "1001 JAMES HUFF ROAD", "CITY": "MONROE", "STATE": "GA", "ZIP": "30656", "ZIP4": "NOT AVAILABLE", "TYPE": "NATURAL GAS COMPRESSOR STATION", "STATUS": "IN SERVICE", "COUNTY": "WALTON", "COUNTYFIPS": "13297", "COUNTRY": "USA", "LATITUDE": 33.83088, "LONGITUDE": -83.690779, "NAICS_CODE": "486210", "NAICS_DESC": "BOOSTER PUMPING STATION, NATURAL GAS TRANSPORTATION", "SOURCE": "EPA ENVIROFACTS, FERC FORM 2, CORPORATE WEBSITE", "SOURCEDATE": "Wed, 15 Jul 2020 00:00:00 GMT", "VAL_METHOD": "IMAGERY/OTHER", "VAL_DATE": "Mon, 20 Jun 2022 00:00:00 GMT", "WEBSITE": "http://www.1line.williams.com/", "PIPECO": "TRANSCONTINENTAL GAS PIPE LINE COMPANY L.L.C.", "COMPID": "29", "OPERATOR": "TRANSCONTINENTAL GAS PIPE LINE COMPANY L.L.C.", "POSREL": "WITHIN 40 FEET", "NUM_UNITS": 5, "CERT_HP": 49800, "PLANT_COST": 69084925, "EXP_FUEL": 608385, "EXP_OTHER": 334900, "GAS_COMPRE": 282579, "OP_COMP_HR": 4705, "OP_NUM_COM": 3, "OP_DATE_PE": "Thu, 11 Feb 2021 00:00:00 GMT", "EXP_POWER": 279008, "ELEC_COMPR": 5370800 }, "geometry": { "type": "Point", "coordinates": [ -9316414.902372390031815, 4006115.8851497201249 ] } },
{ "type": "Feature", "properties": { "OBJECTID": 655, "GCOMPID": "GCOMP358", "NAME": "NO. 140 SPARTANBURG", "ADDRESS": "2201 MOORE DUNCAN HIGHWAY", "CITY": "MOORE", "STATE": "SC", "ZIP": "29369", "ZIP4": "NOT AVAILABLE", "TYPE": "NATURAL GAS COMPRESSOR STATION", "STATUS": "IN SERVICE", "COUNTY": "SPARTANBURG", "COUNTYFIPS": "45083", "COUNTRY": "USA", "LATITUDE": 34.846938396, "LONGITUDE": -82.010289318999995, "NAICS_CODE": "486210", "NAICS_DESC": "BOOSTER PUMPING STATION, NATURAL GAS TRANSPORTATION", "SOURCE": "EPA ENVIROFACTS, FERC FORM 2, CORPORATE WEBSITE", "SOURCEDATE": "Wed, 15 Jul 2020 00:00:00 GMT", "VAL_METHOD": "IMAGERY/OTHER", "VAL_DATE": "Mon, 20 Jun 2022 00:00:00 GMT", "WEBSITE": "http://www.1line.williams.com/", "PIPECO": "TRANSCONTINENTAL GAS PIPE LINE COMPANY L.L.C.", "COMPID": "29", "OPERATOR": "TRANSCONTINENTAL GAS PIPE LINE COMPANY L.L.C.", "POSREL": "WITHIN 40 FEET", "NUM_UNITS": 15, "CERT_HP": 60755, "PLANT_COST": 103061339, "EXP_FUEL": 667565, "EXP_OTHER": 1683636, "GAS_COMPRE": 306486, "OP_COMP_HR": 9332, "OP_NUM_COM": 10, "OP_DATE_PE": "Thu, 11 Feb 2021 00:00:00 GMT", "EXP_POWER": 0, "ELEC_COMPR": 0 }, "geometry": { "type": "Point", "coordinates": [ -9129343.646800119429827, 4143100.088761419989169 ] } },
{ "type": "Feature", "properties": { "OBJECTID": 656, "GCOMPID": "GCOMP359", "NAME": "NO. 195 DELTA", "ADDRESS": "2204 BRYANSVILLE ROAD", "CITY": "DELTA", "STATE": "PA", "ZIP": "17314", "ZIP4": "NOT AVAILABLE", "TYPE": "NATURAL GAS COMPRESSOR STATION", "STATUS": "IN SERVICE", "COUNTY": "YORK", "COUNTYFIPS": "42133", "COUNTRY": "USA", "LATITUDE": 39.74564, "LONGITUDE": -76.358796, "NAICS_CODE": "486210", "NAICS_DESC": "BOOSTER PUMPING STATION, NATURAL GAS TRANSPORTATION", "SOURCE": "EPA ENVIROFACTS, FERC FORM 2, CORPORATE WEBSITE", "SOURCEDATE": "Wed, 15 Jul 2020 00:00:00 GMT", "VAL_METHOD": "IMAGERY/OTHER", "VAL_DATE": "Mon, 20 Jun 2022 00:00:00 GMT", "WEBSITE": "http://www.1line.williams.com/", "PIPECO": "TRANSCONTINENTAL GAS PIPE LINE COMPANY L.L.C.", "COMPID": "29", "OPERATOR": "TRANSCONTINENTAL GAS PIPE LINE COMPANY L.L.C.", "POSREL": "WITHIN 40 FEET", "NUM_UNITS": 4, "CERT_HP": 26000, "PLANT_COST": 75579396, "EXP_FUEL": 130146, "EXP_OTHER": 1104700, "GAS_COMPRE": 59921, "OP_COMP_HR": 15597, "OP_NUM_COM": 4, "OP_DATE_PE": "Tue, 01 Dec 2020 00:00:00 GMT", "EXP_POWER": 5573421, "ELEC_COMPR": 105805293 }, "geometry": { "type": "Point", "coordinates": [ -8500222.288307450711727, 4829047.931692210026085 ] } },
{ "type": "Feature", "properties": { "OBJECTID": 689, "GCOMPID": "GCOMP389", "NAME": "NO. 105 ROCKFORD", "ADDRESS": "235 HIGHWAY 22 EAST", "CITY": "ROCKFORD", "STATE": "AL", "ZIP": "35136", "ZIP4": "NOT AVAILABLE", "TYPE": "NATURAL GAS COMPRESSOR STATION", "STATUS": "IN SERVICE", "COUNTY": "COOSA", "COUNTYFIPS": "01037", "COUNTRY": "USA", "LATITUDE": 32.896258, "LONGITUDE": -86.17155, "NAICS_CODE": "486210", "NAICS_DESC": "BOOSTER PUMPING STATION, NATURAL GAS TRANSPORTATION", "SOURCE": "EPA ENVIROFACTS, FERC FORM 2, CORPORATE WEBSITE", "SOURCEDATE": "Wed, 15 Jul 2020 00:00:00 GMT", "VAL_METHOD": "IMAGERY/OTHER", "VAL_DATE": "Thu, 23 Jun 2022 00:00:00 GMT", "WEBSITE": "http://www.1line.williams.com/", "PIPECO": "TRANSCONTINENTAL GAS PIPE LINE COMPANY L.L.C.", "COMPID": "29", "OPERATOR": "TRANSCONTINENTAL GAS PIPE LINE COMPANY L.L.C.", "POSREL": "WITHIN 40 FEET", "NUM_UNITS": 4, "CERT_HP": 65500, "PLANT_COST": 85667638, "EXP_FUEL": 3613266, "EXP_OTHER": 275571, "GAS_COMPRE": 1561684, "OP_COMP_HR": 9692, "OP_NUM_COM": 3, "OP_DATE_PE": "Fri, 18 Dec 2020 00:00:00 GMT", "EXP_POWER": 0, "ELEC_COMPR": 0 }, "geometry": { "type": "Point", "coordinates": [ -9592573.066867109388113, 3881542.029855169821531 ] } },
{ "type": "Feature", "properties": { "OBJECTID": 692, "GCOMPID": "GCOMP391", "NAME": "NO. 150 DAVIDSON", "ADDRESS": "236 TRANSCO ROAD", "CITY": "MOORESVILLE", "STATE": "NC", "ZIP": "28117", "ZIP4": "NOT AVAILABLE", "TYPE": "NATURAL GAS COMPRESSOR STATION", "STATUS": "IN SERVICE", "COUNTY": "IREDELL", "COUNTYFIPS": "37097", "COUNTRY": "USA", "LATITUDE": 35.525254, "LONGITUDE": -80.858955, "NAICS_CODE": "486210", "NAICS_DESC": "BOOSTER PUMPING STATION, NATURAL GAS TRANSPORTATION", "SOURCE": "EPA ENVIROFACTS, FERC FORM 2, CORPORATE WEBSITE", "SOURCEDATE": "Fri, 27 May 2022 00:00:00 GMT", "VAL_METHOD": "IMAGERY/OTHER", "VAL_DATE": "Mon, 20 Jun 2022 00:00:00 GMT", "WEBSITE": "http://www.1line.williams.com/", "PIPECO": "TRANSCONTINENTAL GAS PIPE LINE COMPANY L.L.C.", "COMPID": "29", "OPERATOR": "TRANSCONTINENTAL GAS PIPE LINE COMPANY L.L.C.", "POSREL": "WITHIN 40 FEET", "NUM_UNITS": 16, "CERT_HP": 54300, "PLANT_COST": 105381712, "EXP_FUEL": 1354574, "EXP_OTHER": 2311727, "GAS_COMPRE": 583795, "OP_COMP_HR": 40038, "OP_NUM_COM": 6, "OP_DATE_PE": "Thu, 11 Feb 2021 00:00:00 GMT", "EXP_POWER": 9768, "ELEC_COMPR": 0 }, "geometry": { "type": "Point", "coordinates": [ -9001177.696676220744848, 4235492.154736319556832 ] } },
{ "type": "Feature", "properties": { "OBJECTID": 712, "GCOMPID": "GCOMP409", "NAME": "NO. 170 APPOMATTOX", "ADDRESS": "2444 PUMPING STATION ROAD", "CITY": "APPOMATTOX", "STATE": "VA", "ZIP": "24522", "ZIP4": "NOT AVAILABLE", "TYPE": "NATURAL GAS COMPRESSOR STATION", "STATUS": "IN SERVICE", "COUNTY": "APPOMATTOX", "COUNTYFIPS": "51011", "COUNTRY": "USA", "LATITUDE": 37.344897, "LONGITUDE": -78.873806, "NAICS_CODE": "486210", "NAICS_DESC": "BOOSTER PUMPING STATION, NATURAL GAS TRANSPORTATION", "SOURCE": "EPA ENVIROFACTS, FERC FORM 2, CORPORATE WEBSITE", "SOURCEDATE": "Wed, 15 Jul 2020 00:00:00 GMT", "VAL_METHOD": "IMAGERY/OTHER", "VAL_DATE": "Mon, 20 Jun 2022 00:00:00 GMT", "WEBSITE": "http://www.1line.williams.com/", "PIPECO": "TRANSCONTINENTAL GAS PIPE LINE COMPANY L.L.C.", "COMPID": "29", "OPERATOR": "TRANSCONTINENTAL GAS PIPE LINE COMPANY L.L.C.", "POSREL": "WITHIN 40 FEET", "NUM_UNITS": 11, "CERT_HP": 33200, "PLANT_COST": 78608227, "EXP_FUEL": 3014176, "EXP_OTHER": 2099388, "GAS_COMPRE": 1407271, "OP_COMP_HR": 61504, "OP_NUM_COM": 11, "OP_DATE_PE": "Fri, 06 Nov 2020 00:00:00 GMT", "EXP_POWER": 0, "ELEC_COMPR": 0 }, "geometry": { "type": "Point", "coordinates": [ -8780191.920847440138459, 4487290.638371990062296 ] } },
{ "type": "Feature", "properties": { "OBJECTID": 740, "GCOMPID": "GCOMP434", "NAME": "NO. 30 EL CAMPO", "ADDRESS": "2648 FM. 2546", "CITY": "EL CAMPO", "STATE": "TX", "ZIP": "77437", "ZIP4": "NOT AVAILABLE", "TYPE": "NATURAL GAS COMPRESSOR STATION", "STATUS": "IN SERVICE", "COUNTY": "WHARTON", "COUNTYFIPS": "48481", "COUNTRY": "USA", "LATITUDE": 29.279476, "LONGITUDE": -96.289727, "NAICS_CODE": "486210", "NAICS_DESC": "BOOSTER PUMPING STATION, NATURAL GAS TRANSPORTATION", "SOURCE": "EPA ENVIROFACTS, FERC FORM 2, CORPORATE WEBSITE", "SOURCEDATE": "Wed, 15 Jul 2020 00:00:00 GMT", "VAL_METHOD": "IMAGERY/OTHER", "VAL_DATE": "Mon, 20 Jun 2022 00:00:00 GMT", "WEBSITE": "http://www.1line.williams.com/", "PIPECO": "TRANSCONTINENTAL GAS PIPE LINE COMPANY L.L.C.", "COMPID": "29", "OPERATOR": "TRANSCONTINENTAL GAS PIPE LINE COMPANY L.L.C.", "POSREL": "WITHIN 40 FEET", "NUM_UNITS": 7, "CERT_HP": 17750, "PLANT_COST": 41534551, "EXP_FUEL": 766244, "EXP_OTHER": 1093567, "GAS_COMPRE": 399335, "OP_COMP_HR": 21496, "OP_NUM_COM": 4, "OP_DATE_PE": "Thu, 09 Apr 2020 00:00:00 GMT", "EXP_POWER": 0, "ELEC_COMPR": 0 }, "geometry": { "type": "Point", "coordinates": [ -10718923.378263300284743, 3411265.384189430158585 ] } },
{ "type": "Feature", "properties": { "OBJECTID": 746, "GCOMPID": "GCOMP44", "NAME": "NO. 517 BENTON", "ADDRESS": "102 POLE BRIDGE ROAD", "CITY": "BENTON", "STATE": "PA", "ZIP": "17814", "ZIP4": "NOT AVAILABLE", "TYPE": "NATURAL GAS COMPRESSOR STATION", "STATUS": "IN SERVICE", "COUNTY": "COLUMBIA", "COUNTYFIPS": "42037", "COUNTRY": "USA", "LATITUDE": 41.271842, "LONGITUDE": -76.429826, "NAICS_CODE": "486210", "NAICS_DESC": "BOOSTER PUMPING STATION, NATURAL GAS TRANSPORTATION", "SOURCE": "EPA ENVIROFACTS, FERC FORM 2, CORPORATE WEBSITE", "SOURCEDATE": "Wed, 15 Jul 2020 00:00:00 GMT", "VAL_METHOD": "IMAGERY/OTHER", "VAL_DATE": "Mon, 20 Jun 2022 00:00:00 GMT", "WEBSITE": "http://www.1line.williams.com/", "PIPECO": "TRANSCONTINENTAL GAS PIPE LINE COMPANY L.L.C.", "COMPID": "29", "OPERATOR": "TRANSCONTINENTAL GAS PIPE LINE COMPANY L.L.C.", "POSREL": "WITHIN 40 FEET", "NUM_UNITS": 6, "CERT_HP": 88000, "PLANT_COST": 154674310, "EXP_FUEL": 1189645, "EXP_OTHER": 2002343, "GAS_COMPRE": 667477, "OP_COMP_HR": 5002, "OP_NUM_COM": 3, "OP_DATE_PE": "Thu, 28 Jan 2021 00:00:00 GMT", "EXP_POWER": 0, "ELEC_COMPR": 0 }, "geometry": { "type": "Point", "coordinates": [ -8508129.311738489195704, 5052521.362614819779992 ] } },
{ "type": "Feature", "properties": { "OBJECTID": 754, "GCOMPID": "GCOMP447", "NAME": "NO. 520 SALLADASBURG", "ADDRESS": "2782 STATE ROUTE 287", "CITY": "SALLADASBURG", "STATE": "PA", "ZIP": "17740", "ZIP4": "NOT AVAILABLE", "TYPE": "NATURAL GAS COMPRESSOR STATION", "STATUS": "IN SERVICE", "COUNTY": "LYCOMING", "COUNTYFIPS": "42081", "COUNTRY": "USA", "LATITUDE": 41.260054, "LONGITUDE": -77.229078, "NAICS_CODE": "486210", "NAICS_DESC": "BOOSTER PUMPING STATION, NATURAL GAS TRANSPORTATION", "SOURCE": "EPA ENVIROFACTS, FERC FORM 2, CORPORATE WEBSITE", "SOURCEDATE": "Wed, 15 Jul 2020 00:00:00 GMT", "VAL_METHOD": "IMAGERY/OTHER", "VAL_DATE": "Mon, 20 Jun 2022 00:00:00 GMT", "WEBSITE": "http://www.1line.williams.com/", "PIPECO": "TRANSCONTINENTAL GAS PIPE LINE COMPANY L.L.C.", "COMPID": "29", "OPERATOR": "TRANSCONTINENTAL GAS PIPE LINE COMPANY L.L.C.", "POSREL": "WITHIN 40 FEET", "NUM_UNITS": 9, "CERT_HP": 71700, "PLANT_COST": 140940964, "EXP_FUEL": 132062, "EXP_OTHER": 2120340, "GAS_COMPRE": 75373, "OP_COMP_HR": 2943, "OP_NUM_COM": 5, "OP_DATE_PE": "Sun, 24 Jan 2021 00:00:00 GMT", "EXP_POWER": 0, "ELEC_COMPR": 0 }, "geometry": { "type": "Point", "coordinates": [ -8597101.63739399984479, 5050775.572356729768217 ] } },
{ "type": "Feature", "properties": { "OBJECTID": 768, "GCOMPID": "GCOMP46", "NAME": "NO. 185 MANASSAS", "ADDRESS": "10201 BALLS FOROAD ROAD", "CITY": "MANASSAS", "STATE": "VA", "ZIP": "20105", "ZIP4": "NOT AVAILABLE", "TYPE": "NATURAL GAS COMPRESSOR STATION", "STATUS": "IN SERVICE", "COUNTY": "LOUDOUN", "COUNTYFIPS": "51107", "COUNTRY": "USA", "LATITUDE": 38.802137, "LONGITUDE": -77.501796, "NAICS_CODE": "486210", "NAICS_DESC": "BOOSTER PUMPING STATION, NATURAL GAS TRANSPORTATION", "SOURCE": "EPA ENVIROFACTS, FERC FORM 2, CORPORATE WEBSITE", "SOURCEDATE": "Wed, 15 Jul 2020 00:00:00 GMT", "VAL_METHOD": "IMAGERY/OTHER", "VAL_DATE": "Mon, 20 Jun 2022 00:00:00 GMT", "WEBSITE": "http://www.1line.williams.com/", "PIPECO": "TRANSCONTINENTAL GAS PIPE LINE COMPANY L.L.C.", "COMPID": "29", "OPERATOR": "TRANSCONTINENTAL GAS PIPE LINE COMPANY L.L.C.", "POSREL": "WITHIN 40 FEET", "NUM_UNITS": 11, "CERT_HP": 50000, "PLANT_COST": 120901563, "EXP_FUEL": 458002, "EXP_OTHER": 2209141, "GAS_COMPRE": 188311, "OP_COMP_HR": 17299, "OP_NUM_COM": 4, "OP_DATE_PE": "Fri, 06 Nov 2020 00:00:00 GMT", "EXP_POWER": 8890086, "ELEC_COMPR": 105529646 }, "geometry": { "type": "Point", "coordinates": [ -8627460.466284159570932, 4693368.894815590232611 ] } },
{ "type": "Feature", "properties": { "OBJECTID": 782, "GCOMPID": "GCOMP472", "NAME": "NO. 65 KENTWOOD", "ADDRESS": "29507 HIGHWAY 43", "CITY": "GREENSBURG", "STATE": "LA", "ZIP": "70441", "ZIP4": "NOT AVAILABLE", "TYPE": "NATURAL GAS COMPRESSOR STATION", "STATUS": "IN SERVICE", "COUNTY": "SAINT HELENA PARISH", "COUNTYFIPS": "22091", "COUNTRY": "USA", "LATITUDE": 30.993536, "LONGITUDE": -90.704699, "NAICS_CODE": "486210", "NAICS_DESC": "BOOSTER PUMPING STATION, NATURAL GAS TRANSPORTATION", "SOURCE": "EPA ENVIROFACTS, FERC FORM 2, CORPORATE WEBSITE", "SOURCEDATE": "Wed, 15 Jul 2020 00:00:00 GMT", "VAL_METHOD": "IMAGERY/OTHER", "VAL_DATE": "Mon, 20 Jun 2022 00:00:00 GMT", "WEBSITE": "http://www.1line.williams.com/", "PIPECO": "TRANSCONTINENTAL GAS PIPE LINE COMPANY L.L.C.", "COMPID": "29", "OPERATOR": "TRANSCONTINENTAL GAS PIPE LINE COMPANY L.L.C.", "POSREL": "WITHIN 40 FEET", "NUM_UNITS": 6, "CERT_HP": 26400, "PLANT_COST": 61225076, "EXP_FUEL": 10116, "EXP_OTHER": 667373, "GAS_COMPRE": 1472, "OP_COMP_HR": 50, "OP_NUM_COM": 2, "OP_DATE_PE": "Wed, 10 Feb 2021 00:00:00 GMT", "EXP_POWER": 0, "ELEC_COMPR": 0 }, "geometry": { "type": "Point", "coordinates": [ -10097200.905237099155784, 3631909.698387559968978 ] } },
{ "type": "Feature", "properties": { "OBJECTID": 784, "GCOMPID": "GCOMP474", "NAME": "NO. 50 EUNICE", "ADDRESS": "2959 VETERAN MEMORIAL HIGHWAY", "CITY": "MAMOU", "STATE": "LA", "ZIP": "70554", "ZIP4": "NOT AVAILABLE", "TYPE": "NATURAL GAS COMPRESSOR STATION", "STATUS": "IN SERVICE", "COUNTY": "EVANGELINE PARISH", "COUNTYFIPS": "22039", "COUNTRY": "USA", "LATITUDE": 30.575395, "LONGITUDE": -92.429964, "NAICS_CODE": "486210", "NAICS_DESC": "BOOSTER PUMPING STATION, NATURAL GAS TRANSPORTATION", "SOURCE": "FERC FORM 2, CORPORATE WEBSITE", "SOURCEDATE": "Wed, 15 Jul 2020 00:00:00 GMT", "VAL_METHOD": "IMAGERY/OTHER", "VAL_DATE": "Mon, 20 Jun 2022 00:00:00 GMT", "WEBSITE": "http://www.1line.williams.com/", "PIPECO": "TRANSCONTINENTAL GAS PIPE LINE COMPANY L.L.C.", "COMPID": "29", "OPERATOR": "TRANSCONTINENTAL GAS PIPE LINE COMPANY L.L.C.", "POSREL": "WITHIN 40 FEET", "NUM_UNITS": 1, "CERT_HP": 10310, "PLANT_COST": 34167789, "EXP_FUEL": 36530, "EXP_OTHER": 1511840, "GAS_COMPRE": 20226, "OP_COMP_HR": 0, "OP_NUM_COM": 0, "OP_DATE_PE": "Mon, 01 Jan 2001 00:00:00 GMT", "EXP_POWER": 0, "ELEC_COMPR": 0 }, "geometry": { "type": "Point", "coordinates": [ -10289256.526520600542426, 3577728.007607500068843 ] } },
{ "type": "Feature", "properties": { "OBJECTID": 786, "GCOMPID": "GCOMP476", "NAME": "NO. 60 ST. FRANCISVILLE", "ADDRESS": "2988 HIGHWAY 964", "CITY": "JACKSON", "STATE": "LA", "ZIP": "70748", "ZIP4": "NOT AVAILABLE", "TYPE": "NATURAL GAS COMPRESSOR STATION", "STATUS": "IN SERVICE", "COUNTY": "EAST FELICIANA PARISH", "COUNTYFIPS": "22037", "COUNTRY": "USA", "LATITUDE": 30.744502, "LONGITUDE": -91.266232, "NAICS_CODE": "486210", "NAICS_DESC": "BOOSTER PUMPING STATION, NATURAL GAS TRANSPORTATION", "SOURCE": "EPA ENVIROFACTS, FERC FORM 2, CORPORATE WEBSITE", "SOURCEDATE": "Wed, 15 Jul 2020 00:00:00 GMT", "VAL_METHOD": "IMAGERY/OTHER", "VAL_DATE": "Mon, 20 Jun 2022 00:00:00 GMT", "WEBSITE": "http://www.1line.williams.com/", "PIPECO": "TRANSCONTINENTAL GAS PIPE LINE COMPANY L.L.C.", "COMPID": "29", "OPERATOR": "TRANSCONTINENTAL GAS PIPE LINE COMPANY L.L.C.", "POSREL": "WITHIN 40 FEET", "NUM_UNITS": 13, "CERT_HP": 37640, "PLANT_COST": 62168901, "EXP_FUEL": 1658756, "EXP_OTHER": 1957389, "GAS_COMPRE": 635176, "OP_COMP_HR": 32033, "OP_NUM_COM": 11, "OP_DATE_PE": "Wed, 10 Feb 2021 00:00:00 GMT", "EXP_POWER": 0, "ELEC_COMPR": 0 }, "geometry": { "type": "Point", "coordinates": [ -10159710.472860800102353, 3599612.128715130034834 ] } },
{ "type": "Feature", "properties": { "OBJECTID": 789, "GCOMPID": "GCOMP479", "NAME": "NO. 40 SOUR LAKE", "ADDRESS": "29979 W HIGHWAY 105 W", "CITY": "SOUR LAKE", "STATE": "TX", "ZIP": "77659", "ZIP4": "NOT AVAILABLE", "TYPE": "NATURAL GAS COMPRESSOR STATION", "STATUS": "IN SERVICE", "COUNTY": "HARDIN", "COUNTYFIPS": "48199", "COUNTRY": "USA", "LATITUDE": 30.176871, "LONGITUDE": -94.503251, "NAICS_CODE": "486210", "NAICS_DESC": "BOOSTER PUMPING STATION, NATURAL GAS TRANSPORTATION", "SOURCE": "EPA ENVIROFACTS, FERC FORM 2, CORPORATE WEBSITE", "SOURCEDATE": "Wed, 15 Jul 2020 00:00:00 GMT", "VAL_METHOD": "IMAGERY/OTHER", "VAL_DATE": "Mon, 20 Jun 2022 00:00:00 GMT", "WEBSITE": "http://www.1line.williams.com/", "PIPECO": "TRANSCONTINENTAL GAS PIPE LINE COMPANY L.L.C.", "COMPID": "29", "OPERATOR": "TRANSCONTINENTAL GAS PIPE LINE COMPANY L.L.C.", "POSREL": "WITHIN 40 FEET", "NUM_UNITS": 6, "CERT_HP": 15000, "PLANT_COST": 33429559, "EXP_FUEL": 330206, "EXP_OTHER": 902105, "GAS_COMPRE": 138580, "OP_COMP_HR": 7818, "OP_NUM_COM": 3, "OP_DATE_PE": "Mon, 19 Oct 2020 00:00:00 GMT", "EXP_POWER": 0, "ELEC_COMPR": 0 }, "geometry": { "type": "Point", "coordinates": [ -10520053.779628900811076, 3526305.281748339999467 ] } },
{ "type": "Feature", "properties": { "OBJECTID": 811, "GCOMPID": "GCOMP499", "NAME": "NO. 54 WASHINGTON STORAGE FIELD", "ADDRESS": "3149 HIGHWAY 10", "CITY": "WASHINGTON", "STATE": "LA", "ZIP": "70589", "ZIP4": "NOT AVAILABLE", "TYPE": "NATURAL GAS COMPRESSOR STATION", "STATUS": "IN SERVICE", "COUNTY": "SAINT LANDRY PARISH", "COUNTYFIPS": "22097", "COUNTRY": "USA", "LATITUDE": 30.67018, "LONGITUDE": -92.021378, "NAICS_CODE": "486210", "NAICS_DESC": "BOOSTER PUMPING STATION, NATURAL GAS TRANSPORTATION", "SOURCE": "EPA ENVIROFACTS, FERC FORM 2, CORPORATE WEBSITE", "SOURCEDATE": "Wed, 15 Jul 2020 00:00:00 GMT", "VAL_METHOD": "IMAGERY/OTHER", "VAL_DATE": "Mon, 20 Jun 2022 00:00:00 GMT", "WEBSITE": "http://www.1line.williams.com/", "PIPECO": "TRANSCONTINENTAL GAS PIPE LINE COMPANY L.L.C.", "COMPID": "29", "OPERATOR": "TRANSCONTINENTAL GAS PIPE LINE COMPANY L.L.C.", "POSREL": "WITHIN 40 FEET", "NUM_UNITS": 3, "CERT_HP": 33000, "PLANT_COST": 158480907, "EXP_FUEL": 1202910, "EXP_OTHER": 2186602, "GAS_COMPRE": 386894, "OP_COMP_HR": 5082, "OP_NUM_COM": 2, "OP_DATE_PE": "Fri, 10 Apr 2020 00:00:00 GMT", "EXP_POWER": 0, "ELEC_COMPR": 0 }, "geometry": { "type": "Point", "coordinates": [ -10243772.941055299714208, 3589989.408653359860182 ] } },
{ "type": "Feature", "properties": { "OBJECTID": 814, "GCOMPID": "GCOMP500", "NAME": "NO. 205 LAWRENCEVILLE", "ADDRESS": "315 COLD SOIL ROAD", "CITY": "PRINCETON", "STATE": "NJ", "ZIP": "08540", "ZIP4": "NOT AVAILABLE", "TYPE": "NATURAL GAS COMPRESSOR STATION", "STATUS": "IN SERVICE", "COUNTY": "MERCER", "COUNTYFIPS": "34021", "COUNTRY": "USA", "LATITUDE": 40.337539, "LONGITUDE": -74.732468, "NAICS_CODE": "486210", "NAICS_DESC": "BOOSTER PUMPING STATION, NATURAL GAS TRANSPORTATION", "SOURCE": "EPA ENVIROFACTS, FERC FORM 2, CORPORATE WEBSITE", "SOURCEDATE": "Wed, 15 Jul 2020 00:00:00 GMT", "VAL_METHOD": "IMAGERY/OTHER", "VAL_DATE": "Mon, 20 Jun 2022 00:00:00 GMT", "WEBSITE": "http://www.1line.williams.com/", "PIPECO": "TRANSCONTINENTAL GAS PIPE LINE COMPANY L.L.C.", "COMPID": "29", "OPERATOR": "TRANSCONTINENTAL GAS PIPE LINE COMPANY L.L.C.", "POSREL": "WITHIN 40 FEET", "NUM_UNITS": 3, "CERT_HP": 57000, "PLANT_COST": 137090956, "EXP_FUEL": 0, "EXP_OTHER": 921921, "GAS_COMPRE": 0, "OP_COMP_HR": 24, "OP_NUM_COM": 2, "OP_DATE_PE": "Tue, 16 Mar 2021 00:00:00 GMT", "EXP_POWER": 474765, "ELEC_COMPR": 2668884 }, "geometry": { "type": "Point", "coordinates": [ -8319180.283484609797597, 4915114.448056790046394 ] } },
{ "type": "Feature", "properties": { "OBJECTID": 821, "GCOMPID": "GCOMP507", "NAME": "NO: 207 SAYREVILLE", "ADDRESS": "3200 BORDENTOWN AVENUE", "CITY": "SAYREVILLE", "STATE": "NJ", "ZIP": "08857", "ZIP4": "NOT AVAILABLE", "TYPE": "NATURAL GAS COMPRESSOR STATION", "STATUS": "IN SERVICE", "COUNTY": "MIDDLESEX", "COUNTYFIPS": "34023", "COUNTRY": "USA", "LATITUDE": 40.441177, "LONGITUDE": -74.315548, "NAICS_CODE": "486210", "NAICS_DESC": "BOOSTER PUMPING STATION, NATURAL GAS TRANSPORTATION", "SOURCE": "FERC FORM 2, CORPORATE WEBSITE", "SOURCEDATE": "Wed, 15 Jul 2020 00:00:00 GMT", "VAL_METHOD": "IMAGERY/OTHER", "VAL_DATE": "Mon, 20 Jun 2022 00:00:00 GMT", "WEBSITE": "http://www.1line.williams.com/", "PIPECO": "TRANSCONTINENTAL GAS PIPE LINE COMPANY L.L.C.", "COMPID": "29", "OPERATOR": "TRANSCONTINENTAL GAS PIPE LINE COMPANY L.L.C.", "POSREL": "WITHIN 40 FEET", "NUM_UNITS": 5, "CERT_HP": 37300, "PLANT_COST": 210518724, "EXP_FUEL": 2509688, "EXP_OTHER": 0, "GAS_COMPRE": 1195819, "OP_COMP_HR": 14380, "OP_NUM_COM": 0, "OP_DATE_PE": "Tue, 27 Nov 2012 00:00:00 GMT", "EXP_POWER": 947649, "ELEC_COMPR": 12611013 }, "geometry": { "type": "Point", "coordinates": [ -8272768.961383080109954, 4930261.56528552994132 ] } },
{ "type": "Feature", "properties": { "OBJECTID": 871, "GCOMPID": "GCOMP552", "NAME": "NO. 52 EUNICE", "ADDRESS": "3729 DURALDE HIGHWAY", "CITY": "EUNICE", "STATE": "LA", "ZIP": "70535", "ZIP4": "NOT AVAILABLE", "TYPE": "NATURAL GAS COMPRESSOR STATION", "STATUS": "IN SERVICE", "COUNTY": "SAINT LANDRY PARISH", "COUNTYFIPS": "22097", "COUNTRY": "USA", "LATITUDE": 30.559580057000101, "LONGITUDE": -92.501782316999893, "NAICS_CODE": "486210", "NAICS_DESC": "BOOSTER PUMPING STATION, NATURAL GAS TRANSPORTATION", "SOURCE": "EPA ENVIROFACTS, FERC FORM 2, CORPORATE WEBSITE", "SOURCEDATE": "Wed, 15 Jul 2020 00:00:00 GMT", "VAL_METHOD": "IMAGERY/OTHER", "VAL_DATE": "Mon, 20 Jun 2022 00:00:00 GMT", "WEBSITE": "http://www.1line.williams.com/", "PIPECO": "TRANSCONTINENTAL GAS PIPE LINE COMPANY L.L.C.", "COMPID": "29", "OPERATOR": "TRANSCONTINENTAL GAS PIPE LINE COMPANY L.L.C.", "POSREL": "WITHIN 40 FEET", "NUM_UNITS": 3, "CERT_HP": 6000, "PLANT_COST": 5078191, "EXP_FUEL": 10446, "EXP_OTHER": 0, "GAS_COMPRE": 4010, "OP_COMP_HR": 248, "OP_NUM_COM": 1, "OP_DATE_PE": "Sun, 05 Apr 2020 00:00:00 GMT", "EXP_POWER": 0, "ELEC_COMPR": 0 }, "geometry": { "type": "Point", "coordinates": [ -10297251.304998699575663, 3575683.351915630046278 ] } },
{ "type": "Feature", "properties": { "OBJECTID": 936, "GCOMPID": "GCOMP612", "NAME": "NO. 160 REIDSVILLE", "ADDRESS": "4300 NC HIGHWAY 65", "CITY": "REIDSVILLE", "STATE": "NC", "ZIP": "27320", "ZIP4": "NOT AVAILABLE", "TYPE": "NATURAL GAS COMPRESSOR STATION", "STATUS": "IN SERVICE", "COUNTY": "ROCKINGHAM", "COUNTYFIPS": "37157", "COUNTRY": "USA", "LATITUDE": 36.3423, "LONGITUDE": -79.820398, "NAICS_CODE": "486210", "NAICS_DESC": "BOOSTER PUMPING STATION, NATURAL GAS TRANSPORTATION", "SOURCE": "EPA ENVIROFACTS, FERC FORM 2, CORPORATE WEBSITE", "SOURCEDATE": "Fri, 27 May 2022 00:00:00 GMT", "VAL_METHOD": "IMAGERY/OTHER", "VAL_DATE": "Mon, 20 Jun 2022 00:00:00 GMT", "WEBSITE": "http://www.1line.williams.com/", "PIPECO": "TRANSCONTINENTAL GAS PIPE LINE COMPANY L.L.C.", "COMPID": "29", "OPERATOR": "TRANSCONTINENTAL GAS PIPE LINE COMPANY L.L.C.", "POSREL": "WITHIN 40 FEET", "NUM_UNITS": 16, "CERT_HP": 54520, "PLANT_COST": 81562860, "EXP_FUEL": 1883037, "EXP_OTHER": 2199164, "GAS_COMPRE": 849193, "OP_COMP_HR": 47351, "OP_NUM_COM": 13, "OP_DATE_PE": "Thu, 26 Nov 2020 00:00:00 GMT", "EXP_POWER": 39327, "ELEC_COMPR": 0 }, "geometry": { "type": "Point", "coordinates": [ -8885566.060276430100203, 4347824.122611080296338 ] } },
{ "type": "Feature", "properties": { "OBJECTID": 971, "GCOMPID": "GCOMP644", "NAME": "NO. 62 HUMPHRIES", "ADDRESS": "4711 BAYOU BLACK DRIVE", "CITY": "GIBSON", "STATE": "LA", "ZIP": "70356", "ZIP4": "NOT AVAILABLE", "TYPE": "NATURAL GAS COMPRESSOR STATION", "STATUS": "IN SERVICE", "COUNTY": "TERREBONNE PARISH", "COUNTYFIPS": "22109", "COUNTRY": "USA", "LATITUDE": 29.6033457, "LONGITUDE": -90.875665368, "NAICS_CODE": "486210", "NAICS_DESC": "BOOSTER PUMPING STATION, NATURAL GAS TRANSPORTATION", "SOURCE": "EPA ENVIROFACTS, FERC FORM 2, CORPORATE WEBSITE", "SOURCEDATE": "Wed, 15 Jul 2020 00:00:00 GMT", "VAL_METHOD": "IMAGERY/OTHER", "VAL_DATE": "Mon, 20 Jun 2022 00:00:00 GMT", "WEBSITE": "http://www.1line.williams.com/", "PIPECO": "TRANSCONTINENTAL GAS PIPE LINE COMPANY L.L.C.", "COMPID": "29", "OPERATOR": "TRANSCONTINENTAL GAS PIPE LINE COMPANY L.L.C.", "POSREL": "WITHIN 40 FEET", "NUM_UNITS": 9, "CERT_HP": 24820, "PLANT_COST": 57425675, "EXP_FUEL": 76107, "EXP_OTHER": 502313, "GAS_COMPRE": 61122, "OP_COMP_HR": 4087, "OP_NUM_COM": 2, "OP_DATE_PE": "Wed, 01 Apr 2020 00:00:00 GMT", "EXP_POWER": 0, "ELEC_COMPR": 0 }, "geometry": { "type": "Point", "coordinates": [ -10116232.794265700504184, 3452664.850429870188236 ] } },
{ "type": "Feature", "properties": { "OBJECTID": 996, "GCOMPID": "GCOMP667", "NAME": "NO. 115 NEWNAN", "ADDRESS": "510 KEITH ROAD", "CITY": "NEWNAN", "STATE": "GA", "ZIP": "30263", "ZIP4": "NOT AVAILABLE", "TYPE": "NATURAL GAS COMPRESSOR STATION", "STATUS": "IN SERVICE", "COUNTY": "COWETA", "COUNTYFIPS": "13077", "COUNTRY": "USA", "LATITUDE": 33.369413, "LONGITUDE": -84.911028, "NAICS_CODE": "486210", "NAICS_DESC": "BOOSTER PUMPING STATION, NATURAL GAS TRANSPORTATION", "SOURCE": "EPA ENVIROFACTS, FERC FORM 2, CORPORATE WEBSITE", "SOURCEDATE": "Wed, 15 Jul 2020 00:00:00 GMT", "VAL_METHOD": "IMAGERY/OTHER", "VAL_DATE": "Mon, 20 Jun 2022 00:00:00 GMT", "WEBSITE": "http://www.1line.williams.com/", "PIPECO": "TRANSCONTINENTAL GAS PIPE LINE COMPANY L.L.C.", "COMPID": "29", "OPERATOR": "TRANSCONTINENTAL GAS PIPE LINE COMPANY L.L.C.", "POSREL": "WITHIN 40 FEET", "NUM_UNITS": 3, "CERT_HP": 62950, "PLANT_COST": 85410180, "EXP_FUEL": 0, "EXP_OTHER": 475036, "GAS_COMPRE": 0, "OP_COMP_HR": 1684, "OP_NUM_COM": 3, "OP_DATE_PE": "Mon, 08 Feb 2021 00:00:00 GMT", "EXP_POWER": 5531225, "ELEC_COMPR": 24616641 }, "geometry": { "type": "Point", "coordinates": [ -9452252.399693390354514, 3944440.64186378987506 ] } },
{ "type": "Feature", "properties": { "OBJECTID": 1040, "GCOMPID": "GCOMP706", "NAME": "NO. 44 JOHNSON'S BAYOU", "ADDRESS": "5575 GULF BEACH HIGHWAY", "CITY": "CAMERON", "STATE": "LA", "ZIP": "70631", "ZIP4": "NOT AVAILABLE", "TYPE": "NATURAL GAS COMPRESSOR STATION", "STATUS": "IN SERVICE", "COUNTY": "CAMERON PARISH", "COUNTYFIPS": "22023", "COUNTRY": "USA", "LATITUDE": 29.760756852, "LONGITUDE": -93.639812657999997, "NAICS_CODE": "486210", "NAICS_DESC": "BOOSTER PUMPING STATION, NATURAL GAS TRANSPORTATION", "SOURCE": "EPA ENVIROFACTS, FERC FORM 2, CORPORATE WEBSITE", "SOURCEDATE": "Wed, 15 Jul 2020 00:00:00 GMT", "VAL_METHOD": "IMAGERY/OTHER", "VAL_DATE": "Mon, 20 Jun 2022 00:00:00 GMT", "WEBSITE": "http://www.1line.williams.com/", "PIPECO": "TRANSCONTINENTAL GAS PIPE LINE COMPANY L.L.C.", "COMPID": "29", "OPERATOR": "TRANSCONTINENTAL GAS PIPE LINE COMPANY L.L.C.", "POSREL": "WITHIN 40 FEET", "NUM_UNITS": 5, "CERT_HP": 43085, "PLANT_COST": 109911062, "EXP_FUEL": 3057482, "EXP_OTHER": 310155, "GAS_COMPRE": 1387421, "OP_COMP_HR": 13442, "OP_NUM_COM": 2, "OP_DATE_PE": "Fri, 01 Jan 2021 00:00:00 GMT", "EXP_POWER": 85149, "ELEC_COMPR": 0 }, "geometry": { "type": "Point", "coordinates": [ -10423936.263066099956632, 3472834.287592850159854 ] } },
{ "type": "Feature", "properties": { "OBJECTID": 1042, "GCOMPID": "GCOMP708", "NAME": "NO. 82 CODEN", "ADDRESS": "5600 ROCK ROAD", "CITY": "CODEN", "STATE": "AL", "ZIP": "36523", "ZIP4": "NOT AVAILABLE", "TYPE": "NATURAL GAS COMPRESSOR STATION", "STATUS": "IN SERVICE", "COUNTY": "MOBILE", "COUNTYFIPS": "01097", "COUNTRY": "USA", "LATITUDE": 30.400318, "LONGITUDE": -88.175624, "NAICS_CODE": "486210", "NAICS_DESC": "BOOSTER PUMPING STATION, NATURAL GAS TRANSPORTATION", "SOURCE": "EPA ENVIROFACTS, FERC FORM 2, CORPORATE WEBSITE", "SOURCEDATE": "Wed, 15 Jul 2020 00:00:00 GMT", "VAL_METHOD": "IMAGERY/OTHER", "VAL_DATE": "Mon, 20 Jun 2022 00:00:00 GMT", "WEBSITE": "http://www.1line.williams.com/", "PIPECO": "TRANSCONTINENTAL GAS PIPE LINE COMPANY L.L.C.", "COMPID": "29", "OPERATOR": "TRANSCONTINENTAL GAS PIPE LINE COMPANY L.L.C.", "POSREL": "WITHIN 40 FEET", "NUM_UNITS": 3, "CERT_HP": 25766, "PLANT_COST": 22862555, "EXP_FUEL": 0, "EXP_OTHER": 424872, "GAS_COMPRE": 0, "OP_COMP_HR": 0, "OP_NUM_COM": 1, "OP_DATE_PE": "Wed, 01 Apr 2020 00:00:00 GMT", "EXP_POWER": 0, "ELEC_COMPR": 0 }, "geometry": { "type": "Point", "coordinates": [ -9815665.564059149473906, 3555111.476265979930758 ] } },
{ "type": "Feature", "properties": { "OBJECTID": 1070, "GCOMPID": "GCOMP733", "NAME": "NO. 200 MALVERN", "ADDRESS": "60 N BACTON HILL ROAD", "CITY": "MALVERN", "STATE": "PA", "ZIP": "19355", "ZIP4": "NOT AVAILABLE", "TYPE": "NATURAL GAS COMPRESSOR STATION", "STATUS": "IN SERVICE", "COUNTY": "CHESTER", "COUNTYFIPS": "42029", "COUNTRY": "USA", "LATITUDE": 40.048642, "LONGITUDE": -75.58806, "NAICS_CODE": "486210", "NAICS_DESC": "BOOSTER PUMPING STATION, NATURAL GAS TRANSPORTATION", "SOURCE": "EPA ENVIROFACTS, FERC FORM 2, CORPORATE WEBSITE", "SOURCEDATE": "Wed, 15 Jul 2020 00:00:00 GMT", "VAL_METHOD": "IMAGERY/OTHER", "VAL_DATE": "Fri, 24 Jun 2022 00:00:00 GMT", "WEBSITE": "http://www.1line.williams.com/", "PIPECO": "TRANSCONTINENTAL GAS PIPE LINE COMPANY L.L.C.", "COMPID": "29", "OPERATOR": "TRANSCONTINENTAL GAS PIPE LINE COMPANY L.L.C.", "POSREL": "WITHIN 40 FEET", "NUM_UNITS": 13, "CERT_HP": 33000, "PLANT_COST": 72112800, "EXP_FUEL": 65471, "EXP_OTHER": 2068807, "GAS_COMPRE": 23121, "OP_COMP_HR": 1285, "OP_NUM_COM": 13, "OP_DATE_PE": "Wed, 02 Sep 2020 00:00:00 GMT", "EXP_POWER": 0, "ELEC_COMPR": 0 }, "geometry": { "type": "Point", "coordinates": [ -8414424.349251409992576, 4873013.322109259665012 ] } },
{ "type": "Feature", "properties": { "OBJECTID": 1090, "GCOMPID": "GCOMP751", "NAME": "NO. 505 CENTERVILLE", "ADDRESS": "623 CASE ROAD", "CITY": "NESHANIC STATION", "STATE": "NJ", "ZIP": "08853", "ZIP4": "NOT AVAILABLE", "TYPE": "NATURAL GAS COMPRESSOR STATION", "STATUS": "IN SERVICE", "COUNTY": "SOMERSET", "COUNTYFIPS": "34035", "COUNTRY": "USA", "LATITUDE": 40.532538, "LONGITUDE": -74.730111, "NAICS_CODE": "486210", "NAICS_DESC": "BOOSTER PUMPING STATION, NATURAL GAS TRANSPORTATION", "SOURCE": "EPA ENVIROFACTS, FERC FORM 2, CORPORATE WEBSITE", "SOURCEDATE": "Wed, 15 Jul 2020 00:00:00 GMT", "VAL_METHOD": "IMAGERY/OTHER", "VAL_DATE": "Mon, 20 Jun 2022 00:00:00 GMT", "WEBSITE": "http://www.1line.williams.com/", "PIPECO": "TRANSCONTINENTAL GAS PIPE LINE COMPANY L.L.C.", "COMPID": "29", "OPERATOR": "TRANSCONTINENTAL GAS PIPE LINE COMPANY L.L.C.", "POSREL": "WITHIN 40 FEET", "NUM_UNITS": 8, "CERT_HP": 16000, "PLANT_COST": 53902905, "EXP_FUEL": 7136, "EXP_OTHER": 1026074, "GAS_COMPRE": 1676, "OP_COMP_HR": 98, "OP_NUM_COM": 8, "OP_DATE_PE": "Wed, 16 Dec 2020 00:00:00 GMT", "EXP_POWER": 3594, "ELEC_COMPR": 0 }, "geometry": { "type": "Point", "coordinates": [ -8318917.903444809839129, 4943633.726103070192039 ] } },
{ "type": "Feature", "properties": { "OBJECTID": 1106, "GCOMPID": "GCOMP766", "NAME": "NO. 100 BILLINGSLEY", "ADDRESS": "642 COUNTY ROAD 62; 4521 CHILTON ROAD", "CITY": "BILLINGSLEY", "STATE": "AL", "ZIP": "36006", "ZIP4": "NOT AVAILABLE", "TYPE": "NATURAL GAS COMPRESSOR STATION", "STATUS": "IN SERVICE", "COUNTY": "AUTAUGA", "COUNTYFIPS": "01001", "COUNTRY": "USA", "LATITUDE": 32.670019, "LONGITUDE": -86.720295, "NAICS_CODE": "486210", "NAICS_DESC": "BOOSTER PUMPING STATION, NATURAL GAS TRANSPORTATION", "SOURCE": "EPA ENVIROFACTS, FERC FORM 2, CORPORATE WEBSITE", "SOURCEDATE": "Wed, 15 Jul 2020 00:00:00 GMT", "VAL_METHOD": "IMAGERY/OTHER", "VAL_DATE": "Wed, 22 Jun 2022 00:00:00 GMT", "WEBSITE": "http://www.1line.williams.com/", "PIPECO": "TRANSCONTINENTAL GAS PIPE LINE COMPANY L.L.C.", "COMPID": "29", "OPERATOR": "TRANSCONTINENTAL GAS PIPE LINE COMPANY L.L.C.", "POSREL": "WITHIN 40 FEET", "NUM_UNITS": 6, "CERT_HP": 97880, "PLANT_COST": 112871818, "EXP_FUEL": 545390, "EXP_OTHER": 1605622, "GAS_COMPRE": 205562, "OP_COMP_HR": 4575, "OP_NUM_COM": 4, "OP_DATE_PE": "Tue, 02 Feb 2021 00:00:00 GMT", "EXP_POWER": 4213668, "ELEC_COMPR": 72994212 }, "geometry": { "type": "Point", "coordinates": [ -9653659.080842470750213, 3851585.967308830004185 ] } },
{ "type": "Feature", "properties": { "OBJECTID": 1109, "GCOMPID": "GCOMP769", "NAME": "NO. 155 LEXINGTON", "ADDRESS": "650 BECKY HILL ROAD", "CITY": "LEXINGTON", "STATE": "NC", "ZIP": "27295", "ZIP4": "NOT AVAILABLE", "TYPE": "NATURAL GAS COMPRESSOR STATION", "STATUS": "IN SERVICE", "COUNTY": "DAVIDSON", "COUNTYFIPS": "37057", "COUNTRY": "USA", "LATITUDE": 35.879781, "LONGITUDE": -80.329941, "NAICS_CODE": "486210", "NAICS_DESC": "BOOSTER PUMPING STATION, NATURAL GAS TRANSPORTATION", "SOURCE": "EPA ENVIROFACTS, FERC FORM 2, CORPORATE WEBSITE", "SOURCEDATE": "Fri, 27 May 2022 00:00:00 GMT", "VAL_METHOD": "IMAGERY/OTHER", "VAL_DATE": "Mon, 20 Jun 2022 00:00:00 GMT", "WEBSITE": "http://www.1line.williams.com/", "PIPECO": "TRANSCONTINENTAL GAS PIPE LINE COMPANY L.L.C.", "COMPID": "29", "OPERATOR": "TRANSCONTINENTAL GAS PIPE LINE COMPANY L.L.C.", "POSREL": "WITHIN 40 FEET", "NUM_UNITS": 6, "CERT_HP": 22300, "PLANT_COST": 33641684, "EXP_FUEL": 0, "EXP_OTHER": 420609, "GAS_COMPRE": 0, "OP_COMP_HR": 0, "OP_NUM_COM": 0, "OP_DATE_PE": "Mon, 01 Jan 2001 00:00:00 GMT", "EXP_POWER": 0, "ELEC_COMPR": 0 }, "geometry": { "type": "Point", "coordinates": [ -8942288.127573700621724, 4284092.00676569994539 ] } },
{ "type": "Feature", "properties": { "OBJECTID": 1110, "GCOMPID": "GCOMP77", "NAME": "NO. 145 GROVER", "ADDRESS": "111 TRANSCO ROAD", "CITY": "GROVER", "STATE": "NC", "ZIP": "28073", "ZIP4": "NOT AVAILABLE", "TYPE": "NATURAL GAS COMPRESSOR STATION", "STATUS": "IN SERVICE", "COUNTY": "CLEVELAND", "COUNTYFIPS": "37045", "COUNTRY": "USA", "LATITUDE": 35.170877, "LONGITUDE": -81.410907, "NAICS_CODE": "486210", "NAICS_DESC": "BOOSTER PUMPING STATION, NATURAL GAS TRANSPORTATION", "SOURCE": "EPA ENVIROFACTS, FERC FORM 2, CORPORATE WEBSITE", "SOURCEDATE": "Wed, 15 Jul 2020 00:00:00 GMT", "VAL_METHOD": "IMAGERY/OTHER", "VAL_DATE": "Mon, 20 Jun 2022 00:00:00 GMT", "WEBSITE": "http://www.1line.williams.com/", "PIPECO": "TRANSCONTINENTAL GAS PIPE LINE COMPANY L.L.C.", "COMPID": "29", "OPERATOR": "TRANSCONTINENTAL GAS PIPE LINE COMPANY L.L.C.", "POSREL": "WITHIN 40 FEET", "NUM_UNITS": 3, "CERT_HP": 37500, "PLANT_COST": 40241267, "EXP_FUEL": 1614, "EXP_OTHER": 427925, "GAS_COMPRE": 746, "OP_COMP_HR": 6924, "OP_NUM_COM": 2, "OP_DATE_PE": "Fri, 12 Feb 2021 00:00:00 GMT", "EXP_POWER": 4517707, "ELEC_COMPR": 64142865 }, "geometry": { "type": "Point", "coordinates": [ -9062620.712258549407125, 4187126.960579560138285 ] } },
{ "type": "Feature", "properties": { "OBJECTID": 1146, "GCOMPID": "GCOMP801", "NAME": "NO. 120 STOCKBRIDGE", "ADDRESS": "683 VALLEY HILL ROAD", "CITY": "STOCKBRIDGE", "STATE": "GA", "ZIP": "30281", "ZIP4": "NOT AVAILABLE", "TYPE": "NATURAL GAS COMPRESSOR STATION", "STATUS": "IN SERVICE", "COUNTY": "HENRY", "COUNTYFIPS": "13151", "COUNTRY": "USA", "LATITUDE": 33.571159, "LONGITUDE": -84.253475, "NAICS_CODE": "486210", "NAICS_DESC": "BOOSTER PUMPING STATION, NATURAL GAS TRANSPORTATION", "SOURCE": "EPA ENVIROFACTS, FERC FORM 2, CORPORATE WEBSITE", "SOURCEDATE": "Wed, 15 Jul 2020 00:00:00 GMT", "VAL_METHOD": "IMAGERY/OTHER", "VAL_DATE": "Mon, 20 Jun 2022 00:00:00 GMT", "WEBSITE": "http://www.1line.williams.com/", "PIPECO": "TRANSCONTINENTAL GAS PIPE LINE COMPANY L.L.C.", "COMPID": "29", "OPERATOR": "TRANSCONTINENTAL GAS PIPE LINE COMPANY L.L.C.", "POSREL": "WITHIN 40 FEET", "NUM_UNITS": 18, "CERT_HP": 71530, "PLANT_COST": 96307139, "EXP_FUEL": 2263129, "EXP_OTHER": 1825356, "GAS_COMPRE": 999419, "OP_COMP_HR": 44679, "OP_NUM_COM": 17, "OP_DATE_PE": "Wed, 03 Feb 2021 00:00:00 GMT", "EXP_POWER": 1680593, "ELEC_COMPR": 19653691 }, "geometry": { "type": "Point", "coordinates": [ -9379053.934563800692558, 3971363.488859340082854 ] } },
{ "type": "Feature", "properties": { "OBJECTID": 1173, "GCOMPID": "GCOMP826", "NAME": "OTHER: NO. 240 HACKENSACK MEADOWS", "ADDRESS": "718 PATERSON PLANK ROAD", "CITY": "CARLSTADT", "STATE": "NJ", "ZIP": "07072", "ZIP4": "NOT AVAILABLE", "TYPE": "NATURAL GAS COMPRESSOR STATION", "STATUS": "IN SERVICE", "COUNTY": "BERGEN", "COUNTYFIPS": "34003", "COUNTRY": "USA", "LATITUDE": 40.808564, "LONGITUDE": -74.062388, "NAICS_CODE": "486210", "NAICS_DESC": "BOOSTER PUMPING STATION, NATURAL GAS TRANSPORTATION", "SOURCE": "EPA ENVIROFACTS, FERC FORM 2, CORPORATE WEBSITE", "SOURCEDATE": "Wed, 15 Jul 2020 00:00:00 GMT", "VAL_METHOD": "IMAGERY/OTHER", "VAL_DATE": "Mon, 20 Jun 2022 00:00:00 GMT", "WEBSITE": "http://www.1line.williams.com/", "PIPECO": "TRANSCONTINENTAL GAS PIPE LINE COMPANY L.L.C.", "COMPID": "29", "OPERATOR": "TRANSCONTINENTAL GAS PIPE LINE COMPANY L.L.C.", "POSREL": "WITHIN 40 FEET", "NUM_UNITS": 5, "CERT_HP": 4320, "PLANT_COST": 63943522, "EXP_FUEL": 329939, "EXP_OTHER": 4433584, "GAS_COMPRE": 116777, "OP_COMP_HR": 11508, "OP_NUM_COM": 0, "OP_DATE_PE": "Fri, 27 May 2022 00:00:00 GMT", "EXP_POWER": 0, "ELEC_COMPR": 0 }, "geometry": { "type": "Point", "coordinates": [ -8244587.319093850441277, 4984145.772124970331788 ] } },
{ "type": "Feature", "properties": { "OBJECTID": 1183, "GCOMPID": "GCOMP835", "NAME": "NO. 180 ORANGE", "ADDRESS": "7444 EVERONIA ROAD", "CITY": "UNIONVILLE", "STATE": "VA", "ZIP": "22567", "ZIP4": "NOT AVAILABLE", "TYPE": "NATURAL GAS COMPRESSOR STATION", "STATUS": "IN SERVICE", "COUNTY": "ORANGE", "COUNTYFIPS": "51137", "COUNTRY": "USA", "LATITUDE": 38.301532926, "LONGITUDE": -77.964429752000001, "NAICS_CODE": "486210", "NAICS_DESC": "BOOSTER PUMPING STATION, NATURAL GAS TRANSPORTATION", "SOURCE": "EPA ENVIROFACTS, FERC FORM 2, CORPORATE WEBSITE", "SOURCEDATE": "Wed, 15 Jul 2020 00:00:00 GMT", "VAL_METHOD": "IMAGERY/OTHER", "VAL_DATE": "Mon, 20 Jun 2022 00:00:00 GMT", "WEBSITE": "http://www.1line.williams.com/", "PIPECO": "TRANSCONTINENTAL GAS PIPE LINE COMPANY L.L.C.", "COMPID": "29", "OPERATOR": "TRANSCONTINENTAL GAS PIPE LINE COMPANY L.L.C.", "POSREL": "WITHIN 40 FEET", "NUM_UNITS": 14, "CERT_HP": 34020, "PLANT_COST": 56781433, "EXP_FUEL": 3155438, "EXP_OTHER": 3234180, "GAS_COMPRE": 1436232, "OP_COMP_HR": 77898, "OP_NUM_COM": 12, "OP_DATE_PE": "Sun, 28 Jun 2020 00:00:00 GMT", "EXP_POWER": 0, "ELEC_COMPR": 0 }, "geometry": { "type": "Point", "coordinates": [ -8678960.61998057924211, 4622110.312888350337744 ] } },
{ "type": "Feature", "properties": { "OBJECTID": 1249, "GCOMPID": "GCOMP895", "NAME": "NO. 63 CONVENT", "ADDRESS": "8797 HELVETIA STREET", "CITY": "CONVENT", "STATE": "LA", "ZIP": "70723", "ZIP4": "NOT AVAILABLE", "TYPE": "NATURAL GAS COMPRESSOR STATION", "STATUS": "IN SERVICE", "COUNTY": "SAINT JAMES PARISH", "COUNTYFIPS": "22093", "COUNTRY": "USA", "LATITUDE": 30.087817, "LONGITUDE": -90.867359, "NAICS_CODE": "486210", "NAICS_DESC": "BOOSTER PUMPING STATION, NATURAL GAS TRANSPORTATION", "SOURCE": "EPA ENVIROFACTS, FERC FORM 2, CORPORATE WEBSITE", "SOURCEDATE": "Wed, 15 Jul 2020 00:00:00 GMT", "VAL_METHOD": "IMAGERY/OTHER", "VAL_DATE": "Mon, 20 Jun 2022 00:00:00 GMT", "WEBSITE": "http://www.1line.williams.com/", "PIPECO": "TRANSCONTINENTAL GAS PIPE LINE COMPANY L.L.C.", "COMPID": "29", "OPERATOR": "TRANSCONTINENTAL GAS PIPE LINE COMPANY L.L.C.", "POSREL": "WITHIN 40 FEET", "NUM_UNITS": 8, "CERT_HP": 17960, "PLANT_COST": 15138747, "EXP_FUEL": 27934, "EXP_OTHER": 417944, "GAS_COMPRE": 14169, "OP_COMP_HR": 2587, "OP_NUM_COM": 3, "OP_DATE_PE": "Wed, 03 Mar 2021 00:00:00 GMT", "EXP_POWER": 0, "ELEC_COMPR": 0 }, "geometry": { "type": "Point", "coordinates": [ -10115308.133609600365162, 3514842.901830920018256 ] } },
{ "type": "Feature", "properties": { "OBJECTID": 1266, "GCOMPID": "GCOMP91", "NAME": "NO. 83 CITRONELLE", "ADDRESS": "11500 BEVERLY JEFFRIES HIGHWAY", "CITY": "CITRONELLE", "STATE": "AL", "ZIP": "36522", "ZIP4": "NOT AVAILABLE", "TYPE": "NATURAL GAS COMPRESSOR STATION", "STATUS": "IN SERVICE", "COUNTY": "MOBILE", "COUNTYFIPS": "01097", "COUNTRY": "USA", "LATITUDE": 31.084024, "LONGITUDE": -88.319371, "NAICS_CODE": "486210", "NAICS_DESC": "BOOSTER PUMPING STATION, NATURAL GAS TRANSPORTATION", "SOURCE": "EPA ENVIROFACTS, FERC FORM 2, CORPORATE WEBSITE", "SOURCEDATE": "Wed, 15 Jul 2020 00:00:00 GMT", "VAL_METHOD": "IMAGERY/OTHER", "VAL_DATE": "Mon, 20 Jun 2022 00:00:00 GMT", "WEBSITE": "http://www.1line.williams.com/", "PIPECO": "TRANSCONTINENTAL GAS PIPE LINE COMPANY L.L.C.", "COMPID": "29", "OPERATOR": "TRANSCONTINENTAL GAS PIPE LINE COMPANY L.L.C.", "POSREL": "WITHIN 40 FEET", "NUM_UNITS": 1, "CERT_HP": 16000, "PLANT_COST": 30601148, "EXP_FUEL": 1563217, "EXP_OTHER": 103349, "GAS_COMPRE": 664943, "OP_COMP_HR": 5891, "OP_NUM_COM": 1, "OP_DATE_PE": "Fri, 13 Nov 2020 00:00:00 GMT", "EXP_POWER": 0, "ELEC_COMPR": 0 }, "geometry": { "type": "Point", "coordinates": [ -9831667.406902210786939, 3643666.073640020098537 ] } },
{ "type": "Feature", "properties": { "OBJECTID": 1270, "GCOMPID": "GCOMP913", "NAME": "NO. 165 CHATHAM", "ADDRESS": "945 TRANSCO ROAD", "CITY": "CHATHAM", "STATE": "VA", "ZIP": "24531", "ZIP4": "NOT AVAILABLE", "TYPE": "NATURAL GAS COMPRESSOR STATION", "STATUS": "IN SERVICE", "COUNTY": "PITTSYLVANIA", "COUNTYFIPS": "51143", "COUNTRY": "USA", "LATITUDE": 36.832032, "LONGITUDE": -79.337094, "NAICS_CODE": "486210", "NAICS_DESC": "BOOSTER PUMPING STATION, NATURAL GAS TRANSPORTATION", "SOURCE": "EPA ENVIROFACTS, FERC FORM 2, CORPORATE WEBSITE", "SOURCEDATE": "Wed, 15 Jul 2020 00:00:00 GMT", "VAL_METHOD": "IMAGERY/OTHER", "VAL_DATE": "Mon, 20 Jun 2022 00:00:00 GMT", "WEBSITE": "http://www.1line.williams.com/", "PIPECO": "TRANSCONTINENTAL GAS PIPE LINE COMPANY L.L.C.", "COMPID": "29", "OPERATOR": "TRANSCONTINENTAL GAS PIPE LINE COMPANY L.L.C.", "POSREL": "WITHIN 40 FEET", "NUM_UNITS": 12, "CERT_HP": 26950, "PLANT_COST": 71617498, "EXP_FUEL": 4406832, "EXP_OTHER": 1966519, "GAS_COMPRE": 1956807, "OP_COMP_HR": 19349, "OP_NUM_COM": 9, "OP_DATE_PE": "Wed, 19 Aug 2020 00:00:00 GMT", "EXP_POWER": 0, "ELEC_COMPR": 0 }, "geometry": { "type": "Point", "coordinates": [ -8831764.905098080635071, 4415720.00325485970825 ] } },
{ "type": "Feature", "properties": { "OBJECTID": 1275, "GCOMPID": "GCOMP918", "NAME": "NO. 70 TYLERTOWN", "ADDRESS": "967 HIGHWAY 583 N", "CITY": "TYLERTOWN", "STATE": "MS", "ZIP": "39667", "ZIP4": "NOT AVAILABLE", "TYPE": "NATURAL GAS COMPRESSOR STATION", "STATUS": "IN SERVICE", "COUNTY": "WALTHALL", "COUNTYFIPS": "28147", "COUNTRY": "USA", "LATITUDE": 31.246931, "LONGITUDE": -90.199188, "NAICS_CODE": "486210", "NAICS_DESC": "BOOSTER PUMPING STATION, NATURAL GAS TRANSPORTATION", "SOURCE": "EPA ENVIROFACTS, FERC FORM 2, CORPORATE WEBSITE", "SOURCEDATE": "Wed, 15 Jul 2020 00:00:00 GMT", "VAL_METHOD": "IMAGERY/OTHER", "VAL_DATE": "Mon, 20 Jun 2022 00:00:00 GMT", "WEBSITE": "http://www.1line.williams.com/", "PIPECO": "TRANSCONTINENTAL GAS PIPE LINE COMPANY L.L.C.", "COMPID": "29", "OPERATOR": "TRANSCONTINENTAL GAS PIPE LINE COMPANY L.L.C.", "POSREL": "WITHIN 40 FEET", "NUM_UNITS": 6, "CERT_HP": 47390, "PLANT_COST": 44607301, "EXP_FUEL": 983164, "EXP_OTHER": 1353299, "GAS_COMPRE": 306483, "OP_COMP_HR": 2944, "OP_NUM_COM": 3, "OP_DATE_PE": "Tue, 09 Feb 2021 00:00:00 GMT", "EXP_POWER": 0, "ELEC_COMPR": 0 }, "geometry": { "type": "Point", "coordinates": [ -10040927.678126700222492, 3664859.527633650228381 ] } }
]
}
