{
"type": "FeatureCollection",
"name": "P0274-compressor-stations",
"crs": { "type": "name", "properties": { "name": "urn:ogc:def:crs:OGC:1.3:CRS84" } },
"features": [
{ "type": "Feature", "properties": { "OBJECTID": 98, "GCOMPID": "GCOMP1086", "NAME": "TEXAS - KOUNTZE - HARDIN COUNTY", "ADDRESS": "HIGHWAY 770 AND HIGHWAY 1003", "CITY": "KOUNTZE", "STATE": "TX", "ZIP": "77625", "ZIP4": "NOT AVAILABLE", "TYPE": "NATURAL GAS COMPRESSOR STATION", "STATUS": "IN SERVICE", "COUNTY": "HARDIN", "COUNTYFIPS": "48199", "COUNTRY": "USA", "LATITUDE": 30.333355668, "LONGITUDE": -94.410057861, "NAICS_CODE": 486210, "NAICS_DESC": "BOOSTER PUMPING STATION, NATURAL GAS TRANSPORTATION", "SOURCE": "EPA ENVIROFACTS, FERC FORM 2, CORPORATE WEBSITE", "SOURCEDATE": "7/15/2020 12:00:00 AM", "VAL_METHOD": "IMAGERY/OTHER", "VAL_DATE": "6/20/2022 12:00:00 AM", "WEBSITE": "http://feptransfer.energytransfer.com/", "PIPECO": "TRUNKLINE GAS COMPANY L.L.C.", "COMPID": 30, "OPERATOR": "TRUNKLINE GAS COMPANY L.L.C.", "POSREL": "WITHIN 40 FEET", "NUM_UNITS": 1, "CERT_HP": 10350, "PLANT_COST": 22968080, "EXP_FUEL": 127, "EXP_OTHER": 196498, "GAS_COMPRE": 70, "OP_COMP_HR": 687, "OP_NUM_COM": 1, "OP_DATE_PE": "1/18/2020 12:00:00 AM", "EXP_POWER": 659996, "ELEC_COMPR": 273600, "x": -10509679.567, "y": 3546471.9792999998 }, "geometry": { "type": "Point", "coordinates": [ -94.410057860241707, 30.333355668170814 ] } },
{ "type": "Feature", "properties": { "OBJECTID": 157, "GCOMPID": "GCOMP114", "NAME": "TENNESSEE - DYERSBERG - DYER COUNTY", "ADDRESS": "1224 BONICORD ROAD", "CITY": "DYERSBURG", "STATE": "TN", "ZIP": "38024", "ZIP4": "NOT AVAILABLE", "TYPE": "NATURAL GAS COMPRESSOR STATION", "STATUS": "IN SERVICE", "COUNTY": "DYER", "COUNTYFIPS": "47045", "COUNTRY": "USA", "LATITUDE": 35.939827412, "LONGITUDE": -89.308105114, "NAICS_CODE": 486210, "NAICS_DESC": "BOOSTER PUMPING STATION, NATURAL GAS TRANSPORTATION", "SOURCE": "EPA ENVIROFACTS, FERC FORM 2, CORPORATE WEBSITE", "SOURCEDATE": "7/15/2020 12:00:00 AM", "VAL_METHOD": "IMAGERY/OTHER", "VAL_DATE": "6/20/2022 12:00:00 AM", "WEBSITE": "http://feptransfer.energytransfer.com/", "PIPECO": "TRUNKLINE GAS COMPANY L.L.C.", "COMPID": 30, "OPERATOR": "TRUNKLINE GAS COMPANY L.L.C.", "POSREL": "WITHIN 40 FEET", "NUM_UNITS": 8, "CERT_HP": 30001, "PLANT_COST": 33022447, "EXP_FUEL": 190995, "EXP_OTHER": 818738, "GAS_COMPRE": 102214, "OP_COMP_HR": 265, "OP_NUM_COM": 3, "OP_DATE_PE": "6/10/2020 12:00:00 AM", "EXP_POWER": 0, "ELEC_COMPR": 0, "x": -9941732.785, "y": 4292344.8723999998 }, "geometry": { "type": "Point", "coordinates": [ -89.308105113560273, 35.9398274112922 ] } },
{ "type": "Feature", "properties": { "OBJECTID": 158, "GCOMPID": "GCOMP1140", "NAME": "LOUISIANA - EPPS - WEST CARROL PARISH", "ADDRESS": "LA-134/WEST OF GWIN ROAD", "CITY": "EPPS", "STATE": "LA", "ZIP": "71237", "ZIP4": "NOT AVAILABLE", "TYPE": "NATURAL GAS COMPRESSOR STATION", "STATUS": "IN SERVICE", "COUNTY": "WEST CARROLL PARISH", "COUNTYFIPS": "22123", "COUNTRY": "USA", "LATITUDE": 32.620129789000003, "LONGITUDE": -91.575730062000005, "NAICS_CODE": 486210, "NAICS_DESC": "BOOSTER PUMPING STATION, NATURAL GAS TRANSPORTATION", "SOURCE": "EPA ENVIROFACTS, FERC FORM 2, CORPORATE WEBSITE", "SOURCEDATE": "7/15/2020 12:00:00 AM", "VAL_METHOD": "IMAGERY/OTHER", "VAL_DATE": "6/20/2022 12:00:00 AM", "WEBSITE": "http://feptransfer.energytransfer.com/", "PIPECO": "TRUNKLINE GAS COMPANY L.L.C.", "COMPID": 30, "OPERATOR": "TRUNKLINE GAS COMPANY L.L.C.", "POSREL": "WITHIN 40 FEET", "NUM_UNITS": 8, "CERT_HP": 33100, "PLANT_COST": 26980060, "EXP_FUEL": 97486, "EXP_OTHER": 1127348, "GAS_COMPRE": 51360, "OP_COMP_HR": 2628, "OP_NUM_COM": 2, "OP_DATE_PE": "9/1/2020 12:00:00 AM", "EXP_POWER": 0, "ELEC_COMPR": 0, "x": -10194163.64, "y": 3844990.4147000001 }, "geometry": { "type": "Point", "coordinates": [ -91.575730062040535, 32.620129789047319 ] } },
{ "type": "Feature", "properties": { "OBJECTID": 179, "GCOMPID": "GCOMP116", "NAME": "LOUISIANA - CENTERVILLE - ST. MARY PARISH", "ADDRESS": "1230 TRUNKLINE LANE", "CITY": "CENTERVILLE", "STATE": "LA", "ZIP": "70522", "ZIP4": "NOT AVAILABLE", "TYPE": "NATURAL GAS COMPRESSOR STATION", "STATUS": "IN SERVICE", "COUNTY": "SAINT MARY PARISH", "COUNTYFIPS": "22101", "COUNTRY": "USA", "LATITUDE": 29.733948, "LONGITUDE": -91.453978, "NAICS_CODE": 486210, "NAICS_DESC": "BOOSTER PUMPING STATION, NATURAL GAS TRANSPORTATION", "SOURCE": "EPA ENVIROFACTS, FERC FORM 2, CORPORATE WEBSITE", "SOURCEDATE": "7/15/2020 12:00:00 AM", "VAL_METHOD": "IMAGERY/OTHER", "VAL_DATE": "6/20/2022 12:00:00 AM", "WEBSITE": "http://feptransfer.energytransfer.com/", "PIPECO": "TRUNKLINE GAS COMPANY L.L.C.", "COMPID": 30, "OPERATOR": "TRUNKLINE GAS COMPANY L.L.C.", "POSREL": "WITHIN 40 FEET", "NUM_UNITS": 7, "CERT_HP": 11250, "PLANT_COST": 14941394, "EXP_FUEL": 1030989, "EXP_OTHER": 524360, "GAS_COMPRE": 387779, "OP_COMP_HR": 17774, "OP_NUM_COM": 4, "OP_DATE_PE": "9/4/2020 12:00:00 AM", "EXP_POWER": 0, "ELEC_COMPR": 0, "x": -10180610.262, "y": 3469396.977 }, "geometry": { "type": "Point", "coordinates": [ -91.454701426789711, 29.732845190634993 ] } },
{ "type": "Feature", "properties": { "OBJECTID": 253, "GCOMPID": "GCOMP1226", "NAME": "OFFSHORE - T-25 SHIP SHOAL BLK 139", "ADDRESS": "OFFSHORE GULF OF MEXICO", "CITY": "NOT APPLICABLE", "STATE": "NOT APPLICABLE", "ZIP": "NOT APPLICABLE", "ZIP4": "NOT APPLICABLE", "TYPE": "NATURAL GAS COMPRESSOR STATION", "STATUS": "IN SERVICE", "COUNTY": "NOT APPLICABLE", "COUNTYFIPS": "NOT APPLICABLE", "COUNTRY": "USA", "LATITUDE": 28.788827, "LONGITUDE": -90.950226, "NAICS_CODE": 486210, "NAICS_DESC": "BOOSTER PUMPING STATION, NATURAL GAS TRANSPORTATION", "SOURCE": "FERC FORM 2", "SOURCEDATE": "7/15/2020 12:00:00 AM", "VAL_METHOD": "UNVERIFIED", "VAL_DATE": "6/20/2022 12:00:00 AM", "WEBSITE": "http://feptransfer.energytransfer.com/", "PIPECO": "TRUNKLINE GAS COMPANY L.L.C.", "COMPID": 30, "OPERATOR": "TRUNKLINE GAS COMPANY L.L.C.", "POSREL": "THIRD PARTY", "NUM_UNITS": 3, "CERT_HP": 28950, "PLANT_COST": -999, "EXP_FUEL": 76865, "EXP_OTHER": 512011, "GAS_COMPRE": 30540, "OP_COMP_HR": 0, "OP_NUM_COM": 0, "OP_DATE_PE": "7/15/2020 12:00:00 AM", "EXP_POWER": 0, "ELEC_COMPR": 0, "x": -10124532.846000001, "y": 3348795.8012000001 }, "geometry": { "type": "Point", "coordinates": [ -90.950225999550455, 28.788826999865407 ] } },
{ "type": "Feature", "properties": { "OBJECTID": 484, "GCOMPID": "GCOMP203", "NAME": "TEXAS - CYPRESS - HARRIS COUNTY", "ADDRESS": "15528 HUFFMEISTER ROAD", "CITY": "CYPRESS", "STATE": "TX", "ZIP": "77429", "ZIP4": "NOT AVAILABLE", "TYPE": "NATURAL GAS COMPRESSOR STATION", "STATUS": "IN SERVICE", "COUNTY": "HARRIS", "COUNTYFIPS": "48201", "COUNTRY": "USA", "LATITUDE": 29.989141, "LONGITUDE": -95.658363, "NAICS_CODE": 486210, "NAICS_DESC": "BOOSTER PUMPING STATION, NATURAL GAS TRANSPORTATION", "SOURCE": "EPA ENVIROFACTS, FERC FORM 2, CORPORATE WEBSITE", "SOURCEDATE": "7/15/2020 12:00:00 AM", "VAL_METHOD": "IMAGERY/OTHER", "VAL_DATE": "6/20/2022 12:00:00 AM", "WEBSITE": "http://feptransfer.energytransfer.com/", "PIPECO": "TRUNKLINE GAS COMPANY L.L.C.", "COMPID": 30, "OPERATOR": "TRUNKLINE GAS COMPANY L.L.C.", "POSREL": "WITHIN 40 FEET", "NUM_UNITS": 4, "CERT_HP": 7000, "PLANT_COST": 25553618, "EXP_FUEL": 830, "EXP_OTHER": 488775, "GAS_COMPRE": 437, "OP_COMP_HR": 1569, "OP_NUM_COM": 0, "OP_DATE_PE": "1/18/2020 12:00:00 AM", "EXP_POWER": 319813, "ELEC_COMPR": 5264553, "x": -10648640.259, "y": 3502154.0967000001 }, "geometry": { "type": "Point", "coordinates": [ -95.658362999010862, 29.98914100073582 ] } },
{ "type": "Feature", "properties": { "OBJECTID": 548, "GCOMPID": "GCOMP261", "NAME": "LOUISIANA - KAPLAN - VERMILION PARISH", "ADDRESS": "18019 HIGHWAY 35", "CITY": "KAPLAN", "STATE": "LA", "ZIP": "70510", "ZIP4": "NOT AVAILABLE", "TYPE": "NATURAL GAS COMPRESSOR STATION", "STATUS": "IN SERVICE", "COUNTY": "VERMILION PARISH", "COUNTYFIPS": "22113", "COUNTRY": "USA", "LATITUDE": 29.886870926, "LONGITUDE": -92.27717059, "NAICS_CODE": 486210, "NAICS_DESC": "BOOSTER PUMPING STATION, NATURAL GAS TRANSPORTATION", "SOURCE": "EPA ENVIROFACTS, FERC FORM 2, CORPORATE WEBSITE", "SOURCEDATE": "7/15/2020 12:00:00 AM", "VAL_METHOD": "IMAGERY/OTHER", "VAL_DATE": "6/20/2022 12:00:00 AM", "WEBSITE": "http://feptransfer.energytransfer.com/", "PIPECO": "TRUNKLINE GAS COMPANY L.L.C.", "COMPID": 30, "OPERATOR": "TRUNKLINE GAS COMPANY L.L.C.", "POSREL": "WITHIN 40 FEET", "NUM_UNITS": 3, "CERT_HP": 16100, "PLANT_COST": 18585913, "EXP_FUEL": 7, "EXP_OTHER": 215293, "GAS_COMPRE": 3, "OP_COMP_HR": 0, "OP_NUM_COM": 0, "OP_DATE_PE": "6/14/2020 12:00:00 AM", "EXP_POWER": 0, "ELEC_COMPR": 0, "x": -10272247.642000001, "y": 3489016.4286000002 }, "geometry": { "type": "Point", "coordinates": [ -92.277170589751051, 29.886870926580741 ] } },
{ "type": "Feature", "properties": { "OBJECTID": 633, "GCOMPID": "GCOMP338", "NAME": "ILLINOIS - JOPPA - MASSAC COUNTY", "ADDRESS": "2101 PORTLAND ROAD", "CITY": "JOPPA", "STATE": "IL", "ZIP": "62953", "ZIP4": "NOT AVAILABLE", "TYPE": "NATURAL GAS COMPRESSOR STATION", "STATUS": "IN SERVICE", "COUNTY": "MASSAC", "COUNTYFIPS": "17127", "COUNTRY": "USA", "LATITUDE": 37.223581, "LONGITUDE": -88.864824, "NAICS_CODE": 486210, "NAICS_DESC": "BOOSTER PUMPING STATION, NATURAL GAS TRANSPORTATION", "SOURCE": "EPA ENVIROFACTS, FERC FORM 2, CORPORATE WEBSITE", "SOURCEDATE": "7/15/2020 12:00:00 AM", "VAL_METHOD": "IMAGERY/OTHER", "VAL_DATE": "6/20/2022 12:00:00 AM", "WEBSITE": "http://feptransfer.energytransfer.com/", "PIPECO": "TRUNKLINE GAS COMPANY L.L.C.", "COMPID": 30, "OPERATOR": "TRUNKLINE GAS COMPANY L.L.C.", "POSREL": "WITHIN 40 FEET", "NUM_UNITS": 7, "CERT_HP": 25450, "PLANT_COST": 36598228, "EXP_FUEL": 393613, "EXP_OTHER": 1336129, "GAS_COMPRE": 208559, "OP_COMP_HR": 5397, "OP_NUM_COM": 6, "OP_DATE_PE": "8/30/2020 12:00:00 AM", "EXP_POWER": 0, "ELEC_COMPR": 0, "x": -9892386.9571000002, "y": 4470317.0845999997 }, "geometry": { "type": "Point", "coordinates": [ -88.864823999260395, 37.223580999026233 ] } },
{ "type": "Feature", "properties": { "OBJECTID": 826, "GCOMPID": "GCOMP511", "NAME": "LOUISIANA - POLLOCK - GRANT PARISH", "ADDRESS": "328 FORESTRY ROAD 120", "CITY": "POLLOCK", "STATE": "LA", "ZIP": "71467", "ZIP4": "NOT AVAILABLE", "TYPE": "NATURAL GAS COMPRESSOR STATION", "STATUS": "IN SERVICE", "COUNTY": "GRANT PARISH", "COUNTYFIPS": "22043", "COUNTRY": "USA", "LATITUDE": 31.600878, "LONGITUDE": -92.430862, "NAICS_CODE": 486210, "NAICS_DESC": "BOOSTER PUMPING STATION, NATURAL GAS TRANSPORTATION", "SOURCE": "EPA ENVIROFACTS, FERC FORM 2, CORPORATE WEBSITE", "SOURCEDATE": "7/15/2020 12:00:00 AM", "VAL_METHOD": "IMAGERY/OTHER", "VAL_DATE": "6/20/2022 12:00:00 AM", "WEBSITE": "http://feptransfer.energytransfer.com/", "PIPECO": "TRUNKLINE GAS COMPANY L.L.C.", "COMPID": 30, "OPERATOR": "TRUNKLINE GAS COMPANY L.L.C.", "POSREL": "WITHIN 40 FEET", "NUM_UNITS": 7, "CERT_HP": 28101, "PLANT_COST": 20460292, "EXP_FUEL": 10124, "EXP_OTHER": 968013, "GAS_COMPRE": 4870, "OP_COMP_HR": 0, "OP_NUM_COM": 0, "OP_DATE_PE": "9/1/2020 12:00:00 AM", "EXP_POWER": 0, "ELEC_COMPR": 0, "x": -10289356.491, "y": 3711032.9359 }, "geometry": { "type": "Point", "coordinates": [ -92.430862000232651, 31.600877999870658 ] } },
{ "type": "Feature", "properties": { "OBJECTID": 862, "GCOMPID": "GCOMP544", "NAME": "LOUISIANA - PATTERSON - ST. MARY PARISH", "ADDRESS": "3635 HIGHWAY 90", "CITY": "PATTERSON", "STATE": "LA", "ZIP": "70392", "ZIP4": "NOT AVAILABLE", "TYPE": "NATURAL GAS COMPRESSOR STATION", "STATUS": "IN SERVICE", "COUNTY": "SAINT MARY PARISH", "COUNTYFIPS": "22101", "COUNTRY": "USA", "LATITUDE": 29.692903, "LONGITUDE": -91.346174, "NAICS_CODE": 486210, "NAICS_DESC": "BOOSTER PUMPING STATION, NATURAL GAS TRANSPORTATION", "SOURCE": "EPA ENVIROFACTS, FERC FORM 2, CORPORATE WEBSITE", "SOURCEDATE": "7/15/2020 12:00:00 AM", "VAL_METHOD": "IMAGERY/OTHER", "VAL_DATE": "6/20/2022 12:00:00 AM", "WEBSITE": "http://feptransfer.energytransfer.com/", "PIPECO": "TRUNKLINE GAS COMPANY L.L.C.", "COMPID": 30, "OPERATOR": "TRUNKLINE GAS COMPANY L.L.C.", "POSREL": "WITHIN 40 FEET", "NUM_UNITS": 3, "CERT_HP": 10650, "PLANT_COST": 18091062, "EXP_FUEL": 23378, "EXP_OTHER": 496831, "GAS_COMPRE": 11492, "OP_COMP_HR": 4909, "OP_NUM_COM": 3, "OP_DATE_PE": "7/9/2020 12:00:00 AM", "EXP_POWER": 0, "ELEC_COMPR": 0, "x": -10168609.576, "y": 3464136.1507000001 }, "geometry": { "type": "Point", "coordinates": [ -91.346173999278562, 29.692902999672388 ] } },
{ "type": "Feature", "properties": { "OBJECTID": 868, "GCOMPID": "GCOMP55", "NAME": "INDIANA - AMBIA - BENTON COUNTY", "ADDRESS": "10483 W 600 S", "CITY": "AMBIA", "STATE": "IN", "ZIP": "47917", "ZIP4": "NOT AVAILABLE", "TYPE": "NATURAL GAS COMPRESSOR STATION", "STATUS": "IN SERVICE", "COUNTY": "BENTON", "COUNTYFIPS": "18007", "COUNTRY": "USA", "LATITUDE": 40.522661, "LONGITUDE": -87.518301, "NAICS_CODE": 486210, "NAICS_DESC": "BOOSTER PUMPING STATION, NATURAL GAS TRANSPORTATION", "SOURCE": "EPA ENVIROFACTS, FERC FORM 2, CORPORATE WEBSITE", "SOURCEDATE": "7/15/2020 12:00:00 AM", "VAL_METHOD": "IMAGERY/OTHER", "VAL_DATE": "6/20/2022 12:00:00 AM", "WEBSITE": "http://feptransfer.energytransfer.com/", "PIPECO": "TRUNKLINE GAS COMPANY L.L.C.", "COMPID": 30, "OPERATOR": "TRUNKLINE GAS COMPANY L.L.C.", "POSREL": "WITHIN 40 FEET", "NUM_UNITS": 4, "CERT_HP": 9000, "PLANT_COST": 18076438, "EXP_FUEL": 105416, "EXP_OTHER": 639798, "GAS_COMPRE": 59574, "OP_COMP_HR": 1616, "OP_NUM_COM": 4, "OP_DATE_PE": "4/10/2020 12:00:00 AM", "EXP_POWER": 0, "ELEC_COMPR": 0, "x": -9742492.7024000008, "y": 4942187.1892 }, "geometry": { "type": "Point", "coordinates": [ -87.518300998791887, 40.522660999791341 ] } },
{ "type": "Feature", "properties": { "OBJECTID": 999, "GCOMPID": "GCOMP67", "NAME": "MISSISSIPPI-SHAW-BOLIVAR COUNTY", "ADDRESS": "1069 SAND PIT ROAD", "CITY": "SHAW", "STATE": "MS", "ZIP": "38773", "ZIP4": "NOT AVAILABLE", "TYPE": "NATURAL GAS COMPRESSOR STATION", "STATUS": "IN SERVICE", "COUNTY": "BOLIVAR", "COUNTYFIPS": "28011", "COUNTRY": "USA", "LATITUDE": 33.629271, "LONGITUDE": -90.688521, "NAICS_CODE": 486210, "NAICS_DESC": "BOOSTER PUMPING STATION, NATURAL GAS TRANSPORTATION", "SOURCE": "EPA ENVIROFACTS, FERC FORM 2, CORPORATE WEBSITE", "SOURCEDATE": "7/15/2020 12:00:00 AM", "VAL_METHOD": "IMAGERY/OTHER", "VAL_DATE": "6/20/2022 12:00:00 AM", "WEBSITE": "http://feptransfer.energytransfer.com/", "PIPECO": "TRUNKLINE GAS COMPANY L.L.C.", "COMPID": 30, "OPERATOR": "TRUNKLINE GAS COMPANY L.L.C.", "POSREL": "WITHIN 40 FEET", "NUM_UNITS": 7, "CERT_HP": 28101, "PLANT_COST": 27118409, "EXP_FUEL": 24355, "EXP_OTHER": 977742, "GAS_COMPRE": 12898, "OP_COMP_HR": 20, "OP_NUM_COM": 4, "OP_DATE_PE": "12/8/2020 12:00:00 AM", "EXP_POWER": 0, "ELEC_COMPR": 0, "x": -10095399.979, "y": 3979130.1474000001 }, "geometry": { "type": "Point", "coordinates": [ -90.688521, 33.629271000012515 ] } },
{ "type": "Feature", "properties": { "OBJECTID": 1123, "GCOMPID": "GCOMP781", "NAME": "INDIANA - NORTH JUDSON - STARKE COUNTY", "ADDRESS": "6580 S 200 E", "CITY": "KNOX", "STATE": "IN", "ZIP": "46534", "ZIP4": "NOT AVAILABLE", "TYPE": "NATURAL GAS COMPRESSOR STATION", "STATUS": "IN SERVICE", "COUNTY": "STARKE", "COUNTYFIPS": "18149", "COUNTRY": "USA", "LATITUDE": 41.206023, "LONGITUDE": -86.657914, "NAICS_CODE": 486210, "NAICS_DESC": "BOOSTER PUMPING STATION, NATURAL GAS TRANSPORTATION", "SOURCE": "EPA ENVIROFACTS, FERC FORM 2, CORPORATE WEBSITE", "SOURCEDATE": "7/15/2020 12:00:00 AM", "VAL_METHOD": "IMAGERY/OTHER", "VAL_DATE": "6/20/2022 12:00:00 AM", "WEBSITE": "http://feptransfer.energytransfer.com/", "PIPECO": "TRUNKLINE GAS COMPANY L.L.C.", "COMPID": 30, "OPERATOR": "TRUNKLINE GAS COMPANY L.L.C.", "POSREL": "WITHIN 40 FEET", "NUM_UNITS": 4, "CERT_HP": 8700, "PLANT_COST": 11972759, "EXP_FUEL": 87080, "EXP_OTHER": 831585, "GAS_COMPRE": 47793, "OP_COMP_HR": 4, "OP_NUM_COM": 3, "OP_DATE_PE": "1/16/2020 12:00:00 AM", "EXP_POWER": 0, "ELEC_COMPR": 0, "x": -9646714.8597, "y": 5042777.6677000001 }, "geometry": { "type": "Point", "coordinates": [ -86.657913999876598, 41.2060230002499 ] } },
{ "type": "Feature", "properties": { "OBJECTID": 1188, "GCOMPID": "GCOMP84", "NAME": "LOUISIANA - LONGVILLE - BEAUREGARD PARISH", "ADDRESS": "11383 HIGHWAY 171", "CITY": "LONGVILLE", "STATE": "LA", "ZIP": "70652", "ZIP4": "NOT AVAILABLE", "TYPE": "NATURAL GAS COMPRESSOR STATION", "STATUS": "IN SERVICE", "COUNTY": "BEAUREGARD PARISH", "COUNTYFIPS": "22011", "COUNTRY": "USA", "LATITUDE": 30.596727, "LONGITUDE": -93.229171, "NAICS_CODE": 486210, "NAICS_DESC": "BOOSTER PUMPING STATION, NATURAL GAS TRANSPORTATION", "SOURCE": "EPA ENVIROFACTS, FERC FORM 2, CORPORATE WEBSITE", "SOURCEDATE": "7/15/2020 12:00:00 AM", "VAL_METHOD": "IMAGERY/OTHER", "VAL_DATE": "6/20/2022 12:00:00 AM", "WEBSITE": "http://feptransfer.energytransfer.com/", "PIPECO": "TRUNKLINE GAS COMPANY L.L.C.", "COMPID": 30, "OPERATOR": "TRUNKLINE GAS COMPANY L.L.C.", "POSREL": "WITHIN 40 FEET", "NUM_UNITS": 11, "CERT_HP": 36750, "PLANT_COST": 53967139, "EXP_FUEL": 405680, "EXP_OTHER": 1334723, "GAS_COMPRE": 215731, "OP_COMP_HR": 16206, "OP_NUM_COM": 8, "OP_DATE_PE": "3/26/2020 12:00:00 AM", "EXP_POWER": 2815600, "ELEC_COMPR": 45157225, "x": -10378223.843, "y": 3580486.4715999998 }, "geometry": { "type": "Point", "coordinates": [ -93.229170999860187, 30.596726999460291 ] } },
{ "type": "Feature", "properties": { "OBJECTID": 1221, "GCOMPID": "GCOMP87", "NAME": "TEXAS - EDNA - JACKSON COUNTY", "ADDRESS": "11417 HIGHWAY 530", "CITY": "EDNA", "STATE": "TX", "ZIP": "77957", "ZIP4": "NOT AVAILABLE", "TYPE": "NATURAL GAS COMPRESSOR STATION", "STATUS": "IN SERVICE", "COUNTY": "JACKSON", "COUNTYFIPS": "48239", "COUNTRY": "USA", "LATITUDE": 29.158694886, "LONGITUDE": -96.633447296, "NAICS_CODE": 486210, "NAICS_DESC": "BOOSTER PUMPING STATION, NATURAL GAS TRANSPORTATION", "SOURCE": "EPA ENVIROFACTS, FERC FORM 2, CORPORATE WEBSITE", "SOURCEDATE": "7/15/2020 12:00:00 AM", "VAL_METHOD": "IMAGERY/OTHER", "VAL_DATE": "6/24/2022 12:00:00 AM", "WEBSITE": "http://feptransfer.energytransfer.com/", "PIPECO": "TRUNKLINE GAS COMPANY L.L.C.", "COMPID": 30, "OPERATOR": "TRUNKLINE GAS COMPANY L.L.C.", "POSREL": "WITHIN 40 FEET", "NUM_UNITS": 1, "CERT_HP": 1675, "PLANT_COST": 1863596, "EXP_FUEL": 0, "EXP_OTHER": 243674, "GAS_COMPRE": 0, "OP_COMP_HR": 0, "OP_NUM_COM": 0, "OP_DATE_PE": null, "EXP_POWER": 0, "ELEC_COMPR": 0, "x": -10757186.147, "y": 3395859.8849 }, "geometry": { "type": "Point", "coordinates": [ -96.633447295807883, 29.158694885917235 ] } },
{ "type": "Feature", "properties": { "OBJECTID": 1226, "GCOMPID": "GCOMP874", "NAME": "TEXAS - BEEVILLE - BEE COUNTY", "ADDRESS": "8300 HIGHWAY 202", "CITY": "BEEVILLE", "STATE": "TX", "ZIP": "78102", "ZIP4": "NOT AVAILABLE", "TYPE": "NATURAL GAS COMPRESSOR STATION", "STATUS": "IN SERVICE", "COUNTY": "BEE", "COUNTYFIPS": "48025", "COUNTRY": "USA", "LATITUDE": 28.373447, "LONGITUDE": -97.518504, "NAICS_CODE": 486210, "NAICS_DESC": "BOOSTER PUMPING STATION, NATURAL GAS TRANSPORTATION", "SOURCE": "EPA ENVIROFACTS, FERC FORM 2, CORPORATE WEBSITE", "SOURCEDATE": "7/15/2020 12:00:00 AM", "VAL_METHOD": "IMAGERY/OTHER", "VAL_DATE": "6/20/2022 12:00:00 AM", "WEBSITE": "http://feptransfer.energytransfer.com/", "PIPECO": "TRUNKLINE GAS COMPANY L.L.C.", "COMPID": 30, "OPERATOR": "TRUNKLINE GAS COMPANY L.L.C.", "POSREL": "WITHIN 40 FEET", "NUM_UNITS": 2, "CERT_HP": 4000, "PLANT_COST": 8217725, "EXP_FUEL": 0, "EXP_OTHER": 1525050, "GAS_COMPRE": 0, "OP_COMP_HR": 0, "OP_NUM_COM": 0, "OP_DATE_PE": "6/27/2020 12:00:00 AM", "EXP_POWER": 0, "ELEC_COMPR": 0, "x": -10855710.208000001, "y": 3296139.0222999998 }, "geometry": { "type": "Point", "coordinates": [ -97.51850400055757, 28.373446999635533 ] } },
{ "type": "Feature", "properties": { "OBJECTID": 1228, "GCOMPID": "GCOMP876", "NAME": "MISSISSIPPI-INDEPENDENCE-TATE COUNTY", "ADDRESS": "8354 HIGHWAY 305", "CITY": "COLDWATER", "STATE": "MS", "ZIP": "38618", "ZIP4": "NOT AVAILABLE", "TYPE": "NATURAL GAS COMPRESSOR STATION", "STATUS": "IN SERVICE", "COUNTY": "TATE", "COUNTYFIPS": "28137", "COUNTRY": "USA", "LATITUDE": 34.741656, "LONGITUDE": -89.809182, "NAICS_CODE": 486210, "NAICS_DESC": "BOOSTER PUMPING STATION, NATURAL GAS TRANSPORTATION", "SOURCE": "EPA ENVIROFACTS, FERC FORM 2, CORPORATE WEBSITE", "SOURCEDATE": "7/15/2020 12:00:00 AM", "VAL_METHOD": "IMAGERY/OTHER", "VAL_DATE": "6/20/2022 12:00:00 AM", "WEBSITE": "http://feptransfer.energytransfer.com/", "PIPECO": "TRUNKLINE GAS COMPANY L.L.C.", "COMPID": 30, "OPERATOR": "TRUNKLINE GAS COMPANY L.L.C.", "POSREL": "WITHIN 40 FEET", "NUM_UNITS": 8, "CERT_HP": 27000, "PLANT_COST": 40527059, "EXP_FUEL": 111801, "EXP_OTHER": 1243569, "GAS_COMPRE": 55259, "OP_COMP_HR": 1438, "OP_NUM_COM": 3, "OP_DATE_PE": "1/23/2020 12:00:00 AM", "EXP_POWER": 0, "ELEC_COMPR": 0, "x": -9997512.4088000003, "y": 4128828.4129 }, "geometry": { "type": "Point", "coordinates": [ -89.809181998908457, 34.741655999014824 ] } },
{ "type": "Feature", "properties": { "OBJECTID": 1263, "GCOMPID": "GCOMP907", "NAME": "ILLINOIS - TUSCOLA - DOUGLAS COUNTY", "ADDRESS": "927 N COUNTY ROAD 800 E", "CITY": "TUSCOLA", "STATE": "IL", "ZIP": "61953", "ZIP4": "NOT AVAILABLE", "TYPE": "NATURAL GAS COMPRESSOR STATION", "STATUS": "IN SERVICE", "COUNTY": "DOUGLAS", "COUNTYFIPS": "17041", "COUNTRY": "USA", "LATITUDE": 39.790097, "LONGITUDE": -88.324234, "NAICS_CODE": 486210, "NAICS_DESC": "BOOSTER PUMPING STATION, NATURAL GAS TRANSPORTATION", "SOURCE": "EPA ENVIROFACTS, FERC FORM 2, CORPORATE WEBSITE", "SOURCEDATE": "7/15/2020 12:00:00 AM", "VAL_METHOD": "IMAGERY/OTHER", "VAL_DATE": "6/20/2022 12:00:00 AM", "WEBSITE": "http://feptransfer.energytransfer.com/", "PIPECO": "TRUNKLINE GAS COMPANY L.L.C.", "COMPID": 30, "OPERATOR": "TRUNKLINE GAS COMPANY L.L.C.", "POSREL": "WITHIN 40 FEET", "NUM_UNITS": 5, "CERT_HP": 10700, "PLANT_COST": 18177028, "EXP_FUEL": 26626, "EXP_OTHER": 834034, "GAS_COMPRE": 13604, "OP_COMP_HR": 1, "OP_NUM_COM": 0, "OP_DATE_PE": "9/30/2020 12:00:00 AM", "EXP_POWER": 0, "ELEC_COMPR": 0, "x": -9832208.7535999995, "y": 4835486.4667999996 }, "geometry": { "type": "Point", "coordinates": [ -88.324233999801763, 39.790096999317704 ] } },
{ "type": "Feature", "properties": { "OBJECTID": 1301, "GCOMPID": "GCOMP941", "NAME": "ILLINOIS - JOHNSONVILLE - WAYNE COUNTY", "ADDRESS": "BLACK TOP ROAD", "CITY": "JOHNSONVILLE", "STATE": "IL", "ZIP": "62850", "ZIP4": "NOT AVAILABLE", "TYPE": "NATURAL GAS COMPRESSOR STATION", "STATUS": "IN SERVICE", "COUNTY": "WAYNE", "COUNTYFIPS": "17191", "COUNTRY": "USA", "LATITUDE": 38.488009646999998, "LONGITUDE": -88.553112483999996, "NAICS_CODE": 486210, "NAICS_DESC": "BOOSTER PUMPING STATION, NATURAL GAS TRANSPORTATION", "SOURCE": "EPA ENVIROFACTS, FERC FORM 2, CORPORATE WEBSITE", "SOURCEDATE": "7/15/2020 12:00:00 AM", "VAL_METHOD": "IMAGERY/OTHER", "VAL_DATE": "6/20/2022 12:00:00 AM", "WEBSITE": "http://feptransfer.energytransfer.com/", "PIPECO": "TRUNKLINE GAS COMPANY L.L.C.", "COMPID": 30, "OPERATOR": "TRUNKLINE GAS COMPANY L.L.C.", "POSREL": "WITHIN 40 FEET", "NUM_UNITS": 8, "CERT_HP": 30001, "PLANT_COST": 35667145, "EXP_FUEL": 66974, "EXP_OTHER": 683410, "GAS_COMPRE": 34006, "OP_COMP_HR": 561, "OP_NUM_COM": 2, "OP_DATE_PE": "10/25/2020 12:00:00 AM", "EXP_POWER": 0, "ELEC_COMPR": 0, "x": -9857687.3899000008, "y": 4648596.4507999998 }, "geometry": { "type": "Point", "coordinates": [ -88.553112482999211, 38.48800964523798 ] } }
]
}
