{
"type": "FeatureCollection",
"name": "P0273-compressor-stations",
"crs": { "type": "name", "properties": { "name": "urn:ogc:def:crs:OGC:1.3:CRS84" } },
"features": [
{ "type": "Feature", "properties": { "OBJECTID": 13, "GCOMPID": "GCOMP1009", "NAME": "LONE STAR VALERO PECOS", "ADDRESS": "COUNTY ROAD-4290", "CITY": "MONAHANS", "STATE": "TX", "ZIP": "79756", "ZIP4": "NOT AVAILABLE", "TYPE": "NATURAL GAS COMPRESSOR STATION", "STATUS": "IN SERVICE", "COUNTY": "WARD", "COUNTYFIPS": "48475", "COUNTRY": "USA", "LATITUDE": 31.4508491220327, "LONGITUDE": -103.05116640622499, "NAICS_CODE": "486210", "NAICS_DESC": "BOOSTER PUMPING STATION, NATURAL GAS TRANSPORTATION", "SOURCE": "EPA ENVIROFACTS, FERC FORM 2, CORPORATE WEBSITE", "SOURCEDATE": "Wed, 15 Jul 2020 00:00:00 GMT", "VAL_METHOD": "IMAGERY/OTHER", "VAL_DATE": "Fri, 24 Jun 2022 00:00:00 GMT", "WEBSITE": "http://twtransfer.energytransfer.com/", "PIPECO": "TRANSWESTERN PIPELINE COMPANY L.L.C.", "COMPID": "42", "OPERATOR": "TRANSWESTERN PIPELINE COMPANY L.L.C.", "POSREL": "WITHIN 40 FEET", "NUM_UNITS": 2, "CERT_HP": 2200, "PLANT_COST": 5188761, "EXP_FUEL": 0, "EXP_OTHER": 5690, "GAS_COMPRE": 0, "OP_COMP_HR": 0, "OP_NUM_COM": 1, "OP_DATE_PE": "Mon, 13 Jan 2020 00:00:00 GMT", "EXP_POWER": 0, "ELEC_COMPR": 0 }, "geometry": { "type": "Point", "coordinates": [ -103.051166406, 31.450849122000101 ] } },
{ "type": "Feature", "properties": { "OBJECTID": null, "GCOMPID": null, "NAME": null, "ADDRESS": null, "CITY": null, "STATE": null, "ZIP": null, "ZIP4": null, "TYPE": null, "STATUS": null, "COUNTY": null, "COUNTYFIPS": null, "COUNTRY": null, "LATITUDE": null, "LONGITUDE": null, "NAICS_CODE": null, "NAICS_DESC": null, "SOURCE": null, "SOURCEDATE": null, "VAL_METHOD": null, "VAL_DATE": null, "WEBSITE": null, "PIPECO": null, "COMPID": null, "OPERATOR": null, "POSREL": null, "NUM_UNITS": null, "CERT_HP": null, "PLANT_COST": null, "EXP_FUEL": null, "EXP_OTHER": null, "GAS_COMPRE": null, "OP_COMP_HR": null, "OP_NUM_COM": null, "OP_DATE_PE": null, "EXP_POWER": null, "ELEC_COMPR": null }, "geometry": { "type": "Point", "coordinates": [ -102.964821486346807, 31.338363787988232 ] } },
{ "type": "Feature", "properties": { "OBJECTID": 214, "GCOMPID": "GCOMP1191", "NAME": "STATION 2", "ADDRESS": "NF-160", "CITY": "BELLEMONT", "STATE": "AZ", "ZIP": "86015", "ZIP4": "NOT AVAILABLE", "TYPE": "NATURAL GAS COMPRESSOR STATION", "STATUS": "IN SERVICE", "COUNTY": "COCONINO", "COUNTYFIPS": "04005", "COUNTRY": "USA", "LATITUDE": 35.287037141, "LONGITUDE": -111.86729954, "NAICS_CODE": "486210", "NAICS_DESC": "BOOSTER PUMPING STATION, NATURAL GAS TRANSPORTATION", "SOURCE": "EPA ENVIROFACTS, FERC FORM 2, CORPORATE WEBSITE", "SOURCEDATE": "Wed, 15 Jul 2020 00:00:00 GMT", "VAL_METHOD": "IMAGERY/OTHER", "VAL_DATE": "Mon, 20 Jun 2022 00:00:00 GMT", "WEBSITE": "http://twtransfer.energytransfer.com/", "PIPECO": "TRANSWESTERN PIPELINE COMPANY L.L.C.", "COMPID": "42", "OPERATOR": "TRANSWESTERN PIPELINE COMPANY L.L.C.", "POSREL": "WITHIN 40 FEET", "NUM_UNITS": 1, "CERT_HP": 31500, "PLANT_COST": 40663155, "EXP_FUEL": 31693, "EXP_OTHER": 503676, "GAS_COMPRE": 20877, "OP_COMP_HR": 8658, "OP_NUM_COM": 1, "OP_DATE_PE": "Tue, 25 Aug 2020 00:00:00 GMT", "EXP_POWER": 0, "ELEC_COMPR": 0 }, "geometry": { "type": "Point", "coordinates": [ -111.86729954, 35.287037141 ] } },
{ "type": "Feature", "properties": { "OBJECTID": 365, "GCOMPID": "GCOMP1327", "NAME": "STATION 3", "ADDRESS": "TRANSWESTERN PIPELINE ROAD; ROUTE 61 (NAVAJO ROUTE 15)", "CITY": "LEUPP", "STATE": "AZ", "ZIP": "86035", "ZIP4": "NOT AVAILABLE", "TYPE": "NATURAL GAS COMPRESSOR STATION", "STATUS": "IN SERVICE", "COUNTY": "COCONINO", "COUNTYFIPS": "04005", "COUNTRY": "USA", "LATITUDE": 35.304138002000002, "LONGITUDE": -110.84703270599999, "NAICS_CODE": "486210", "NAICS_DESC": "BOOSTER PUMPING STATION, NATURAL GAS TRANSPORTATION", "SOURCE": "EPA ENVIROFACTS, FERC FORM 2, CORPORATE WEBSITE", "SOURCEDATE": "Wed, 15 Jul 2020 00:00:00 GMT", "VAL_METHOD": "IMAGERY/OTHER", "VAL_DATE": "Mon, 20 Jun 2022 00:00:00 GMT", "WEBSITE": "http://twtransfer.energytransfer.com/", "PIPECO": "TRANSWESTERN PIPELINE COMPANY L.L.C.", "COMPID": "42", "OPERATOR": "TRANSWESTERN PIPELINE COMPANY L.L.C.", "POSREL": "WITHIN 40 FEET", "NUM_UNITS": 1, "CERT_HP": 31500, "PLANT_COST": 34363388, "EXP_FUEL": 1578458, "EXP_OTHER": 630057, "GAS_COMPRE": 1012306, "OP_COMP_HR": 8240, "OP_NUM_COM": 1, "OP_DATE_PE": "Thu, 12 Mar 2020 00:00:00 GMT", "EXP_POWER": 0, "ELEC_COMPR": 0 }, "geometry": { "type": "Point", "coordinates": [ -110.847032706, 35.304138002000101 ] } },
{ "type": "Feature", "properties": { "OBJECTID": 366, "GCOMPID": "GCOMP1328", "NAME": "STATION 4", "ADDRESS": "TRANSWESTERN PIPELINE ROAD; 10 MILES NORTHEAST OF KLAGETOH", "CITY": "KLAGETOH", "STATE": "AZ", "ZIP": "86505", "ZIP4": "NOT AVAILABLE", "TYPE": "NATURAL GAS COMPRESSOR STATION", "STATUS": "IN SERVICE", "COUNTY": "APACHE", "COUNTYFIPS": "04001", "COUNTRY": "USA", "LATITUDE": 35.565625, "LONGITUDE": -109.393514, "NAICS_CODE": "486210", "NAICS_DESC": "BOOSTER PUMPING STATION, NATURAL GAS TRANSPORTATION", "SOURCE": "EPA ENVIROFACTS, FERC FORM 2, CORPORATE WEBSITE", "SOURCEDATE": "Wed, 15 Jul 2020 00:00:00 GMT", "VAL_METHOD": "IMAGERY/OTHER", "VAL_DATE": "Mon, 20 Jun 2022 00:00:00 GMT", "WEBSITE": "http://twtransfer.energytransfer.com/", "PIPECO": "TRANSWESTERN PIPELINE COMPANY L.L.C.", "COMPID": "42", "OPERATOR": "TRANSWESTERN PIPELINE COMPANY L.L.C.", "POSREL": "WITHIN 40 FEET", "NUM_UNITS": 3, "CERT_HP": 15000, "PLANT_COST": 37041180, "EXP_FUEL": 1166, "EXP_OTHER": 481130, "GAS_COMPRE": 793, "OP_COMP_HR": 21300, "OP_NUM_COM": 3, "OP_DATE_PE": "Tue, 08 Sep 2020 00:00:00 GMT", "EXP_POWER": 4518021, "ELEC_COMPR": 63902350 }, "geometry": { "type": "Point", "coordinates": [ -109.393514, 35.565625 ] } },
{ "type": "Feature", "properties": { "OBJECTID": 367, "GCOMPID": "GCOMP1329", "NAME": "STATION 8", "ADDRESS": "TRANSWESTERN ROAD; 27.6 MILES SW CORONA", "CITY": "CAPITAN", "STATE": "NM", "ZIP": "88316", "ZIP4": "NOT AVAILABLE", "TYPE": "NATURAL GAS COMPRESSOR STATION", "STATUS": "IN SERVICE", "COUNTY": "LINCOLN", "COUNTYFIPS": "35027", "COUNTRY": "USA", "LATITUDE": 33.919302504999997, "LONGITUDE": -105.32667968299999, "NAICS_CODE": "486210", "NAICS_DESC": "BOOSTER PUMPING STATION, NATURAL GAS TRANSPORTATION", "SOURCE": "EPA ENVIROFACTS, FERC FORM 2, CORPORATE WEBSITE", "SOURCEDATE": "Wed, 15 Jul 2020 00:00:00 GMT", "VAL_METHOD": "IMAGERY/OTHER", "VAL_DATE": "Mon, 20 Jun 2022 00:00:00 GMT", "WEBSITE": "http://twtransfer.energytransfer.com/", "PIPECO": "TRANSWESTERN PIPELINE COMPANY L.L.C.", "COMPID": "42", "OPERATOR": "TRANSWESTERN PIPELINE COMPANY L.L.C.", "POSREL": "WITHIN 40 FEET", "NUM_UNITS": 3, "CERT_HP": 13000, "PLANT_COST": 35495466, "EXP_FUEL": 761378, "EXP_OTHER": 7050778, "GAS_COMPRE": 474674, "OP_COMP_HR": 16131, "OP_NUM_COM": 2, "OP_DATE_PE": "Wed, 16 Dec 2020 00:00:00 GMT", "EXP_POWER": 0, "ELEC_COMPR": 0 }, "geometry": { "type": "Point", "coordinates": [ -105.326679683, 33.919302505000097 ] } },
{ "type": "Feature", "properties": { "OBJECTID": 390, "GCOMPID": "GCOMP135", "NAME": "RED DEER ANR", "ADDRESS": "1311 QUARTER HORSE ROAD", "CITY": "MIAMI", "STATE": "TX", "ZIP": "79059", "ZIP4": "NOT AVAILABLE", "TYPE": "NATURAL GAS COMPRESSOR STATION", "STATUS": "IN SERVICE", "COUNTY": "ROBERTS", "COUNTYFIPS": "48393", "COUNTRY": "USA", "LATITUDE": 35.787116, "LONGITUDE": -100.627092, "NAICS_CODE": "486210", "NAICS_DESC": "BOOSTER PUMPING STATION, NATURAL GAS TRANSPORTATION", "SOURCE": "EPA ENVIROFACTS, FERC FORM 2, CORPORATE WEBSITE", "SOURCEDATE": "Wed, 15 Jul 2020 00:00:00 GMT", "VAL_METHOD": "IMAGERY/OTHER", "VAL_DATE": "Mon, 20 Jun 2022 00:00:00 GMT", "WEBSITE": "http://twtransfer.energytransfer.com/", "PIPECO": "TRANSWESTERN PIPELINE COMPANY L.L.C.", "COMPID": "42", "OPERATOR": "TRANSWESTERN PIPELINE COMPANY L.L.C.", "POSREL": "WITHIN 40 FEET", "NUM_UNITS": 0, "CERT_HP": 0, "PLANT_COST": 272562, "EXP_FUEL": 0, "EXP_OTHER": 0, "GAS_COMPRE": 0, "OP_COMP_HR": 0, "OP_NUM_COM": 0, "OP_DATE_PE": "Mon, 01 Jan 2001 00:00:00 GMT", "EXP_POWER": 0, "ELEC_COMPR": 0 }, "geometry": { "type": "Point", "coordinates": [ -100.627092, 35.787116 ] } },
{ "type": "Feature", "properties": { "OBJECTID": 532, "GCOMPID": "GCOMP247", "NAME": "STATION WT-2", "ADDRESS": "1742 HALEY RANCH ROAD", "CITY": "KERMIT", "STATE": "TX", "ZIP": "79745", "ZIP4": "NOT AVAILABLE", "TYPE": "NATURAL GAS COMPRESSOR STATION", "STATUS": "IN SERVICE", "COUNTY": "WINKLER", "COUNTYFIPS": "48495", "COUNTRY": "USA", "LATITUDE": 31.834729, "LONGITUDE": -103.303527, "NAICS_CODE": "486210", "NAICS_DESC": "BOOSTER PUMPING STATION, NATURAL GAS TRANSPORTATION", "SOURCE": "FERC FORM 2, CORPORATE WEBSITE", "SOURCEDATE": "Wed, 15 Jul 2020 00:00:00 GMT", "VAL_METHOD": "IMAGERY/OTHER", "VAL_DATE": "Fri, 24 Jun 2022 00:00:00 GMT", "WEBSITE": "http://twtransfer.energytransfer.com/", "PIPECO": "TRANSWESTERN PIPELINE COMPANY L.L.C.", "COMPID": "42", "OPERATOR": "TRANSWESTERN PIPELINE COMPANY L.L.C.", "POSREL": "WITHIN 40 FEET", "NUM_UNITS": 3, "CERT_HP": 12000, "PLANT_COST": 22836713, "EXP_FUEL": 12482, "EXP_OTHER": 675864, "GAS_COMPRE": 6379, "OP_COMP_HR": 38, "OP_NUM_COM": 1, "OP_DATE_PE": "Sat, 18 Jan 2020 00:00:00 GMT", "EXP_POWER": 0, "ELEC_COMPR": 0 }, "geometry": { "type": "Point", "coordinates": [ -103.303527, 31.834729 ] } },
{ "type": "Feature", "properties": { "OBJECTID": 634, "GCOMPID": "GCOMP339", "NAME": "STATION P-1", "ADDRESS": "213 S ROOSEVELT ROAD U; 5.2 MILES NW OF PORTALES", "CITY": "PORTALES", "STATE": "NM", "ZIP": "88130", "ZIP4": "NOT AVAILABLE", "TYPE": "NATURAL GAS COMPRESSOR STATION", "STATUS": "IN SERVICE", "COUNTY": "ROOSEVELT", "COUNTYFIPS": "35041", "COUNTRY": "USA", "LATITUDE": 34.227029606000002, "LONGITUDE": -103.384310805, "NAICS_CODE": "486210", "NAICS_DESC": "BOOSTER PUMPING STATION, NATURAL GAS TRANSPORTATION", "SOURCE": "EPA ENVIROFACTS, FERC FORM 2, CORPORATE WEBSITE", "SOURCEDATE": "Wed, 15 Jul 2020 00:00:00 GMT", "VAL_METHOD": "IMAGERY/OTHER", "VAL_DATE": "Mon, 20 Jun 2022 00:00:00 GMT", "WEBSITE": "http://twtransfer.energytransfer.com/", "PIPECO": "TRANSWESTERN PIPELINE COMPANY L.L.C.", "COMPID": "42", "OPERATOR": "TRANSWESTERN PIPELINE COMPANY L.L.C.", "POSREL": "WITHIN 40 FEET", "NUM_UNITS": 1, "CERT_HP": 3732, "PLANT_COST": 8890821, "EXP_FUEL": 65755, "EXP_OTHER": 192605, "GAS_COMPRE": 45376, "OP_COMP_HR": 1577, "OP_NUM_COM": 1, "OP_DATE_PE": "Fri, 03 Jul 2020 00:00:00 GMT", "EXP_POWER": 0, "ELEC_COMPR": 0 }, "geometry": { "type": "Point", "coordinates": [ -103.384310805, 34.227029606 ] } },
{ "type": "Feature", "properties": { "OBJECTID": 644, "GCOMPID": "GCOMP348", "NAME": "STATION 1", "ADDRESS": "21721 FORT ROCK ROAD", "CITY": "KINGMAN", "STATE": "AZ", "ZIP": "86401", "ZIP4": "NOT AVAILABLE", "TYPE": "NATURAL GAS COMPRESSOR STATION", "STATUS": "IN SERVICE", "COUNTY": "MOHAVE", "COUNTYFIPS": "04015", "COUNTRY": "USA", "LATITUDE": 35.197448, "LONGITUDE": -113.362777, "NAICS_CODE": "486210", "NAICS_DESC": "BOOSTER PUMPING STATION, NATURAL GAS TRANSPORTATION", "SOURCE": "EPA ENVIROFACTS, FERC FORM 2, CORPORATE WEBSITE", "SOURCEDATE": "Wed, 15 Jul 2020 00:00:00 GMT", "VAL_METHOD": "IMAGERY/OTHER", "VAL_DATE": "Mon, 20 Jun 2022 00:00:00 GMT", "WEBSITE": "http://twtransfer.energytransfer.com/", "PIPECO": "TRANSWESTERN PIPELINE COMPANY L.L.C.", "COMPID": "42", "OPERATOR": "TRANSWESTERN PIPELINE COMPANY L.L.C.", "POSREL": "WITHIN 40 FEET", "NUM_UNITS": 1, "CERT_HP": 31500, "PLANT_COST": 50491663, "EXP_FUEL": 1749106, "EXP_OTHER": 492516, "GAS_COMPRE": 1141523, "OP_COMP_HR": 650, "OP_NUM_COM": 1, "OP_DATE_PE": "Wed, 18 Mar 2020 00:00:00 GMT", "EXP_POWER": 0, "ELEC_COMPR": 0 }, "geometry": { "type": "Point", "coordinates": [ -113.362777, 35.197448000000101 ] } },
{ "type": "Feature", "properties": { "OBJECTID": 653, "GCOMPID": "GCOMP356", "NAME": "STATION WT-1", "ADDRESS": "22 MILES E OF CARLSBAD ON US 180", "CITY": "CARLSBAD", "STATE": "NM", "ZIP": "88221", "ZIP4": "NOT AVAILABLE", "TYPE": "NATURAL GAS COMPRESSOR STATION", "STATUS": "IN SERVICE", "COUNTY": "EDDY", "COUNTYFIPS": "35015", "COUNTRY": "USA", "LATITUDE": 32.532188, "LONGITUDE": -103.808889, "NAICS_CODE": "486210", "NAICS_DESC": "BOOSTER PUMPING STATION, NATURAL GAS TRANSPORTATION", "SOURCE": "EPA ENVIROFACTS, FERC FORM 2, CORPORATE WEBSITE", "SOURCEDATE": "Wed, 15 Jul 2020 00:00:00 GMT", "VAL_METHOD": "IMAGERY/OTHER", "VAL_DATE": "Fri, 24 Jun 2022 00:00:00 GMT", "WEBSITE": "http://twtransfer.energytransfer.com/", "PIPECO": "TRANSWESTERN PIPELINE COMPANY L.L.C.", "COMPID": "42", "OPERATOR": "TRANSWESTERN PIPELINE COMPANY L.L.C.", "POSREL": "WITHIN 40 FEET", "NUM_UNITS": 3, "CERT_HP": 18000, "PLANT_COST": 30619008, "EXP_FUEL": 307, "EXP_OTHER": 546098, "GAS_COMPRE": 199, "OP_COMP_HR": 21776, "OP_NUM_COM": 3, "OP_DATE_PE": "Thu, 23 Jul 2020 00:00:00 GMT", "EXP_POWER": 2608052, "ELEC_COMPR": 63531732 }, "geometry": { "type": "Point", "coordinates": [ -103.808889, 32.532188 ] } },
{ "type": "Feature", "properties": { "OBJECTID": 794, "GCOMPID": "GCOMP483", "NAME": "BISTI", "ADDRESS": "30 M S OF FARMINGTON HIGHWAY 371", "CITY": "FARMINGTON", "STATE": "NM", "ZIP": "87401", "ZIP4": "NOT AVAILABLE", "TYPE": "NATURAL GAS COMPRESSOR STATION", "STATUS": "IN SERVICE", "COUNTY": "SAN JUAN", "COUNTYFIPS": "35045", "COUNTRY": "USA", "LATITUDE": 36.279301951982703, "LONGITUDE": -108.27061235291301, "NAICS_CODE": "486210", "NAICS_DESC": "BOOSTER PUMPING STATION, NATURAL GAS TRANSPORTATION", "SOURCE": "EPA ENVIROFACTS, FERC FORM 2, CORPORATE WEBSITE", "SOURCEDATE": "Fri, 27 May 2022 00:00:00 GMT", "VAL_METHOD": "IMAGERY/OTHER", "VAL_DATE": "Fri, 24 Jun 2022 00:00:00 GMT", "WEBSITE": "http://twtransfer.energytransfer.com/", "PIPECO": "TRANSWESTERN PIPELINE COMPANY L.L.C.", "COMPID": "42", "OPERATOR": "TRANSWESTERN PIPELINE COMPANY L.L.C.", "POSREL": "WITHIN 40 FEET", "NUM_UNITS": 1, "CERT_HP": 10000, "PLANT_COST": 11351732, "EXP_FUEL": 702837, "EXP_OTHER": 6248, "GAS_COMPRE": 408940, "OP_COMP_HR": 0, "OP_NUM_COM": 0, "OP_DATE_PE": "Mon, 01 Jan 2001 00:00:00 GMT", "EXP_POWER": 385597, "ELEC_COMPR": 196193 }, "geometry": { "type": "Point", "coordinates": [ -108.270612353, 36.279301952 ] } },
{ "type": "Feature", "properties": { "OBJECTID": 818, "GCOMPID": "GCOMP504", "NAME": "BLOOMFIELD", "ADDRESS": "3189 ARROYO DRIVE; 1 MILE NE OF BLOOMFIELD", "CITY": "BLOOMFIELD", "STATE": "NM", "ZIP": "87413", "ZIP4": "NOT AVAILABLE", "TYPE": "NATURAL GAS COMPRESSOR STATION", "STATUS": "IN SERVICE", "COUNTY": "SAN JUAN", "COUNTYFIPS": "35045", "COUNTRY": "USA", "LATITUDE": 36.728284844000001, "LONGITUDE": -107.948504353, "NAICS_CODE": "486210", "NAICS_DESC": "BOOSTER PUMPING STATION, NATURAL GAS TRANSPORTATION", "SOURCE": "EPA ENVIROFACTS, FERC FORM 2, CORPORATE WEBSITE", "SOURCEDATE": "Fri, 27 May 2022 00:00:00 GMT", "VAL_METHOD": "IMAGERY/OTHER", "VAL_DATE": "Mon, 20 Jun 2022 00:00:00 GMT", "WEBSITE": "http://twtransfer.energytransfer.com/", "PIPECO": "TRANSWESTERN PIPELINE COMPANY L.L.C.", "COMPID": "42", "OPERATOR": "TRANSWESTERN PIPELINE COMPANY L.L.C.", "POSREL": "WITHIN 40 FEET", "NUM_UNITS": 3, "CERT_HP": 21000, "PLANT_COST": 37451619, "EXP_FUEL": 150641, "EXP_OTHER": 762561, "GAS_COMPRE": 113228, "OP_COMP_HR": 14790, "OP_NUM_COM": 2, "OP_DATE_PE": "Tue, 06 Oct 2020 00:00:00 GMT", "EXP_POWER": 3963218, "ELEC_COMPR": 65489907 }, "geometry": { "type": "Point", "coordinates": [ -107.948504353, 36.728284844 ] } },
{ "type": "Feature", "properties": { "OBJECTID": 881, "GCOMPID": "GCOMP561", "NAME": "LAPLATA A", "ADDRESS": "3775 COUNTY ROAD 307", "CITY": "DURANGO", "STATE": "CO", "ZIP": "81303", "ZIP4": "6129", "TYPE": "NATURAL GAS COMPRESSOR STATION", "STATUS": "IN SERVICE", "COUNTY": "LA PLATA", "COUNTYFIPS": "08067", "COUNTRY": "USA", "LATITUDE": 37.145557, "LONGITUDE": -107.78756, "NAICS_CODE": "486210", "NAICS_DESC": "BOOSTER PUMPING STATION, NATURAL GAS TRANSPORTATION", "SOURCE": "EPA ENVIROFACTS, FERC FORM 2, CORPORATE WEBSITE", "SOURCEDATE": "Wed, 15 Jul 2020 00:00:00 GMT", "VAL_METHOD": "IMAGERY/OTHER", "VAL_DATE": "Mon, 20 Jun 2022 00:00:00 GMT", "WEBSITE": "http://twtransfer.energytransfer.com/", "PIPECO": "TRANSWESTERN PIPELINE COMPANY L.L.C.", "COMPID": "42", "OPERATOR": "TRANSWESTERN PIPELINE COMPANY L.L.C.", "POSREL": "WITHIN 40 FEET", "NUM_UNITS": 2, "CERT_HP": 12500, "PLANT_COST": 27418940, "EXP_FUEL": 517465, "EXP_OTHER": 353331, "GAS_COMPRE": 330025, "OP_COMP_HR": 8907, "OP_NUM_COM": 2, "OP_DATE_PE": "Wed, 23 Dec 2020 00:00:00 GMT", "EXP_POWER": 0, "ELEC_COMPR": 0 }, "geometry": { "type": "Point", "coordinates": [ -107.78756, 37.145557000000103 ] } },
{ "type": "Feature", "properties": { "OBJECTID": 904, "GCOMPID": "GCOMP583", "NAME": "ATOKA 3", "ADDRESS": "4.9 MILES SOUTH WEST OF ATOKA", "CITY": "ATOKA", "STATE": "NM", "ZIP": "88210", "ZIP4": "NOT AVAILABLE", "TYPE": "NATURAL GAS COMPRESSOR STATION", "STATUS": "IN SERVICE", "COUNTY": "EDDY", "COUNTYFIPS": "35015", "COUNTRY": "USA", "LATITUDE": 32.715531648748403, "LONGITUDE": -104.444881589307, "NAICS_CODE": "486210", "NAICS_DESC": "BOOSTER PUMPING STATION, NATURAL GAS TRANSPORTATION", "SOURCE": "FERC FORM 2, CORPORATE WEBSITE, IMAGERY", "SOURCEDATE": "Wed, 15 Jul 2020 00:00:00 GMT", "VAL_METHOD": "IMAGERY/OTHER", "VAL_DATE": "Fri, 24 Jun 2022 00:00:00 GMT", "WEBSITE": "http://twtransfer.energytransfer.com/", "PIPECO": "TRANSWESTERN PIPELINE COMPANY L.L.C.", "COMPID": "42", "OPERATOR": "TRANSWESTERN PIPELINE COMPANY L.L.C.", "POSREL": "WITHIN 40 FEET", "NUM_UNITS": 5, "CERT_HP": 37300, "PLANT_COST": 210518724, "EXP_FUEL": 2509688, "EXP_OTHER": 0, "GAS_COMPRE": 1195819, "OP_COMP_HR": 14380, "OP_NUM_COM": 0, "OP_DATE_PE": "Wed, 15 Jul 2020 00:00:00 GMT", "EXP_POWER": 0, "ELEC_COMPR": 0 }, "geometry": { "type": "Point", "coordinates": [ -104.444881589, 32.715531649000098 ] } },
{ "type": "Feature", "properties": { "OBJECTID": 952, "GCOMPID": "GCOMP627", "NAME": "STATION P-2", "ADDRESS": "4510 COUNTY ROAD AA", "CITY": "HEREFORD", "STATE": "TX", "ZIP": "79045", "ZIP4": "NOT AVAILABLE", "TYPE": "NATURAL GAS COMPRESSOR STATION", "STATUS": "IN SERVICE", "COUNTY": "DEAF SMITH", "COUNTYFIPS": "48117", "COUNTRY": "USA", "LATITUDE": 34.896111087999998, "LONGITUDE": -102.183934791, "NAICS_CODE": "486210", "NAICS_DESC": "BOOSTER PUMPING STATION, NATURAL GAS TRANSPORTATION", "SOURCE": "EPA ENVIROFACTS, FERC FORM 2, CORPORATE WEBSITE", "SOURCEDATE": "Wed, 15 Jul 2020 00:00:00 GMT", "VAL_METHOD": "IMAGERY/OTHER", "VAL_DATE": "Mon, 20 Jun 2022 00:00:00 GMT", "WEBSITE": "http://twtransfer.energytransfer.com/", "PIPECO": "TRANSWESTERN PIPELINE COMPANY L.L.C.", "COMPID": "42", "OPERATOR": "TRANSWESTERN PIPELINE COMPANY L.L.C.", "POSREL": "WITHIN 40 FEET", "NUM_UNITS": 1, "CERT_HP": 4500, "PLANT_COST": 8839928, "EXP_FUEL": 15850, "EXP_OTHER": 264020, "GAS_COMPRE": 13659, "OP_COMP_HR": 516, "OP_NUM_COM": 1, "OP_DATE_PE": "Sat, 04 Jul 2020 00:00:00 GMT", "EXP_POWER": 0, "ELEC_COMPR": 0 }, "geometry": { "type": "Point", "coordinates": [ -102.183934791, 34.896111088 ] } },
{ "type": "Feature", "properties": { "OBJECTID": 1059, "GCOMPID": "GCOMP723", "NAME": "STATION P-3", "ADDRESS": "586 COUNTY LINE ROAD; 3.5 MILES NORTH", "CITY": "PAMPA", "STATE": "TX", "ZIP": "79065", "ZIP4": "NOT AVAILABLE", "TYPE": "NATURAL GAS COMPRESSOR STATION", "STATUS": "IN SERVICE", "COUNTY": "GRAY", "COUNTYFIPS": "48179", "COUNTRY": "USA", "LATITUDE": 35.618627531999998, "LONGITUDE": -100.974286724, "NAICS_CODE": "486210", "NAICS_DESC": "BOOSTER PUMPING STATION, NATURAL GAS TRANSPORTATION", "SOURCE": "EPA ENVIROFACTS, FERC FORM 2, CORPORATE WEBSITE", "SOURCEDATE": "Wed, 15 Jul 2020 00:00:00 GMT", "VAL_METHOD": "IMAGERY/OTHER", "VAL_DATE": "Mon, 20 Jun 2022 00:00:00 GMT", "WEBSITE": "http://twtransfer.energytransfer.com/", "PIPECO": "TRANSWESTERN PIPELINE COMPANY L.L.C.", "COMPID": "42", "OPERATOR": "TRANSWESTERN PIPELINE COMPANY L.L.C.", "POSREL": "WITHIN 40 FEET", "NUM_UNITS": 5, "CERT_HP": 8000, "PLANT_COST": 19466286, "EXP_FUEL": 328639, "EXP_OTHER": 516599, "GAS_COMPRE": 213223, "OP_COMP_HR": 12516, "OP_NUM_COM": 2, "OP_DATE_PE": "Fri, 03 Jul 2020 00:00:00 GMT", "EXP_POWER": 0, "ELEC_COMPR": 0 }, "geometry": { "type": "Point", "coordinates": [ -100.974286724, 35.618627532 ] } },
{ "type": "Feature", "properties": { "OBJECTID": 1103, "GCOMPID": "GCOMP763", "NAME": "KEYSTONE", "ADDRESS": "6381 N MAIN STREET", "CITY": "ROSWELL", "STATE": "NM", "ZIP": "88201", "ZIP4": "9485", "TYPE": "NATURAL GAS COMPRESSOR STATION", "STATUS": "IN SERVICE", "COUNTY": "CHAVES", "COUNTYFIPS": "35005", "COUNTRY": "USA", "LATITUDE": 33.510171, "LONGITUDE": -104.516904, "NAICS_CODE": "486210", "NAICS_DESC": "BOOSTER PUMPING STATION, NATURAL GAS TRANSPORTATION", "SOURCE": "EPA ENVIROFACTS, FERC FORM 2, CORPORATE WEBSITE", "SOURCEDATE": "Wed, 15 Jul 2020 00:00:00 GMT", "VAL_METHOD": "IMAGERY/OTHER", "VAL_DATE": "Mon, 20 Jun 2022 00:00:00 GMT", "WEBSITE": "http://twtransfer.energytransfer.com/", "PIPECO": "TRANSWESTERN PIPELINE COMPANY L.L.C.", "COMPID": "42", "OPERATOR": "TRANSWESTERN PIPELINE COMPANY L.L.C.", "POSREL": "WITHIN 40 FEET", "NUM_UNITS": 3, "CERT_HP": 2860, "PLANT_COST": 4499969, "EXP_FUEL": 35988, "EXP_OTHER": 362452, "GAS_COMPRE": 22282, "OP_COMP_HR": 6376, "OP_NUM_COM": 2, "OP_DATE_PE": "Mon, 03 Aug 2020 00:00:00 GMT", "EXP_POWER": 0, "ELEC_COMPR": 0 }, "geometry": { "type": "Point", "coordinates": [ -104.516904, 33.510171 ] } },
{ "type": "Feature", "properties": { "OBJECTID": 1121, "GCOMPID": "GCOMP78", "NAME": "STATION 6", "ADDRESS": "111 LAGUNA TRIBAL SHOP ROAD; 2 MILES S OF I-40", "CITY": "CASA BLANCA", "STATE": "NM", "ZIP": "87007", "ZIP4": "NOT AVAILABLE", "TYPE": "NATURAL GAS COMPRESSOR STATION", "STATUS": "IN SERVICE", "COUNTY": "CIBOLA", "COUNTYFIPS": "35006", "COUNTRY": "USA", "LATITUDE": 35.016416947000003, "LONGITUDE": -107.404675021, "NAICS_CODE": "486210", "NAICS_DESC": "BOOSTER PUMPING STATION, NATURAL GAS TRANSPORTATION", "SOURCE": "EPA ENVIROFACTS, FERC FORM 2, CORPORATE WEBSITE", "SOURCEDATE": "Wed, 15 Jul 2020 00:00:00 GMT", "VAL_METHOD": "IMAGERY/OTHER", "VAL_DATE": "Mon, 20 Jun 2022 00:00:00 GMT", "WEBSITE": "http://twtransfer.energytransfer.com/", "PIPECO": "TRANSWESTERN PIPELINE COMPANY L.L.C.", "COMPID": "42", "OPERATOR": "TRANSWESTERN PIPELINE COMPANY L.L.C.", "POSREL": "WITHIN 40 FEET", "NUM_UNITS": 3, "CERT_HP": 12000, "PLANT_COST": 25970081, "EXP_FUEL": 627098, "EXP_OTHER": 1384145, "GAS_COMPRE": 419428, "OP_COMP_HR": 15912, "OP_NUM_COM": 3, "OP_DATE_PE": "Thu, 04 Jun 2020 00:00:00 GMT", "EXP_POWER": 0, "ELEC_COMPR": 0 }, "geometry": { "type": "Point", "coordinates": [ -107.404675021, 35.016416947 ] } },
{ "type": "Feature", "properties": { "OBJECTID": 1155, "GCOMPID": "GCOMP81", "NAME": "MONUMENT", "ADDRESS": "11285 W CARLSBAD HIGHWAY", "CITY": "HOBBS", "STATE": "NM", "ZIP": "88240", "ZIP4": "NOT AVAILABLE", "TYPE": "NATURAL GAS COMPRESSOR STATION", "STATUS": "IN SERVICE", "COUNTY": "LEA", "COUNTYFIPS": "35025", "COUNTRY": "USA", "LATITUDE": 32.69609903, "LONGITUDE": -103.28438697199999, "NAICS_CODE": "486210", "NAICS_DESC": "BOOSTER PUMPING STATION, NATURAL GAS TRANSPORTATION", "SOURCE": "EPA ENVIROFACTS, FERC FORM 2, CORPORATE WEBSITE", "SOURCEDATE": "Wed, 15 Jul 2020 00:00:00 GMT", "VAL_METHOD": "IMAGERY/OTHER", "VAL_DATE": "Mon, 20 Jun 2022 00:00:00 GMT", "WEBSITE": "http://twtransfer.energytransfer.com/", "PIPECO": "TRANSWESTERN PIPELINE COMPANY L.L.C.", "COMPID": "42", "OPERATOR": "TRANSWESTERN PIPELINE COMPANY L.L.C.", "POSREL": "WITHIN 40 FEET", "NUM_UNITS": 2, "CERT_HP": 2200, "PLANT_COST": 2565532, "EXP_FUEL": 0, "EXP_OTHER": 8807, "GAS_COMPRE": 0, "OP_COMP_HR": 0, "OP_NUM_COM": 0, "OP_DATE_PE": "Mon, 01 Jan 2001 00:00:00 GMT", "EXP_POWER": 0, "ELEC_COMPR": 0 }, "geometry": { "type": "Point", "coordinates": [ -103.284386972, 32.69609903 ] } },
{ "type": "Feature", "properties": { "OBJECTID": 1160, "GCOMPID": "GCOMP814", "NAME": "ATOKA 2", "ADDRESS": "7.5 MILES EAST OF ATOKA", "CITY": "ATOKA", "STATE": "NM", "ZIP": "88210", "ZIP4": "NOT AVAILABLE", "TYPE": "NATURAL GAS COMPRESSOR STATION", "STATUS": "IN SERVICE", "COUNTY": "EDDY", "COUNTYFIPS": "35015", "COUNTRY": "USA", "LATITUDE": 32.770427881000003, "LONGITUDE": -104.269205562, "NAICS_CODE": "486210", "NAICS_DESC": "BOOSTER PUMPING STATION, NATURAL GAS TRANSPORTATION", "SOURCE": "FERC FORM 2, CORPORATE WEBSITE, IMAGERY", "SOURCEDATE": "Wed, 15 Jul 2020 00:00:00 GMT", "VAL_METHOD": "IMAGERY/OTHER", "VAL_DATE": "Mon, 06 Jun 2022 00:00:00 GMT", "WEBSITE": "http://twtransfer.energytransfer.com/", "PIPECO": "TRANSWESTERN PIPELINE COMPANY L.L.C.", "COMPID": "42", "OPERATOR": "TRANSWESTERN PIPELINE COMPANY L.L.C.", "POSREL": "WITHIN 40 FEET", "NUM_UNITS": 4, "CERT_HP": 3670, "PLANT_COST": 6117822, "EXP_FUEL": 187150, "EXP_OTHER": 521861, "GAS_COMPRE": 199631, "OP_COMP_HR": 18076, "OP_NUM_COM": 3, "OP_DATE_PE": "Thu, 19 Jul 2012 00:00:00 GMT", "EXP_POWER": 0, "ELEC_COMPR": 0 }, "geometry": { "type": "Point", "coordinates": [ -104.269205562, 32.770427881 ] } },
{ "type": "Feature", "properties": { "OBJECTID": 1224, "GCOMPID": "GCOMP872", "NAME": "CRAWFORD", "ADDRESS": "825 BOUNDS ROAD; 3 MILESW OF LOVING", "CITY": "LOVING", "STATE": "NM", "ZIP": "88256", "ZIP4": "NOT AVAILABLE", "TYPE": "NATURAL GAS COMPRESSOR STATION", "STATUS": "IN SERVICE", "COUNTY": "EDDY", "COUNTYFIPS": "35015", "COUNTRY": "USA", "LATITUDE": 32.262975032, "LONGITUDE": -104.14789587600001, "NAICS_CODE": "486210", "NAICS_DESC": "BOOSTER PUMPING STATION, NATURAL GAS TRANSPORTATION", "SOURCE": "EPA ENVIROFACTS, FERC FORM 2, CORPORATE WEBSITE", "SOURCEDATE": "Fri, 27 May 2022 00:00:00 GMT", "VAL_METHOD": "IMAGERY/OTHER", "VAL_DATE": "Mon, 20 Jun 2022 00:00:00 GMT", "WEBSITE": "http://twtransfer.energytransfer.com/", "PIPECO": "TRANSWESTERN PIPELINE COMPANY L.L.C.", "COMPID": "42", "OPERATOR": "TRANSWESTERN PIPELINE COMPANY L.L.C.", "POSREL": "WITHIN 40 FEET", "NUM_UNITS": 2, "CERT_HP": 2200, "PLANT_COST": 3699569, "EXP_FUEL": 207710, "EXP_OTHER": 160912, "GAS_COMPRE": 85786, "OP_COMP_HR": 8227, "OP_NUM_COM": 1, "OP_DATE_PE": "Wed, 26 Sep 2012 00:00:00 GMT", "EXP_POWER": 0, "ELEC_COMPR": 0 }, "geometry": { "type": "Point", "coordinates": [ -104.147895876, 32.262975032 ] } },
{ "type": "Feature", "properties": { "OBJECTID": 1256, "GCOMPID": "GCOMP900", "NAME": "ATOKA 1", "ADDRESS": "9.8 MILES NEE OF ATOKA", "CITY": "ATOKA", "STATE": "NM", "ZIP": "88210", "ZIP4": "NOT AVAILABLE", "TYPE": "NATURAL GAS COMPRESSOR STATION", "STATUS": "IN SERVICE", "COUNTY": "EDDY", "COUNTYFIPS": "35015", "COUNTRY": "USA", "LATITUDE": 32.781361981000003, "LONGITUDE": -104.22697761400001, "NAICS_CODE": "486210", "NAICS_DESC": "BOOSTER PUMPING STATION, NATURAL GAS TRANSPORTATION", "SOURCE": "FERC FORM 2, CORPORATE WEBSITE, IMAGERY", "SOURCEDATE": "Wed, 15 Jul 2020 00:00:00 GMT", "VAL_METHOD": "IMAGERY/OTHER", "VAL_DATE": "Fri, 17 Jun 2022 00:00:00 GMT", "WEBSITE": "http://twtransfer.energytransfer.com/", "PIPECO": "TRANSWESTERN PIPELINE COMPANY L.L.C.", "COMPID": "42", "OPERATOR": "TRANSWESTERN PIPELINE COMPANY L.L.C.", "POSREL": "WITHIN 40 FEET", "NUM_UNITS": 5, "CERT_HP": 2320, "PLANT_COST": 5812762, "EXP_FUEL": 228, "EXP_OTHER": 144764, "GAS_COMPRE": 51, "OP_COMP_HR": 204, "OP_NUM_COM": 1, "OP_DATE_PE": "Thu, 22 Jan 2015 00:00:00 GMT", "EXP_POWER": 0, "ELEC_COMPR": 0 }, "geometry": { "type": "Point", "coordinates": [ -104.226977614, 32.781361981 ] } },
{ "type": "Feature", "properties": { "OBJECTID": 1272, "GCOMPID": "GCOMP915", "NAME": "STATION 7", "ADDRESS": "950 CASTER RANCH ROAD", "CITY": "MOUNTAINAIR", "STATE": "NM", "ZIP": "87036", "ZIP4": "NOT AVAILABLE", "TYPE": "NATURAL GAS COMPRESSOR STATION", "STATUS": "IN SERVICE", "COUNTY": "TORRANCE", "COUNTYFIPS": "35057", "COUNTRY": "USA", "LATITUDE": 34.340915064000001, "LONGITUDE": -106.298393652, "NAICS_CODE": "486210", "NAICS_DESC": "BOOSTER PUMPING STATION, NATURAL GAS TRANSPORTATION", "SOURCE": "EPA ENVIROFACTS, FERC FORM 2, CORPORATE WEBSITE", "SOURCEDATE": "Wed, 15 Jul 2020 00:00:00 GMT", "VAL_METHOD": "IMAGERY/OTHER", "VAL_DATE": "Mon, 20 Jun 2022 00:00:00 GMT", "WEBSITE": "http://twtransfer.energytransfer.com/", "PIPECO": "TRANSWESTERN PIPELINE COMPANY L.L.C.", "COMPID": "42", "OPERATOR": "TRANSWESTERN PIPELINE COMPANY L.L.C.", "POSREL": "WITHIN 40 FEET", "NUM_UNITS": 3, "CERT_HP": 13500, "PLANT_COST": 17891980, "EXP_FUEL": 982610, "EXP_OTHER": 1705171, "GAS_COMPRE": 617139, "OP_COMP_HR": 23076, "OP_NUM_COM": 3, "OP_DATE_PE": "Thu, 31 Dec 2020 00:00:00 GMT", "EXP_POWER": 0, "ELEC_COMPR": 0 }, "geometry": { "type": "Point", "coordinates": [ -106.298393652, 34.3409150640001 ] } },
{ "type": "Feature", "properties": { "OBJECTID": 1311, "GCOMPID": "GCOMP950", "NAME": "STATION 5", "ADDRESS": "CASTLE ROCK ROAD; 2 MILES N OF THOREAU", "CITY": "GALLUP", "STATE": "NM", "ZIP": "87301", "ZIP4": "NOT AVAILABLE", "TYPE": "NATURAL GAS COMPRESSOR STATION", "STATUS": "IN SERVICE", "COUNTY": "MCKINLEY", "COUNTYFIPS": "35031", "COUNTRY": "USA", "LATITUDE": 35.42505, "LONGITUDE": -108.236746, "NAICS_CODE": "486210", "NAICS_DESC": "BOOSTER PUMPING STATION, NATURAL GAS TRANSPORTATION", "SOURCE": "EPA ENVIROFACTS, FERC FORM 2, CORPORATE WEBSITE", "SOURCEDATE": "Wed, 15 Jul 2020 00:00:00 GMT", "VAL_METHOD": "IMAGERY/OTHER", "VAL_DATE": "Mon, 20 Jun 2022 00:00:00 GMT", "WEBSITE": "http://twtransfer.energytransfer.com/", "PIPECO": "TRANSWESTERN PIPELINE COMPANY L.L.C.", "COMPID": "42", "OPERATOR": "TRANSWESTERN PIPELINE COMPANY L.L.C.", "POSREL": "WITHIN 40 FEET", "NUM_UNITS": 3, "CERT_HP": 15000, "PLANT_COST": 15682369, "EXP_FUEL": 544753, "EXP_OTHER": 1000670, "GAS_COMPRE": 357532, "OP_COMP_HR": 15464, "OP_NUM_COM": 3, "OP_DATE_PE": "Thu, 16 Jan 2020 00:00:00 GMT", "EXP_POWER": 0, "ELEC_COMPR": 0 }, "geometry": { "type": "Point", "coordinates": [ -108.236746, 35.42505 ] } },
{ "type": "Feature", "properties": { "OBJECTID": 1341, "GCOMPID": "GCOMP978", "NAME": "MALJAMAR", "ADDRESS": "CONOCO ROAD; 4.5 MILES SE OF MALJAMAR", "CITY": "MALJAMAR", "STATE": "NM", "ZIP": "88264", "ZIP4": "NOT AVAILABLE", "TYPE": "NATURAL GAS COMPRESSOR STATION", "STATUS": "IN SERVICE", "COUNTY": "LEA", "COUNTYFIPS": "35025", "COUNTRY": "USA", "LATITUDE": 32.813817942, "LONGITUDE": -103.771933236, "NAICS_CODE": "486210", "NAICS_DESC": "BOOSTER PUMPING STATION, NATURAL GAS TRANSPORTATION", "SOURCE": "EPA ENVIROFACTS, FERC FORM 2, CORPORATE WEBSITE", "SOURCEDATE": "Wed, 15 Jul 2020 00:00:00 GMT", "VAL_METHOD": "IMAGERY/OTHER", "VAL_DATE": "Mon, 20 Jun 2022 00:00:00 GMT", "WEBSITE": "http://twtransfer.energytransfer.com/", "PIPECO": "TRANSWESTERN PIPELINE COMPANY L.L.C.", "COMPID": "42", "OPERATOR": "TRANSWESTERN PIPELINE COMPANY L.L.C.", "POSREL": "WITHIN 40 FEET", "NUM_UNITS": 2, "CERT_HP": 1960, "PLANT_COST": 6331312, "EXP_FUEL": 56815, "EXP_OTHER": 437932, "GAS_COMPRE": 35311, "OP_COMP_HR": 461037, "OP_NUM_COM": 2, "OP_DATE_PE": "Wed, 15 Jul 2020 00:00:00 GMT", "EXP_POWER": 0, "ELEC_COMPR": 0 }, "geometry": { "type": "Point", "coordinates": [ -103.771933236, 32.813817942000099 ] } },
{ "type": "Feature", "properties": { "OBJECTID": null, "GCOMPID": null, "NAME": null, "ADDRESS": null, "CITY": null, "STATE": null, "ZIP": null, "ZIP4": null, "TYPE": null, "STATUS": null, "COUNTY": null, "COUNTYFIPS": null, "COUNTRY": null, "LATITUDE": null, "LONGITUDE": null, "NAICS_CODE": null, "NAICS_DESC": null, "SOURCE": null, "SOURCEDATE": null, "VAL_METHOD": null, "VAL_DATE": null, "WEBSITE": null, "PIPECO": null, "COMPID": null, "OPERATOR": null, "POSREL": null, "NUM_UNITS": null, "CERT_HP": null, "PLANT_COST": null, "EXP_FUEL": null, "EXP_OTHER": null, "GAS_COMPRE": null, "OP_COMP_HR": null, "OP_NUM_COM": null, "OP_DATE_PE": null, "EXP_POWER": null, "ELEC_COMPR": null }, "geometry": { "type": "Point", "coordinates": [ -104.037738795469849, 32.862818945019889 ] } },
{ "type": "Feature", "properties": { "OBJECTID": null, "GCOMPID": null, "NAME": null, "ADDRESS": null, "CITY": null, "STATE": null, "ZIP": null, "ZIP4": null, "TYPE": null, "STATUS": null, "COUNTY": null, "COUNTYFIPS": null, "COUNTRY": null, "LATITUDE": null, "LONGITUDE": null, "NAICS_CODE": null, "NAICS_DESC": null, "SOURCE": null, "SOURCEDATE": null, "VAL_METHOD": null, "VAL_DATE": null, "WEBSITE": null, "PIPECO": null, "COMPID": null, "OPERATOR": null, "POSREL": null, "NUM_UNITS": null, "CERT_HP": null, "PLANT_COST": null, "EXP_FUEL": null, "EXP_OTHER": null, "GAS_COMPRE": null, "OP_COMP_HR": null, "OP_NUM_COM": null, "OP_DATE_PE": null, "EXP_POWER": null, "ELEC_COMPR": null }, "geometry": { "type": "Point", "coordinates": [ -108.642074384522672, 35.537260942924185 ] } },
{ "type": "Feature", "properties": { "OBJECTID": null, "GCOMPID": null, "NAME": null, "ADDRESS": null, "CITY": null, "STATE": null, "ZIP": null, "ZIP4": null, "TYPE": null, "STATUS": null, "COUNTY": null, "COUNTYFIPS": null, "COUNTRY": null, "LATITUDE": null, "LONGITUDE": null, "NAICS_CODE": null, "NAICS_DESC": null, "SOURCE": null, "SOURCEDATE": null, "VAL_METHOD": null, "VAL_DATE": null, "WEBSITE": null, "PIPECO": null, "COMPID": null, "OPERATOR": null, "POSREL": null, "NUM_UNITS": null, "CERT_HP": null, "PLANT_COST": null, "EXP_FUEL": null, "EXP_OTHER": null, "GAS_COMPRE": null, "OP_COMP_HR": null, "OP_NUM_COM": null, "OP_DATE_PE": null, "EXP_POWER": null, "ELEC_COMPR": null }, "geometry": { "type": "Point", "coordinates": [ -112.141687151256264, 33.982102610321412 ] } },
{ "type": "Feature", "properties": { "OBJECTID": null, "GCOMPID": null, "NAME": null, "ADDRESS": null, "CITY": null, "STATE": null, "ZIP": null, "ZIP4": null, "TYPE": null, "STATUS": null, "COUNTY": null, "COUNTYFIPS": null, "COUNTRY": null, "LATITUDE": null, "LONGITUDE": null, "NAICS_CODE": null, "NAICS_DESC": null, "SOURCE": null, "SOURCEDATE": null, "VAL_METHOD": null, "VAL_DATE": null, "WEBSITE": null, "PIPECO": null, "COMPID": null, "OPERATOR": null, "POSREL": null, "NUM_UNITS": null, "CERT_HP": null, "PLANT_COST": null, "EXP_FUEL": null, "EXP_OTHER": null, "GAS_COMPRE": null, "OP_COMP_HR": null, "OP_NUM_COM": null, "OP_DATE_PE": null, "EXP_POWER": null, "ELEC_COMPR": null }, "geometry": { "type": "Point", "coordinates": [ -103.043887324648239, 31.947133582225806 ] } }
]
}
