{
"type": "FeatureCollection",
"name": "P0281-compressor-stations",
"crs": { "type": "name", "properties": { "name": "urn:ogc:def:crs:OGC:1.3:CRS84" } },
"features": [
{ "type": "Feature", "properties": { "OBJECTID": 42, "GCOMPID": "GCOMP1035", "NAME": "SOUTH BAKER", "ADDRESS": "EAST OF CORAL CREEK ROAD/ (5.83 MILES SE OF BAKER)", "CITY": "BAKER", "STATE": "MT", "ZIP": "59313", "ZIP4": "NOT AVAILABLE", "TYPE": "NATURAL GAS COMPRESSOR STATION", "STATUS": "IN SERVICE", "COUNTY": "FALLON", "COUNTYFIPS": "30025", "COUNTRY": "USA", "LATITUDE": 46.302511877999997, "LONGITUDE": -104.201781768, "NAICS_CODE": "486210", "NAICS_DESC": "BOOSTER PUMPING STATION, NATURAL GAS TRANSPORTATION", "SOURCE": "FERC FORM 2, IMAGERY", "SOURCEDATE": "Wed, 15 Jul 2020 00:00:00 GMT", "VAL_METHOD": "IMAGERY/OTHER", "VAL_DATE": "Mon, 06 Jun 2022 00:00:00 GMT", "WEBSITE": "http://transmission.wbienergy.com/", "PIPECO": "WILLISTON BASIN INTERSTATE PIPELINE COMPANY", "COMPID": "49", "OPERATOR": "WILLISTON BASIN INTERSTATE PIPELINE COMPANY", "POSREL": "WITHIN 40 FEET", "NUM_UNITS": 2, "CERT_HP": 3360, "PLANT_COST": 4208528, "EXP_FUEL": 194327, "EXP_OTHER": 103510, "GAS_COMPRE": 72709, "OP_COMP_HR": 8750, "OP_NUM_COM": 2, "OP_DATE_PE": "Tue, 05 Jun 2012 00:00:00 GMT", "EXP_POWER": 0, "ELEC_COMPR": 0 }, "geometry": { "type": "Point", "coordinates": [ -104.201781768, 46.302511878000097 ] } },
{ "type": "Feature", "properties": { "OBJECTID": 80, "GCOMPID": "GCOMP107", "NAME": "MANNING", "ADDRESS": "11TH STREET SW (EAST OF HIGHWAY 22)", "CITY": "MANNING", "STATE": "ND", "ZIP": "58642", "ZIP4": "NOT AVAILABLE", "TYPE": "NATURAL GAS COMPRESSOR STATION", "STATUS": "IN SERVICE", "COUNTY": "DUNN", "COUNTYFIPS": "38025", "COUNTRY": "USA", "LATITUDE": 47.255180004000003, "LONGITUDE": -102.738175294, "NAICS_CODE": "486210", "NAICS_DESC": "BOOSTER PUMPING STATION, NATURAL GAS TRANSPORTATION", "SOURCE": "FERC FORM 2, U.S. FEDERAL REGISTER", "SOURCEDATE": "Wed, 15 Jul 2020 00:00:00 GMT", "VAL_METHOD": "IMAGERY/OTHER", "VAL_DATE": "Mon, 06 Jun 2022 00:00:00 GMT", "WEBSITE": "http://transmission.wbienergy.com/", "PIPECO": "WILLISTON BASIN INTERSTATE PIPELINE COMPANY", "COMPID": "49", "OPERATOR": "WILLISTON BASIN INTERSTATE PIPELINE COMPANY", "POSREL": "WITHIN 40 FEET", "NUM_UNITS": 3, "CERT_HP": 8915, "PLANT_COST": 12745478, "EXP_FUEL": 4285, "EXP_OTHER": 137135, "GAS_COMPRE": 1557, "OP_COMP_HR": 20, "OP_NUM_COM": 2, "OP_DATE_PE": "Fri, 07 Sep 2012 00:00:00 GMT", "EXP_POWER": 0, "ELEC_COMPR": 0 }, "geometry": { "type": "Point", "coordinates": [ -102.738175294, 47.255180004000103 ] } },
{ "type": "Feature", "properties": { "OBJECTID": 119, "GCOMPID": "GCOMP1105", "NAME": "BIG GUMBO", "ADDRESS": "HIGHWAY 12 NEAR ND BORDER (20 MILES SOUTHEAST OF BAKER)", "CITY": "BAKER", "STATE": "MT", "ZIP": "59313", "ZIP4": "NOT AVAILABLE", "TYPE": "NATURAL GAS COMPRESSOR STATION", "STATUS": "IN SERVICE", "COUNTY": "FALLON", "COUNTYFIPS": "30025", "COUNTRY": "USA", "LATITUDE": 46.129832135999997, "LONGITUDE": -104.06830108299999, "NAICS_CODE": "486210", "NAICS_DESC": "BOOSTER PUMPING STATION, NATURAL GAS TRANSPORTATION", "SOURCE": "EPA ENVIROFACTS, FERC FORM 2, MONTANA DEPARTMENT OF ENVIRONMENTAL QUALITY", "SOURCEDATE": "Wed, 15 Jul 2020 00:00:00 GMT", "VAL_METHOD": "IMAGERY/OTHER", "VAL_DATE": "Mon, 20 Jun 2022 00:00:00 GMT", "WEBSITE": "http://deq.mt.gov/", "PIPECO": "WILLISTON BASIN INTERSTATE PIPELINE COMPANY", "COMPID": "49", "OPERATOR": "WILLISTON BASIN INTERSTATE PIPELINE COMPANY", "POSREL": "WITHIN 40 FEET", "NUM_UNITS": 2, "CERT_HP": 3500, "PLANT_COST": 2609591, "EXP_FUEL": 0, "EXP_OTHER": 0, "GAS_COMPRE": 0, "OP_COMP_HR": 0, "OP_NUM_COM": 3, "OP_DATE_PE": "Tue, 01 Dec 2020 00:00:00 GMT", "EXP_POWER": 0, "ELEC_COMPR": 0 }, "geometry": { "type": "Point", "coordinates": [ -104.068301083, 46.129832136000097 ] } },
{ "type": "Feature", "properties": { "OBJECTID": 133, "GCOMPID": "GCOMP1118", "NAME": "HATHAWAY", "ADDRESS": "I-94 W (W OF MOON CREEK ROAD/OFF FRONTAGE ROAD)", "CITY": "MILES CITY", "STATE": "MT", "ZIP": "59301", "ZIP4": "NOT AVAILABLE", "TYPE": "NATURAL GAS COMPRESSOR STATION", "STATUS": "IN SERVICE", "COUNTY": "CUSTER", "COUNTYFIPS": "30017", "COUNTRY": "USA", "LATITUDE": 46.316949, "LONGITUDE": -106.075515, "NAICS_CODE": "486210", "NAICS_DESC": "BOOSTER PUMPING STATION, NATURAL GAS TRANSPORTATION", "SOURCE": "FERC FORM 2, MONTANA DEPARTMENT OF ENVIRONMENTAL QUALITY", "SOURCEDATE": "Wed, 15 Jul 2020 00:00:00 GMT", "VAL_METHOD": "IMAGERY/OTHER", "VAL_DATE": "Tue, 07 Jun 2022 00:00:00 GMT", "WEBSITE": "http://transmission.wbienergy.com/", "PIPECO": "WILLISTON BASIN INTERSTATE PIPELINE COMPANY", "COMPID": "49", "OPERATOR": "WILLISTON BASIN INTERSTATE PIPELINE COMPANY", "POSREL": "WITHIN 40 FEET", "NUM_UNITS": 2, "CERT_HP": 7358, "PLANT_COST": 5120155, "EXP_FUEL": 477865, "EXP_OTHER": 192904, "GAS_COMPRE": 185382, "OP_COMP_HR": 7500, "OP_NUM_COM": 2, "OP_DATE_PE": "Thu, 12 Apr 2012 00:00:00 GMT", "EXP_POWER": 0, "ELEC_COMPR": 0 }, "geometry": { "type": "Point", "coordinates": [ -106.075515, 46.316949000000101 ] } },
{ "type": "Feature", "properties": { "OBJECTID": 192, "GCOMPID": "GCOMP1171", "NAME": "WILLOW CREEK", "ADDRESS": "N OF US 212 NEAR WY-ND BORDER", "CITY": "ALZADA", "STATE": "MT", "ZIP": "59311", "ZIP4": "NOT AVAILABLE", "TYPE": "NATURAL GAS COMPRESSOR STATION", "STATUS": "IN SERVICE", "COUNTY": "CARTER", "COUNTYFIPS": "30011", "COUNTRY": "USA", "LATITUDE": 45.156322, "LONGITUDE": -104.708232, "NAICS_CODE": "486210", "NAICS_DESC": "BOOSTER PUMPING STATION, NATURAL GAS TRANSPORTATION", "SOURCE": "EPA ENVIROFACTS, FERC FORM 2, CORPORATE WEBSITE", "SOURCEDATE": "Wed, 15 Jul 2020 00:00:00 GMT", "VAL_METHOD": "IMAGERY/OTHER", "VAL_DATE": "Mon, 06 Jun 2022 00:00:00 GMT", "WEBSITE": "http://transmission.wbienergy.com/", "PIPECO": "WILLISTON BASIN INTERSTATE PIPELINE COMPANY", "COMPID": "49", "OPERATOR": "WILLISTON BASIN INTERSTATE PIPELINE COMPANY", "POSREL": "WITHIN 40 FEET", "NUM_UNITS": 2, "CERT_HP": 7100, "PLANT_COST": 11197944, "EXP_FUEL": 4604, "EXP_OTHER": 53527, "GAS_COMPRE": 1617, "OP_COMP_HR": 0, "OP_NUM_COM": 0, "OP_DATE_PE": "Wed, 15 Jul 2020 00:00:00 GMT", "EXP_POWER": 0, "ELEC_COMPR": 0 }, "geometry": { "type": "Point", "coordinates": [ -104.708232, 45.156322 ] } },
{ "type": "Feature", "properties": { "OBJECTID": 206, "GCOMPID": "GCOMP1184", "NAME": "MONARCH", "ADDRESS": "NE 1/4, SEC. 36, T9N, R58E", "CITY": "BAKER", "STATE": "MT", "ZIP": "59313", "ZIP4": "NOT AVAILABLE", "TYPE": "NATURAL GAS COMPRESSOR STATION", "STATUS": "IN SERVICE", "COUNTY": "FALLON", "COUNTYFIPS": "30025", "COUNTRY": "USA", "LATITUDE": 46.49228, "LONGITUDE": -104.35742, "NAICS_CODE": "486210", "NAICS_DESC": "BOOSTER PUMPING STATION, NATURAL GAS TRANSPORTATION", "SOURCE": "EPA ENVIROFACTS, FERC FORM 2, CORPORATE WEBSITE", "SOURCEDATE": "Wed, 15 Jul 2020 00:00:00 GMT", "VAL_METHOD": "IMAGERY/OTHER", "VAL_DATE": "Tue, 07 Jun 2022 00:00:00 GMT", "WEBSITE": "http://transmission.wbienergy.com/", "PIPECO": "WILLISTON BASIN INTERSTATE PIPELINE COMPANY", "COMPID": "49", "OPERATOR": "WILLISTON BASIN INTERSTATE PIPELINE COMPANY", "POSREL": "WITHIN 40 FEET", "NUM_UNITS": 4, "CERT_HP": 8740, "PLANT_COST": 14870688, "EXP_FUEL": 253784, "EXP_OTHER": 264554, "GAS_COMPRE": 90075, "OP_COMP_HR": 5899, "OP_NUM_COM": 4, "OP_DATE_PE": "Tue, 18 Dec 2012 00:00:00 GMT", "EXP_POWER": 0, "ELEC_COMPR": 0 }, "geometry": { "type": "Point", "coordinates": [ -104.35742, 46.4922800000001 ] } },
{ "type": "Feature", "properties": { "OBJECTID": 209, "GCOMPID": "GCOMP1187", "NAME": "GLEN ULLIN", "ADDRESS": "NE1/4 NE1/4 S21-T139N-R88W (ON 39TH STREET/WEST OF HIGHWAY 49); WEST OF INTERSECTION BETWEEN 39TH STREET AND ND-49", "CITY": "GLEN ULLIN", "STATE": "ND", "ZIP": "58631", "ZIP4": "NOT AVAILABLE", "TYPE": "NATURAL GAS COMPRESSOR STATION", "STATUS": "IN SERVICE", "COUNTY": "MORTON", "COUNTYFIPS": "38059", "COUNTRY": "USA", "LATITUDE": 46.8475, "LONGITUDE": -101.783055, "NAICS_CODE": "486210", "NAICS_DESC": "BOOSTER PUMPING STATION, NATURAL GAS TRANSPORTATION", "SOURCE": "EPA ENVIROFACTS, FERC FORM 2, CORPORATE WEBSITE", "SOURCEDATE": "Wed, 15 Jul 2020 00:00:00 GMT", "VAL_METHOD": "IMAGERY/OTHER", "VAL_DATE": "Mon, 06 Jun 2022 00:00:00 GMT", "WEBSITE": "http://transmission.wbienergy.com/", "PIPECO": "WILLISTON BASIN INTERSTATE PIPELINE COMPANY", "COMPID": "49", "OPERATOR": "WILLISTON BASIN INTERSTATE PIPELINE COMPANY", "POSREL": "WITHIN 40 FEET", "NUM_UNITS": 2, "CERT_HP": 5300, "PLANT_COST": 5983144, "EXP_FUEL": 76741, "EXP_OTHER": 195558, "GAS_COMPRE": 27642, "OP_COMP_HR": 2011, "OP_NUM_COM": 2, "OP_DATE_PE": "Wed, 19 Dec 2012 00:00:00 GMT", "EXP_POWER": 0, "ELEC_COMPR": 0 }, "geometry": { "type": "Point", "coordinates": [ -101.783055, 46.8475 ] } },
{ "type": "Feature", "properties": { "OBJECTID": 226, "GCOMPID": "GCOMP1201", "NAME": "BAKER BOOSTER HIGH PRESSURE", "ADDRESS": "NORTHEAST OF SECTION 2, TOWNSHIP 7 NORTH, RANGE 59 EAST (EAST OF PENNEL ROAD/1.5 MILES NORTH OF BAKER)", "CITY": "BAKER", "STATE": "MT", "ZIP": "59313", "ZIP4": "NOT AVAILABLE", "TYPE": "NATURAL GAS COMPRESSOR STATION", "STATUS": "IN SERVICE", "COUNTY": "FALLON", "COUNTYFIPS": "30025", "COUNTRY": "USA", "LATITUDE": 46.394690467000032, "LONGITUDE": -104.28731913999997, "NAICS_CODE": "486210", "NAICS_DESC": "BOOSTER PUMPING STATION, NATURAL GAS TRANSPORTATION", "SOURCE": "FERC FORM 2, MONTANA DEPARTMENT OF ENVIRONMENTAL QUALITY", "SOURCEDATE": "Wed, 15 Jul 2020 00:00:00 GMT", "VAL_METHOD": "IMAGERY/OTHER", "VAL_DATE": "Tue, 24 May 2022 00:00:00 GMT", "WEBSITE": "http://deq.mt.gov/", "PIPECO": "WILLISTON BASIN INTERSTATE PIPELINE COMPANY", "COMPID": "49", "OPERATOR": "WILLISTON BASIN INTERSTATE PIPELINE COMPANY", "POSREL": "WITHIN 40 FEET", "NUM_UNITS": 1, "CERT_HP": 31206, "PLANT_COST": 27467595, "EXP_FUEL": 1916236, "EXP_OTHER": 384454, "GAS_COMPRE": 990220, "OP_COMP_HR": 5926, "OP_NUM_COM": 0, "OP_DATE_PE": "Tue, 24 Jan 2012 00:00:00 GMT", "EXP_POWER": 0, "ELEC_COMPR": 0 }, "geometry": { "type": "Point", "coordinates": [ -104.28731914, 46.394690467 ] } },
{ "type": "Feature", "properties": { "OBJECTID": 227, "GCOMPID": "GCOMP1202", "NAME": "BAKER BOOSTER LOW PRESSURE", "ADDRESS": "NORTHEAST OF SECTION 2, TOWNSHIP 7 NORTH, RANGE 59 EAST (EAST OF PENNEL ROAD/1.5 MILES NORTH OF BAKER)", "CITY": "BAKER", "STATE": "MT", "ZIP": "59313", "ZIP4": "NOT AVAILABLE", "TYPE": "NATURAL GAS COMPRESSOR STATION", "STATUS": "IN SERVICE", "COUNTY": "FALLON", "COUNTYFIPS": "30025", "COUNTRY": "USA", "LATITUDE": 46.394333340502001, "LONGITUDE": -104.28511116751299, "NAICS_CODE": "486210", "NAICS_DESC": "BOOSTER PUMPING STATION, NATURAL GAS TRANSPORTATION", "SOURCE": "FERC FORM 2, MONTANA DEPARTMENT OF ENVIRONMENTAL QUALITY", "SOURCEDATE": "Wed, 15 Jul 2020 00:00:00 GMT", "VAL_METHOD": "IMAGERY/OTHER", "VAL_DATE": "Fri, 24 Jun 2022 00:00:00 GMT", "WEBSITE": "http://deq.mt.gov/", "PIPECO": "WILLISTON BASIN INTERSTATE PIPELINE COMPANY", "COMPID": "49", "OPERATOR": "WILLISTON BASIN INTERSTATE PIPELINE COMPANY", "POSREL": "WITHIN 40 FEET", "NUM_UNITS": 1, "CERT_HP": 31206, "PLANT_COST": 30803054, "EXP_FUEL": 2876746, "EXP_OTHER": 304950, "GAS_COMPRE": 1530437, "OP_COMP_HR": 8651, "OP_NUM_COM": 0, "OP_DATE_PE": "Tue, 24 Jan 2012 00:00:00 GMT", "EXP_POWER": 237948, "ELEC_COMPR": 3494338 }, "geometry": { "type": "Point", "coordinates": [ -104.285111168, 46.394333341 ] } },
{ "type": "Feature", "properties": { "OBJECTID": 228, "GCOMPID": "GCOMP1203", "NAME": "SANDSTONE", "ADDRESS": "NORTHEAST OF SECTION 2, TOWNSHIP 7 NORTH, RANGE 59 EAST (EAST OF PENNEL ROAD/1.5 MILES NORTH OF BAKER)", "CITY": "BAKER", "STATE": "MT", "ZIP": "59313", "ZIP4": "NOT AVAILABLE", "TYPE": "NATURAL GAS COMPRESSOR STATION", "STATUS": "IN SERVICE", "COUNTY": "FALLON", "COUNTYFIPS": "30025", "COUNTRY": "USA", "LATITUDE": 46.394328862951802, "LONGITUDE": -104.286269393059, "NAICS_CODE": "486210", "NAICS_DESC": "BOOSTER PUMPING STATION, NATURAL GAS TRANSPORTATION", "SOURCE": "FERC FORM 2, MONTANA DEPARTMENT OF ENVIRONMENTAL QUALITY", "SOURCEDATE": "Wed, 15 Jul 2020 00:00:00 GMT", "VAL_METHOD": "IMAGERY/OTHER", "VAL_DATE": "Fri, 24 Jun 2022 00:00:00 GMT", "WEBSITE": "http://deq.mt.gov/", "PIPECO": "WILLISTON BASIN INTERSTATE PIPELINE COMPANY", "COMPID": "49", "OPERATOR": "WILLISTON BASIN INTERSTATE PIPELINE COMPANY", "POSREL": "WITHIN 40 FEET", "NUM_UNITS": 3, "CERT_HP": 5040, "PLANT_COST": 7316311, "EXP_FUEL": 99899, "EXP_OTHER": 67848, "GAS_COMPRE": 34271, "OP_COMP_HR": 3288, "OP_NUM_COM": 2, "OP_DATE_PE": "Sat, 22 Dec 2012 00:00:00 GMT", "EXP_POWER": 0, "ELEC_COMPR": 0 }, "geometry": { "type": "Point", "coordinates": [ -104.286269393, 46.394328863 ] } },
{ "type": "Feature", "properties": { "OBJECTID": 338, "GCOMPID": "GCOMP1302", "NAME": "SACO", "ADDRESS": "SOUTH OF US-2/EAST OF BEAVERTON ROAD; BTW BEAVERTON ROAD, BEAVERTON E", "CITY": "HINSDALE", "STATE": "MT", "ZIP": "59241", "ZIP4": "NOT AVAILABLE", "TYPE": "NATURAL GAS COMPRESSOR STATION", "STATUS": "IN SERVICE", "COUNTY": "VALLEY", "COUNTYFIPS": "30105", "COUNTRY": "USA", "LATITUDE": 48.443467, "LONGITUDE": -107.247278, "NAICS_CODE": "486210", "NAICS_DESC": "BOOSTER PUMPING STATION, NATURAL GAS TRANSPORTATION", "SOURCE": "FERC FORM 2, MONTANA DEPARTMENT OF ENVIRONMENTAL QUALITY", "SOURCEDATE": "Fri, 14 Aug 2015 00:00:00 GMT", "VAL_METHOD": "IMAGERY/OTHER", "VAL_DATE": "Fri, 17 Jun 2022 00:00:00 GMT", "WEBSITE": "http://transmission.wbienergy.com/", "PIPECO": "WILLISTON BASIN INTERSTATE PIPELINE COMPANY", "COMPID": "49", "OPERATOR": "WILLISTON BASIN INTERSTATE PIPELINE COMPANY", "POSREL": "WITHIN 40 FEET", "NUM_UNITS": 5, "CERT_HP": 3360, "PLANT_COST": 6998474, "EXP_FUEL": 237938, "EXP_OTHER": 610948, "GAS_COMPRE": 91731, "OP_COMP_HR": 27310, "OP_NUM_COM": 4, "OP_DATE_PE": "Fri, 31 Jan 2020 00:00:00 GMT", "EXP_POWER": 344010, "ELEC_COMPR": 2965800 }, "geometry": { "type": "Point", "coordinates": [ -107.247278, 48.443467 ] } },
{ "type": "Feature", "properties": { "OBJECTID": 360, "GCOMPID": "GCOMP1322", "NAME": "LITTLE BEAVER", "ADDRESS": "T4N R62E S18 SE (NE OF LITTLE BEAVER ROAD)", "CITY": "BAKER", "STATE": "MT", "ZIP": "59313", "ZIP4": "NOT AVAILABLE", "TYPE": "NATURAL GAS COMPRESSOR STATION", "STATUS": "IN SERVICE", "COUNTY": "FALLON", "COUNTYFIPS": "30025", "COUNTRY": "USA", "LATITUDE": 46.097746334999997, "LONGITUDE": -104.064865794, "NAICS_CODE": "486210", "NAICS_DESC": "BOOSTER PUMPING STATION, NATURAL GAS TRANSPORTATION", "SOURCE": "FERC FORM 2, MONTANA DEPARTMENT OF ENVIRONMENTAL QUALITY", "SOURCEDATE": "Fri, 14 Aug 2015 00:00:00 GMT", "VAL_METHOD": "IMAGERY/OTHER", "VAL_DATE": "Tue, 07 Jun 2022 00:00:00 GMT", "WEBSITE": "http://transmission.wbienergy.com/", "PIPECO": "WILLISTON BASIN INTERSTATE PIPELINE COMPANY", "COMPID": "49", "OPERATOR": "WILLISTON BASIN INTERSTATE PIPELINE COMPANY", "POSREL": "WITHIN 40 FEET", "NUM_UNITS": 4, "CERT_HP": 4100, "PLANT_COST": 7027478, "EXP_FUEL": 42854, "EXP_OTHER": 296290, "GAS_COMPRE": 16266, "OP_COMP_HR": 1478, "OP_NUM_COM": 3, "OP_DATE_PE": "Wed, 18 Jan 2012 00:00:00 GMT", "EXP_POWER": 0, "ELEC_COMPR": 0 }, "geometry": { "type": "Point", "coordinates": [ -104.064865794, 46.097746335000103 ] } },
{ "type": "Feature", "properties": { "OBJECTID": 414, "GCOMPID": "GCOMP140", "NAME": "WILLISTON", "ADDRESS": "13369 56TH STREET NW; SE1/4 SW1/4 S20-T155N-R100W", "CITY": "WILLISTON", "STATE": "ND", "ZIP": "58801", "ZIP4": "NOT AVAILABLE", "TYPE": "NATURAL GAS COMPRESSOR STATION", "STATUS": "IN SERVICE", "COUNTY": "WILLIAMS", "COUNTYFIPS": "38105", "COUNTRY": "USA", "LATITUDE": 48.227672, "LONGITUDE": -103.575721, "NAICS_CODE": "486210", "NAICS_DESC": "BOOSTER PUMPING STATION, NATURAL GAS TRANSPORTATION", "SOURCE": "EPA ENVIROFACTS, FERC FORM 2, CORPORATE WEBSITE", "SOURCEDATE": "Fri, 14 Aug 2015 00:00:00 GMT", "VAL_METHOD": "IMAGERY/OTHER", "VAL_DATE": "Fri, 24 Jun 2022 00:00:00 GMT", "WEBSITE": "http://transmission.wbienergy.com/", "PIPECO": "WILLISTON BASIN INTERSTATE PIPELINE COMPANY", "COMPID": "49", "OPERATOR": "WILLISTON BASIN INTERSTATE PIPELINE COMPANY", "POSREL": "WITHIN 40 FEET", "NUM_UNITS": 1, "CERT_HP": 1005, "PLANT_COST": 2294450, "EXP_FUEL": 110461, "EXP_OTHER": 161094, "GAS_COMPRE": 42373, "OP_COMP_HR": 6763, "OP_NUM_COM": 1, "OP_DATE_PE": "Sat, 15 Dec 2012 00:00:00 GMT", "EXP_POWER": 0, "ELEC_COMPR": 0 }, "geometry": { "type": "Point", "coordinates": [ -103.575721, 48.227672 ] } },
{ "type": "Feature", "properties": { "OBJECTID": 417, "GCOMPID": "GCOMP143", "NAME": "MORGAN CREEK", "ADDRESS": "1343 MT-16", "CITY": "GLENDIVE", "STATE": "MT", "ZIP": "59330", "ZIP4": "NOT AVAILABLE", "TYPE": "NATURAL GAS COMPRESSOR STATION", "STATUS": "IN SERVICE", "COUNTY": "DAWSON", "COUNTYFIPS": "30021", "COUNTRY": "USA", "LATITUDE": 47.270905, "LONGITUDE": -104.610779, "NAICS_CODE": "486210", "NAICS_DESC": "BOOSTER PUMPING STATION, NATURAL GAS TRANSPORTATION", "SOURCE": "FERC FORM 2, MONTANA DEPARTMENT OF ENVIRONMENTAL QUALITY", "SOURCEDATE": "Fri, 14 Aug 2015 00:00:00 GMT", "VAL_METHOD": "IMAGERY/OTHER", "VAL_DATE": "Mon, 06 Jun 2022 00:00:00 GMT", "WEBSITE": "http://transmission.wbienergy.com/", "PIPECO": "WILLISTON BASIN INTERSTATE PIPELINE COMPANY", "COMPID": "49", "OPERATOR": "WILLISTON BASIN INTERSTATE PIPELINE COMPANY", "POSREL": "WITHIN 40 FEET", "NUM_UNITS": 3, "CERT_HP": 2400, "PLANT_COST": 2661745, "EXP_FUEL": 154229, "EXP_OTHER": 131872, "GAS_COMPRE": 58513, "OP_COMP_HR": 10571, "OP_NUM_COM": 3, "OP_DATE_PE": "Sat, 25 Aug 2012 00:00:00 GMT", "EXP_POWER": 0, "ELEC_COMPR": 0 }, "geometry": { "type": "Point", "coordinates": [ -104.610779, 47.270905 ] } },
{ "type": "Feature", "properties": { "OBJECTID": 476, "GCOMPID": "GCOMP197", "NAME": "CHARBONNEAU", "ADDRESS": "15359 36TH STREET NW", "CITY": "CARTWRIGHT", "STATE": "ND", "ZIP": "58838", "ZIP4": "NOT AVAILABLE", "TYPE": "NATURAL GAS COMPRESSOR STATION", "STATUS": "IN SERVICE", "COUNTY": "MCKENZIE", "COUNTYFIPS": "38053", "COUNTRY": "USA", "LATITUDE": 47.929420268999998, "LONGITUDE": -103.87385107599999, "NAICS_CODE": "486210", "NAICS_DESC": "BOOSTER PUMPING STATION, NATURAL GAS TRANSPORTATION", "SOURCE": "EPA ENVIROFACTS, FERC FORM 2, CORPORATE WEBSITE", "SOURCEDATE": "Wed, 15 Jul 2020 00:00:00 GMT", "VAL_METHOD": "IMAGERY/OTHER", "VAL_DATE": "Fri, 17 Jun 2022 00:00:00 GMT", "WEBSITE": "http://transmission.wbienergy.com/", "PIPECO": "WILLISTON BASIN INTERSTATE PIPELINE COMPANY", "COMPID": "49", "OPERATOR": "WILLISTON BASIN INTERSTATE PIPELINE COMPANY", "POSREL": "WITHIN 40 FEET", "NUM_UNITS": 6, "CERT_HP": 19500, "PLANT_COST": 72133495, "EXP_FUEL": 1281242, "EXP_OTHER": 1775172, "GAS_COMPRE": 696519, "OP_COMP_HR": 27681, "OP_NUM_COM": 6, "OP_DATE_PE": "Mon, 06 Aug 2012 00:00:00 GMT", "EXP_POWER": 0, "ELEC_COMPR": 0 }, "geometry": { "type": "Point", "coordinates": [ -103.873851076, 47.929420269 ] } },
{ "type": "Feature", "properties": { "OBJECTID": 510, "GCOMPID": "GCOMP227", "NAME": "CABIN CREEK", "ADDRESS": "1629 CABIN CREEK ROAD", "CITY": "BAKER", "STATE": "MT", "ZIP": "59313", "ZIP4": "NOT AVAILABLE", "TYPE": "NATURAL GAS COMPRESSOR STATION", "STATUS": "IN SERVICE", "COUNTY": "FALLON", "COUNTYFIPS": "30025", "COUNTRY": "USA", "LATITUDE": 46.613814014, "LONGITUDE": -104.418951519, "NAICS_CODE": "486210", "NAICS_DESC": "BOOSTER PUMPING STATION, NATURAL GAS TRANSPORTATION", "SOURCE": "FERC FORM 2, MONTANA DEPARTMENT OF ENVIRONMENTAL QUALITY", "SOURCEDATE": "Wed, 15 Jul 2020 00:00:00 GMT", "VAL_METHOD": "IMAGERY/OTHER", "VAL_DATE": "Tue, 07 Jun 2022 00:00:00 GMT", "WEBSITE": "http://transmission.wbienergy.com/", "PIPECO": "WILLISTON BASIN INTERSTATE PIPELINE COMPANY", "COMPID": "49", "OPERATOR": "WILLISTON BASIN INTERSTATE PIPELINE COMPANY", "POSREL": "WITHIN 40 FEET", "NUM_UNITS": 10, "CERT_HP": 14144, "PLANT_COST": 15591092, "EXP_FUEL": 1272310, "EXP_OTHER": 804128, "GAS_COMPRE": 465133, "OP_COMP_HR": 24816, "OP_NUM_COM": 8, "OP_DATE_PE": "Fri, 28 Dec 2012 00:00:00 GMT", "EXP_POWER": 0, "ELEC_COMPR": 0 }, "geometry": { "type": "Point", "coordinates": [ -104.418943504940927, 46.613814757047102 ] } },
{ "type": "Feature", "properties": { "OBJECTID": 518, "GCOMPID": "GCOMP234", "NAME": "BELLE FOURCHE", "ADDRESS": "16636 WILLISTON BASIN LOOP", "CITY": "BELLE FOURCHE", "STATE": "SD", "ZIP": "57717", "ZIP4": "NOT AVAILABLE", "TYPE": "NATURAL GAS COMPRESSOR STATION", "STATUS": "IN SERVICE", "COUNTY": "BUTTE", "COUNTYFIPS": "46019", "COUNTRY": "USA", "LATITUDE": 44.990224019000003, "LONGITUDE": -103.933236814, "NAICS_CODE": "486210", "NAICS_DESC": "BOOSTER PUMPING STATION, NATURAL GAS TRANSPORTATION", "SOURCE": "FERC FORM 2, CORPORATE WEBSITE", "SOURCEDATE": "Wed, 15 Jul 2020 00:00:00 GMT", "VAL_METHOD": "IMAGERY/OTHER", "VAL_DATE": "Mon, 06 Jun 2022 00:00:00 GMT", "WEBSITE": "http://transmission.wbienergy.com/", "PIPECO": "WILLISTON BASIN INTERSTATE PIPELINE COMPANY", "COMPID": "49", "OPERATOR": "WILLISTON BASIN INTERSTATE PIPELINE COMPANY", "POSREL": "WITHIN 40 FEET", "NUM_UNITS": 5, "CERT_HP": 3520, "PLANT_COST": 3587220, "EXP_FUEL": 99022, "EXP_OTHER": 258525, "GAS_COMPRE": 34741, "OP_COMP_HR": 5177, "OP_NUM_COM": 3, "OP_DATE_PE": "Sat, 11 Feb 2012 00:00:00 GMT", "EXP_POWER": 0, "ELEC_COMPR": 0 }, "geometry": { "type": "Point", "coordinates": [ -103.933236814, 44.990224019 ] } },
{ "type": "Feature", "properties": { "OBJECTID": 523, "GCOMPID": "GCOMP239", "NAME": "GOLVA", "ADDRESS": "167TH AVENUE SW/49 STREET SW", "CITY": "GOLVA", "STATE": "ND", "ZIP": "58632", "ZIP4": "NOT AVAILABLE", "TYPE": "NATURAL GAS COMPRESSOR STATION", "STATUS": "IN SERVICE", "COUNTY": "GOLDEN VALLEY", "COUNTYFIPS": "38033", "COUNTRY": "USA", "LATITUDE": 46.704771991000001, "LONGITUDE": -103.96672691400001, "NAICS_CODE": "486210", "NAICS_DESC": "BOOSTER PUMPING STATION, NATURAL GAS TRANSPORTATION", "SOURCE": "FERC FORM 2, CORPORATE WEBSITE", "SOURCEDATE": "Wed, 15 Jul 2020 00:00:00 GMT", "VAL_METHOD": "IMAGERY/OTHER", "VAL_DATE": "Tue, 07 Jun 2022 00:00:00 GMT", "WEBSITE": "http://transmission.wbienergy.com/", "PIPECO": "WILLISTON BASIN INTERSTATE PIPELINE COMPANY", "COMPID": "49", "OPERATOR": "WILLISTON BASIN INTERSTATE PIPELINE COMPANY", "POSREL": "WITHIN 40 FEET", "NUM_UNITS": 2, "CERT_HP": 7100, "PLANT_COST": 11192509, "EXP_FUEL": 5909, "EXP_OTHER": 74354, "GAS_COMPRE": 2150, "OP_COMP_HR": 0, "OP_NUM_COM": 0, "OP_DATE_PE": "Wed, 15 Jul 2020 00:00:00 GMT", "EXP_POWER": 0, "ELEC_COMPR": 0 }, "geometry": { "type": "Point", "coordinates": [ -103.966726914, 46.704771991 ] } },
{ "type": "Feature", "properties": { "OBJECTID": 621, "GCOMPID": "GCOMP327", "NAME": "LOVELL", "ADDRESS": "2046 US-14A", "CITY": "LOVELL", "STATE": "WY", "ZIP": "82431", "ZIP4": "NOT AVAILABLE", "TYPE": "NATURAL GAS COMPRESSOR STATION", "STATUS": "IN SERVICE", "COUNTY": "BIG HORN", "COUNTYFIPS": "56003", "COUNTRY": "USA", "LATITUDE": 44.836409, "LONGITUDE": -108.407741, "NAICS_CODE": "486210", "NAICS_DESC": "BOOSTER PUMPING STATION, NATURAL GAS TRANSPORTATION", "SOURCE": "EPA ENVIROFACTS, FERC FORM 2, CORPORATE WEBSITE", "SOURCEDATE": "Wed, 15 Jul 2020 00:00:00 GMT", "VAL_METHOD": "IMAGERY/OTHER", "VAL_DATE": "Mon, 06 Jun 2022 00:00:00 GMT", "WEBSITE": "http://transmission.wbienergy.com/", "PIPECO": "WILLISTON BASIN INTERSTATE PIPELINE COMPANY", "COMPID": "49", "OPERATOR": "WILLISTON BASIN INTERSTATE PIPELINE COMPANY", "POSREL": "WITHIN 40 FEET", "NUM_UNITS": 2, "CERT_HP": 1600, "PLANT_COST": 2644156, "EXP_FUEL": 4948, "EXP_OTHER": 136711, "GAS_COMPRE": 1786, "OP_COMP_HR": 69, "OP_NUM_COM": 2, "OP_DATE_PE": "Sun, 22 Jan 2012 00:00:00 GMT", "EXP_POWER": 0, "ELEC_COMPR": 0 }, "geometry": { "type": "Point", "coordinates": [ -108.407741, 44.836409000000103 ] } },
{ "type": "Feature", "properties": { "OBJECTID": 626, "GCOMPID": "GCOMP331", "NAME": "DICKINSON", "ADDRESS": "2069 MAIN S", "CITY": "DICKINSON", "STATE": "ND", "ZIP": "58601", "ZIP4": "NOT AVAILABLE", "TYPE": "NATURAL GAS COMPRESSOR STATION", "STATUS": "IN SERVICE", "COUNTY": "STARK", "COUNTYFIPS": "38089", "COUNTRY": "USA", "LATITUDE": 46.846147917000003, "LONGITUDE": -102.78833071, "NAICS_CODE": "486210", "NAICS_DESC": "BOOSTER PUMPING STATION, NATURAL GAS TRANSPORTATION", "SOURCE": "EPA ENVIROFACTS, FERC FORM 2, CORPORATE WEBSITE", "SOURCEDATE": "Wed, 15 Jul 2020 00:00:00 GMT", "VAL_METHOD": "IMAGERY/OTHER", "VAL_DATE": "Fri, 17 Jun 2022 00:00:00 GMT", "WEBSITE": "http://transmission.wbienergy.com/", "PIPECO": "WILLISTON BASIN INTERSTATE PIPELINE COMPANY", "COMPID": "49", "OPERATOR": "WILLISTON BASIN INTERSTATE PIPELINE COMPANY", "POSREL": "WITHIN 40 FEET", "NUM_UNITS": 4, "CERT_HP": 3230, "PLANT_COST": 2250034, "EXP_FUEL": 21648, "EXP_OTHER": 267887, "GAS_COMPRE": 7907, "OP_COMP_HR": 1447, "OP_NUM_COM": 3, "OP_DATE_PE": "Sat, 29 Dec 2012 00:00:00 GMT", "EXP_POWER": 857, "ELEC_COMPR": 1611 }, "geometry": { "type": "Point", "coordinates": [ -102.78833071, 46.846147917 ] } },
{ "type": "Feature", "properties": { "OBJECTID": 649, "GCOMPID": "GCOMP352", "NAME": "HARDIN", "ADDRESS": "2185 MT-384", "CITY": "CROW AGENCY", "STATE": "MT", "ZIP": "59022", "ZIP4": "NOT AVAILABLE", "TYPE": "NATURAL GAS COMPRESSOR STATION", "STATUS": "IN SERVICE", "COUNTY": "BIG HORN", "COUNTYFIPS": "30003", "COUNTRY": "USA", "LATITUDE": 45.73897799, "LONGITUDE": -107.54547611300001, "NAICS_CODE": "486210", "NAICS_DESC": "BOOSTER PUMPING STATION, NATURAL GAS TRANSPORTATION", "SOURCE": "EPA ENVIROFACTS, FERC FORM 2, CORPORATE WEBSITE", "SOURCEDATE": "Wed, 15 Jul 2020 00:00:00 GMT", "VAL_METHOD": "IMAGERY/OTHER", "VAL_DATE": "Mon, 06 Jun 2022 00:00:00 GMT", "WEBSITE": "http://transmission.wbienergy.com/", "PIPECO": "WILLISTON BASIN INTERSTATE PIPELINE COMPANY", "COMPID": "49", "OPERATOR": "WILLISTON BASIN INTERSTATE PIPELINE COMPANY", "POSREL": "WITHIN 40 FEET", "NUM_UNITS": 4, "CERT_HP": 2640, "PLANT_COST": 2439256, "EXP_FUEL": 356129, "EXP_OTHER": 427136, "GAS_COMPRE": 135277, "OP_COMP_HR": 21782, "OP_NUM_COM": 4, "OP_DATE_PE": "Wed, 08 Feb 2012 00:00:00 GMT", "EXP_POWER": 0, "ELEC_COMPR": 0 }, "geometry": { "type": "Point", "coordinates": [ -107.545476113, 45.738977990000102 ] } },
{ "type": "Feature", "properties": { "OBJECTID": 676, "GCOMPID": "GCOMP377", "NAME": "FORT PECK", "ADDRESS": "23 MDU ROAD", "CITY": "NASHUA", "STATE": "MT", "ZIP": "59248", "ZIP4": "9100", "TYPE": "NATURAL GAS COMPRESSOR STATION", "STATUS": "IN SERVICE", "COUNTY": "VALLEY", "COUNTYFIPS": "30105", "COUNTRY": "USA", "LATITUDE": 48.061698163000003, "LONGITUDE": -106.43172590899999, "NAICS_CODE": "486210", "NAICS_DESC": "BOOSTER PUMPING STATION, NATURAL GAS TRANSPORTATION", "SOURCE": "FERC FORM 2, MONTANA DEPARTMENT OF ENVIRONMENTAL QUALITY", "SOURCEDATE": "Wed, 15 Jul 2020 00:00:00 GMT", "VAL_METHOD": "IMAGERY/OTHER", "VAL_DATE": "Fri, 17 Jun 2022 00:00:00 GMT", "WEBSITE": "http://transmission.wbienergy.com/", "PIPECO": "WILLISTON BASIN INTERSTATE PIPELINE COMPANY", "COMPID": "49", "OPERATOR": "WILLISTON BASIN INTERSTATE PIPELINE COMPANY", "POSREL": "WITHIN 40 FEET", "NUM_UNITS": 3, "CERT_HP": 2400, "PLANT_COST": 4362231, "EXP_FUEL": 278346, "EXP_OTHER": 534685, "GAS_COMPRE": 107861, "OP_COMP_HR": 16676, "OP_NUM_COM": 3, "OP_DATE_PE": "Wed, 04 Apr 2012 00:00:00 GMT", "EXP_POWER": 0, "ELEC_COMPR": 0 }, "geometry": { "type": "Point", "coordinates": [ -106.431725909, 48.061698163000102 ] } },
{ "type": "Feature", "properties": { "OBJECTID": 704, "GCOMPID": "GCOMP401", "NAME": "LANDECK", "ADDRESS": "24 TAYLOR ROAD", "CITY": "GILLETTE", "STATE": "WY", "ZIP": "82716", "ZIP4": "NOT AVAILABLE", "TYPE": "NATURAL GAS COMPRESSOR STATION", "STATUS": "IN SERVICE", "COUNTY": "CAMPBELL", "COUNTYFIPS": "56005", "COUNTRY": "USA", "LATITUDE": 44.506285355000003, "LONGITUDE": -105.62790899700001, "NAICS_CODE": "486210", "NAICS_DESC": "BOOSTER PUMPING STATION, NATURAL GAS TRANSPORTATION", "SOURCE": "EPA ENVIROFACTS, FERC FORM 2, CORPORATE WEBSITE", "SOURCEDATE": "Wed, 15 Jul 2020 00:00:00 GMT", "VAL_METHOD": "IMAGERY/OTHER", "VAL_DATE": "Tue, 07 Jun 2022 00:00:00 GMT", "WEBSITE": "http://transmission.wbienergy.com/", "PIPECO": "WILLISTON BASIN INTERSTATE PIPELINE COMPANY", "COMPID": "49", "OPERATOR": "WILLISTON BASIN INTERSTATE PIPELINE COMPANY", "POSREL": "WITHIN 40 FEET", "NUM_UNITS": 1, "CERT_HP": 1478, "PLANT_COST": 654732, "EXP_FUEL": 12690, "EXP_OTHER": 9185, "GAS_COMPRE": 3941, "OP_COMP_HR": 741, "OP_NUM_COM": 1, "OP_DATE_PE": "Wed, 05 Dec 2012 00:00:00 GMT", "EXP_POWER": 0, "ELEC_COMPR": 0 }, "geometry": { "type": "Point", "coordinates": [ -105.627908997, 44.506285355 ] } },
{ "type": "Feature", "properties": { "OBJECTID": 880, "GCOMPID": "GCOMP560", "NAME": "STEELE", "ADDRESS": "3764 ND-3", "CITY": "STEELE", "STATE": "ND", "ZIP": "58482", "ZIP4": "NOT AVAILABLE", "TYPE": "NATURAL GAS COMPRESSOR STATION", "STATUS": "IN SERVICE", "COUNTY": "KIDDER", "COUNTYFIPS": "38043", "COUNTRY": "USA", "LATITUDE": 46.871357953934996, "LONGITUDE": -99.921131783320902, "NAICS_CODE": "486210", "NAICS_DESC": "BOOSTER PUMPING STATION, NATURAL GAS TRANSPORTATION", "SOURCE": "FERC FORM 2, U.S. FEDERAL REGISTER", "SOURCEDATE": "Wed, 15 Jul 2020 00:00:00 GMT", "VAL_METHOD": "IMAGERY/OTHER", "VAL_DATE": "Fri, 24 Jun 2022 00:00:00 GMT", "WEBSITE": "http://transmission.wbienergy.com/", "PIPECO": "WILLISTON BASIN INTERSTATE PIPELINE COMPANY", "COMPID": "49", "OPERATOR": "WILLISTON BASIN INTERSTATE PIPELINE COMPANY", "POSREL": "WITHIN 40 FEET", "NUM_UNITS": 4, "CERT_HP": 45400, "PLANT_COST": 127350667, "EXP_FUEL": 1802108, "EXP_OTHER": 0, "GAS_COMPRE": 778108, "OP_COMP_HR": 9046, "OP_NUM_COM": 0, "OP_DATE_PE": "Mon, 22 Oct 2012 00:00:00 GMT", "EXP_POWER": 378848, "ELEC_COMPR": 5856577 }, "geometry": { "type": "Point", "coordinates": [ -99.921131783, 46.871357954000104 ] } },
{ "type": "Feature", "properties": { "OBJECTID": 887, "GCOMPID": "GCOMP567", "NAME": "WORLAND", "ADDRESS": "385 US-16", "CITY": "WORLAND", "STATE": "WY", "ZIP": "82401", "ZIP4": "NOT AVAILABLE", "TYPE": "NATURAL GAS COMPRESSOR STATION", "STATUS": "IN SERVICE", "COUNTY": "WASHAKIE", "COUNTYFIPS": "56043", "COUNTRY": "USA", "LATITUDE": 44.127597715945598, "LONGITUDE": -107.90729919574299, "NAICS_CODE": "486210", "NAICS_DESC": "BOOSTER PUMPING STATION, NATURAL GAS TRANSPORTATION", "SOURCE": "EPA ENVIROFACTS, FERC FORM 2, CORPORATE WEBSITE", "SOURCEDATE": "Wed, 15 Jul 2020 00:00:00 GMT", "VAL_METHOD": "IMAGERY/OTHER", "VAL_DATE": "Fri, 24 Jun 2022 00:00:00 GMT", "WEBSITE": "http://transmission.wbienergy.com/", "PIPECO": "WILLISTON BASIN INTERSTATE PIPELINE COMPANY", "COMPID": "49", "OPERATOR": "WILLISTON BASIN INTERSTATE PIPELINE COMPANY", "POSREL": "WITHIN 40 FEET", "NUM_UNITS": 5, "CERT_HP": 37300, "PLANT_COST": 210518724, "EXP_FUEL": 2509688, "EXP_OTHER": 0, "GAS_COMPRE": 1195819, "OP_COMP_HR": 14380, "OP_NUM_COM": 0, "OP_DATE_PE": "Thu, 01 Mar 2012 00:00:00 GMT", "EXP_POWER": 0, "ELEC_COMPR": 0 }, "geometry": { "type": "Point", "coordinates": [ -107.907299196, 44.127597716 ] } },
{ "type": "Feature", "properties": { "OBJECTID": 1065, "GCOMPID": "GCOMP729", "NAME": "ELK BASIN", "ADDRESS": "59 CUNNINGHAM LANE", "CITY": "POWELL", "STATE": "WY", "ZIP": "82435", "ZIP4": "NOT AVAILABLE", "TYPE": "NATURAL GAS COMPRESSOR STATION", "STATUS": "IN SERVICE", "COUNTY": "PARK", "COUNTYFIPS": "56029", "COUNTRY": "USA", "LATITUDE": 44.991845, "LONGITUDE": -108.866218, "NAICS_CODE": "486210", "NAICS_DESC": "BOOSTER PUMPING STATION, NATURAL GAS TRANSPORTATION", "SOURCE": "EPA ENVIROFACTS, FERC FORM 2, CORPORATE WEBSITE", "SOURCEDATE": "Wed, 15 Jul 2020 00:00:00 GMT", "VAL_METHOD": "IMAGERY/OTHER", "VAL_DATE": "Fri, 17 Jun 2022 00:00:00 GMT", "WEBSITE": "http://transmission.wbienergy.com/", "PIPECO": "WILLISTON BASIN INTERSTATE PIPELINE COMPANY", "COMPID": "49", "OPERATOR": "WILLISTON BASIN INTERSTATE PIPELINE COMPANY", "POSREL": "WITHIN 40 FEET", "NUM_UNITS": 3, "CERT_HP": 2400, "PLANT_COST": 9744386, "EXP_FUEL": 195265, "EXP_OTHER": 860776, "GAS_COMPRE": 69688, "OP_COMP_HR": 13218, "OP_NUM_COM": 3, "OP_DATE_PE": "Thu, 13 Sep 2012 00:00:00 GMT", "EXP_POWER": 1166, "ELEC_COMPR": 25613 }, "geometry": { "type": "Point", "coordinates": [ -108.866218, 44.991845 ] } },
{ "type": "Feature", "properties": { "OBJECTID": 1067, "GCOMPID": "GCOMP730", "NAME": "VIDA", "ADDRESS": "593 MT-201; N1/2 NE1/4 SEC 27 T25N R49E", "CITY": "VIDA", "STATE": "MT", "ZIP": "59274", "ZIP4": "NOT AVAILABLE", "TYPE": "NATURAL GAS COMPRESSOR STATION", "STATUS": "IN SERVICE", "COUNTY": "MCCONE", "COUNTYFIPS": "30055", "COUNTRY": "USA", "LATITUDE": 47.896651706999997, "LONGITUDE": -105.372902845, "NAICS_CODE": "486210", "NAICS_DESC": "BOOSTER PUMPING STATION, NATURAL GAS TRANSPORTATION", "SOURCE": "FERC FORM 2, MONTANA DEPARTMENT OF ENVIRONMENTAL QUALITY", "SOURCEDATE": "Wed, 15 Jul 2020 00:00:00 GMT", "VAL_METHOD": "IMAGERY/OTHER", "VAL_DATE": "Tue, 07 Jun 2022 00:00:00 GMT", "WEBSITE": "http://transmission.wbienergy.com/", "PIPECO": "WILLISTON BASIN INTERSTATE PIPELINE COMPANY", "COMPID": "49", "OPERATOR": "WILLISTON BASIN INTERSTATE PIPELINE COMPANY", "POSREL": "WITHIN 40 FEET", "NUM_UNITS": 4, "CERT_HP": 2400, "PLANT_COST": 2120446, "EXP_FUEL": 4509, "EXP_OTHER": 97282, "GAS_COMPRE": 1701, "OP_COMP_HR": 0, "OP_NUM_COM": 0, "OP_DATE_PE": null, "EXP_POWER": 0, "ELEC_COMPR": 0 }, "geometry": { "type": "Point", "coordinates": [ -105.372902845, 47.896651707 ] } },
{ "type": "Feature", "properties": { "OBJECTID": 1072, "GCOMPID": "GCOMP735", "NAME": "CLEVELAND", "ADDRESS": "6005 35TH STREET SE; NE1/4 S31-T140N-R67W", "CITY": "CLEVELAND", "STATE": "ND", "ZIP": "58424", "ZIP4": "NOT AVAILABLE", "TYPE": "NATURAL GAS COMPRESSOR STATION", "STATUS": "IN SERVICE", "COUNTY": "STUTSMAN", "COUNTYFIPS": "38093", "COUNTRY": "USA", "LATITUDE": 46.904896, "LONGITUDE": -99.179051, "NAICS_CODE": "486210", "NAICS_DESC": "BOOSTER PUMPING STATION, NATURAL GAS TRANSPORTATION", "SOURCE": "EPA ENVIROFACTS, FERC FORM 2, CORPORATE WEBSITE", "SOURCEDATE": "Wed, 15 Jul 2020 00:00:00 GMT", "VAL_METHOD": "IMAGERY/OTHER", "VAL_DATE": "Fri, 17 Jun 2022 00:00:00 GMT", "WEBSITE": "http://transmission.wbienergy.com/", "PIPECO": "WILLISTON BASIN INTERSTATE PIPELINE COMPANY", "COMPID": "49", "OPERATOR": "WILLISTON BASIN INTERSTATE PIPELINE COMPANY", "POSREL": "WITHIN 40 FEET", "NUM_UNITS": 7, "CERT_HP": 81500, "PLANT_COST": 160592402, "EXP_FUEL": 10781, "EXP_OTHER": 2931092, "GAS_COMPRE": 5624, "OP_COMP_HR": 24530, "OP_NUM_COM": 2, "OP_DATE_PE": "Tue, 18 Dec 2012 00:00:00 GMT", "EXP_POWER": 0, "ELEC_COMPR": 0 }, "geometry": { "type": "Point", "coordinates": [ -99.179051, 46.9048960000001 ] } },
{ "type": "Feature", "properties": { "OBJECTID": 1092, "GCOMPID": "GCOMP753", "NAME": "BAKER", "ADDRESS": "63 BERWALD ROAD; P.O. BOX 1527", "CITY": "BAKER", "STATE": "MT", "ZIP": "59313", "ZIP4": "1527", "TYPE": "NATURAL GAS COMPRESSOR STATION", "STATUS": "IN SERVICE", "COUNTY": "FALLON", "COUNTYFIPS": "30025", "COUNTRY": "USA", "LATITUDE": 46.36903, "LONGITUDE": -104.26116, "NAICS_CODE": "486210", "NAICS_DESC": "BOOSTER PUMPING STATION, NATURAL GAS TRANSPORTATION", "SOURCE": "FERC FORM 2, MONTANA DEPARTMENT OF ENVIRONMENTAL QUALITY", "SOURCEDATE": "Wed, 15 Jul 2020 00:00:00 GMT", "VAL_METHOD": "IMAGERY/OTHER", "VAL_DATE": "Mon, 06 Jun 2022 00:00:00 GMT", "WEBSITE": "http://transmission.wbienergy.com/", "PIPECO": "WILLISTON BASIN INTERSTATE PIPELINE COMPANY", "COMPID": "49", "OPERATOR": "WILLISTON BASIN INTERSTATE PIPELINE COMPANY", "POSREL": "WITHIN 40 FEET", "NUM_UNITS": 7, "CERT_HP": 4780, "PLANT_COST": 3944618, "EXP_FUEL": 118191, "EXP_OTHER": 238178, "GAS_COMPRE": 44210, "OP_COMP_HR": 19211, "OP_NUM_COM": 5, "OP_DATE_PE": "Fri, 20 Jan 2012 00:00:00 GMT", "EXP_POWER": 89742, "ELEC_COMPR": 1653600 }, "geometry": { "type": "Point", "coordinates": [ -104.26116, 46.369030000000102 ] } },
{ "type": "Feature", "properties": { "OBJECTID": 1236, "GCOMPID": "GCOMP883", "NAME": "BISMARCK", "ADDRESS": "850 57TH AVENUE NW", "CITY": "BISMARCK", "STATE": "ND", "ZIP": "58503", "ZIP4": "NOT AVAILABLE", "TYPE": "NATURAL GAS COMPRESSOR STATION", "STATUS": "IN SERVICE", "COUNTY": "BURLEIGH", "COUNTYFIPS": "38015", "COUNTRY": "USA", "LATITUDE": 46.867573268999998, "LONGITUDE": -100.80507588099999, "NAICS_CODE": "486210", "NAICS_DESC": "BOOSTER PUMPING STATION, NATURAL GAS TRANSPORTATION", "SOURCE": "EPA ENVIROFACTS, FERC FORM 2, CORPORATE WEBSITE", "SOURCEDATE": "Wed, 15 Jul 2020 00:00:00 GMT", "VAL_METHOD": "IMAGERY/OTHER", "VAL_DATE": "Mon, 06 Jun 2022 00:00:00 GMT", "WEBSITE": "http://transmission.wbienergy.com/", "PIPECO": "WILLISTON BASIN INTERSTATE PIPELINE COMPANY", "COMPID": "49", "OPERATOR": "WILLISTON BASIN INTERSTATE PIPELINE COMPANY", "POSREL": "WITHIN 40 FEET", "NUM_UNITS": 4, "CERT_HP": 4991, "PLANT_COST": 6199435, "EXP_FUEL": 833168, "EXP_OTHER": 373494, "GAS_COMPRE": 317355, "OP_COMP_HR": 25615, "OP_NUM_COM": 3, "OP_DATE_PE": "Tue, 10 Jul 2012 00:00:00 GMT", "EXP_POWER": 0, "ELEC_COMPR": 0 }, "geometry": { "type": "Point", "coordinates": [ -100.805075881, 46.867573269 ] } },
{ "type": "Feature", "properties": { "OBJECTID": 1243, "GCOMPID": "GCOMP89", "NAME": "BILLY CREEK", "ADDRESS": "115 BILLY CREEK ROAD", "CITY": "BUFFALO", "STATE": "WY", "ZIP": "82834", "ZIP4": "NOT AVAILABLE", "TYPE": "NATURAL GAS COMPRESSOR STATION", "STATUS": "IN SERVICE", "COUNTY": "JOHNSON", "COUNTYFIPS": "56019", "COUNTRY": "USA", "LATITUDE": 44.124115, "LONGITUDE": -106.731402, "NAICS_CODE": "486210", "NAICS_DESC": "BOOSTER PUMPING STATION, NATURAL GAS TRANSPORTATION", "SOURCE": "EPA ENVIROFACTS, FERC FORM 2, CORPORATE WEBSITE", "SOURCEDATE": "Wed, 15 Jul 2020 00:00:00 GMT", "VAL_METHOD": "IMAGERY/OTHER", "VAL_DATE": "Tue, 07 Jun 2022 00:00:00 GMT", "WEBSITE": "http://transmission.wbienergy.com/", "PIPECO": "WILLISTON BASIN INTERSTATE PIPELINE COMPANY", "COMPID": "49", "OPERATOR": "WILLISTON BASIN INTERSTATE PIPELINE COMPANY", "POSREL": "WITHIN 40 FEET", "NUM_UNITS": 1, "CERT_HP": 421, "PLANT_COST": 2313997, "EXP_FUEL": 20050, "EXP_OTHER": 130380, "GAS_COMPRE": 7808, "OP_COMP_HR": 4051, "OP_NUM_COM": 1, "OP_DATE_PE": "Mon, 14 May 2012 00:00:00 GMT", "EXP_POWER": 0, "ELEC_COMPR": 0 }, "geometry": { "type": "Point", "coordinates": [ -106.731402, 44.124115000000103 ] } },
{ "type": "Feature", "properties": { "OBJECTID": 1335, "GCOMPID": "GCOMP972", "NAME": "WEST SHORT PINE HILLS", "ADDRESS": "COLLINS ROAD/EAST OF S CRAMP CROOK ROAD", "CITY": "BUFFALO", "STATE": "SD", "ZIP": "57720", "ZIP4": "NOT AVAILABLE", "TYPE": "NATURAL GAS COMPRESSOR STATION", "STATUS": "IN SERVICE", "COUNTY": "HARDING", "COUNTYFIPS": "46063", "COUNTRY": "USA", "LATITUDE": 45.358038, "LONGITUDE": -103.934504, "NAICS_CODE": "486210", "NAICS_DESC": "BOOSTER PUMPING STATION, NATURAL GAS TRANSPORTATION", "SOURCE": "EPA ENVIROFACTS, FERC FORM 2, CORPORATE WEBSITE", "SOURCEDATE": "Wed, 15 Jul 2020 00:00:00 GMT", "VAL_METHOD": "IMAGERY/OTHER", "VAL_DATE": "Fri, 17 Jun 2022 00:00:00 GMT", "WEBSITE": "http://transmission.wbienergy.com/", "PIPECO": "WILLISTON BASIN INTERSTATE PIPELINE COMPANY", "COMPID": "49", "OPERATOR": "WILLISTON BASIN INTERSTATE PIPELINE COMPANY", "POSREL": "WITHIN 40 FEET", "NUM_UNITS": 1, "CERT_HP": 360, "PLANT_COST": 591110, "EXP_FUEL": 84944, "EXP_OTHER": 52541, "GAS_COMPRE": 31278, "OP_COMP_HR": 8682, "OP_NUM_COM": 1, "OP_DATE_PE": "Fri, 06 Jan 2012 00:00:00 GMT", "EXP_POWER": 0, "ELEC_COMPR": 0 }, "geometry": { "type": "Point", "coordinates": [ -103.934504, 45.3580380000001 ] } }
]
}
