{
"type": "FeatureCollection",
"name": "P2099-compressor-station",
"crs": { "type": "name", "properties": { "name": "urn:ogc:def:crs:OGC:1.3:CRS84" } },
"features": [
{ "type": "Feature", "properties": { "PIPECO": "NORTHERN BORDER PIPELINE COMPANY", "NUM_UNITS": "1", "VAL_METHOD": "IMAGERY/OTHER", "CERT_HP": "16000", "OBJECTID": "619", "LATITUDE": "41.359376", "COUNTYFIPS": "19107", "COUNTY": "KEOKUK", "EXP_FUEL": "0", "COUNTRY": "USA", "NAME": "#16 - JOHNSON COUNTY", "EXP_OTHER": "176029", "ADDRESS": "20425 285TH AVENUE", "LONGITUDE": "-92.05728", "OPERATOR": "TC PIPELINES L.P.", "GCOMPID": "GCOMP325", "STATUS": "IN SERVICE", "ZIP": "52231", "EXP_POWER": "3954356", "STATE": "IA", "COMPID": "89", "VAL_DATE": "Fri, 17 Jun 2022 00:00:00 GMT", "GAS_COMPRE": "0", "ELEC_COMPR": "57095797", "WEBSITE": "https://www.tcpipelineslp.com/assets/northern-border/", "ZIP4": "NOT AVAILABLE", "SOURCE": "EPA ENVIROFACTS, FERC FORM 2, CORPORATE WEBSITE", "OP_NUM_COM": "1", "CITY": "HARPER", "PLANT_COST": "19731517", "OP_COMP_HR": "464", "POSREL": "WITHIN 166 FEET", "NAICS_DESC": "BOOSTER PUMPING STATION, NATURAL GAS TRANSPORTATION", "TYPE": "NATURAL GAS COMPRESSOR STATION", "NAICS_CODE": "486210", "OP_DATE_PE": "Sat, 07 Mar 2020 00:00:00 GMT", "SOURCEDATE": "Wed, 15 Jul 2020 00:00:00 GMT" }, "geometry": { "type": "Point", "coordinates": [ -92.057280000021294, 41.359375999700745 ] } },
{ "type": "Feature", "properties": { "PIPECO": "NORTHERN BORDER PIPELINE COMPANY", "NUM_UNITS": "1", "VAL_METHOD": "IMAGERY/OTHER", "CERT_HP": "38000", "OBJECTID": "911", "LATITUDE": "47.254825155", "COUNTYFIPS": "38025", "COUNTY": "DUNN", "EXP_FUEL": "2636896", "COUNTRY": "USA", "NAME": "#5 - DUNN COUNTY", "EXP_OTHER": "298001", "ADDRESS": "10510 11TH STREET SW", "LONGITUDE": "-102.717376", "OPERATOR": "TC PIPELINES L.P.", "GCOMPID": "GCOMP59", "STATUS": "IN SERVICE", "ZIP": "58642", "EXP_POWER": "0", "STATE": "ND", "COMPID": "89", "VAL_DATE": "Fri, 17 Jun 2022 00:00:00 GMT", "GAS_COMPRE": "1384960", "ELEC_COMPR": "0", "WEBSITE": "https://www.tcpipelineslp.com/assets/northern-border/", "ZIP4": "NOT AVAILABLE", "SOURCE": "EPA ENVIROFACTS, FERC FORM 2, CORPORATE WEBSITE", "OP_NUM_COM": "1", "CITY": "MANNING", "PLANT_COST": "29903369", "OP_COMP_HR": "6979", "POSREL": "WITHIN 40 FEET", "NAICS_DESC": "BOOSTER PUMPING STATION, NATURAL GAS TRANSPORTATION", "TYPE": "NATURAL GAS COMPRESSOR STATION", "NAICS_CODE": "486210", "OP_DATE_PE": "Sun, 19 Jan 2020 00:00:00 GMT", "SOURCEDATE": "Wed, 15 Jul 2020 00:00:00 GMT" }, "geometry": { "type": "Point", "coordinates": [ -102.717375999775427, 47.254825154165438 ] } },
{ "type": "Feature", "properties": { "PIPECO": "NORTHERN BORDER PIPELINE COMPANY", "NUM_UNITS": "1", "VAL_METHOD": "IMAGERY/OTHER", "CERT_HP": "38000", "OBJECTID": "231", "LATITUDE": "45.067769622", "COUNTYFIPS": "46025", "COUNTY": "CLARK", "EXP_FUEL": "3045746", "COUNTRY": "USA", "NAME": "#10 - CLARK COUNTY", "EXP_OTHER": "324765", "ADDRESS": "NW CORNER OF 421ST AVENUE AND 160TH ST; SOUTH OF CROCKER", "LONGITUDE": "-97.798033085", "OPERATOR": "TC PIPELINES L.P.", "GCOMPID": "GCOMP1206", "STATUS": "IN SERVICE", "ZIP": "57217", "EXP_POWER": "0", "STATE": "SD", "COMPID": "89", "VAL_DATE": "Fri, 17 Jun 2022 00:00:00 GMT", "GAS_COMPRE": "1612444", "ELEC_COMPR": "0", "WEBSITE": "https://www.tcpipelineslp.com/assets/northern-border/", "ZIP4": "NOT AVAILABLE", "SOURCE": "EPA ENVIROFACTS, FERC FORM 2, CORPORATE WEBSITE", "OP_NUM_COM": "1", "CITY": "BRADLEY", "PLANT_COST": "37118571", "OP_COMP_HR": "6973", "POSREL": "WITHIN 40 FEET", "NAICS_DESC": "BOOSTER PUMPING STATION, NATURAL GAS TRANSPORTATION", "TYPE": "NATURAL GAS COMPRESSOR STATION", "NAICS_CODE": "486210", "OP_DATE_PE": "Sat, 24 Oct 2020 00:00:00 GMT", "SOURCEDATE": "Wed, 15 Jul 2020 00:00:00 GMT" }, "geometry": { "type": "Point", "coordinates": [ -97.798033083986468, 45.067769622063665 ] } },
{ "type": "Feature", "properties": { "PIPECO": "NORTHERN BORDER PIPELINE COMPANY", "NUM_UNITS": "1", "VAL_METHOD": "IMAGERY/OTHER", "CERT_HP": "13000", "OBJECTID": "669", "LATITUDE": "42.374638099", "COUNTYFIPS": "19075", "COUNTY": "GRUNDY", "EXP_FUEL": "0", "COUNTRY": "USA", "NAME": "#14 - GRUNDY COUNTY", "EXP_OTHER": "269241", "ADDRESS": "22510 F AVENUE", "LONGITUDE": "-92.922454672", "OPERATOR": "TC PIPELINES L.P.", "GCOMPID": "GCOMP370", "STATUS": "IN SERVICE", "ZIP": "50638", "EXP_POWER": "65525", "STATE": "IA", "COMPID": "89", "VAL_DATE": "Fri, 17 Jun 2022 00:00:00 GMT", "GAS_COMPRE": "0", "ELEC_COMPR": "668579", "WEBSITE": "https://www.tcpipelineslp.com/assets/northern-border/", "ZIP4": "NOT AVAILABLE", "SOURCE": "FERC FORM 2, IMAGERY", "OP_NUM_COM": "0", "CITY": "GRUNDY CENTER", "PLANT_COST": "20182767", "OP_COMP_HR": "0", "POSREL": "WITHIN 40 FEET", "NAICS_DESC": "BOOSTER PUMPING STATION, NATURAL GAS TRANSPORTATION", "TYPE": "NATURAL GAS COMPRESSOR STATION", "NAICS_CODE": "486210", "OP_DATE_PE": "Mon, 01 Jan 2001 00:00:00 GMT", "SOURCEDATE": "Wed, 15 Jul 2020 00:00:00 GMT" }, "geometry": { "type": "Point", "coordinates": [ -92.922454671907744, 42.374638098760343 ] } },
{ "type": "Feature", "properties": { "PIPECO": "NORTHERN BORDER PIPELINE COMPANY", "NUM_UNITS": "1", "VAL_METHOD": "IMAGERY/OTHER", "CERT_HP": "38000", "OBJECTID": "915", "LATITUDE": "46.821009665", "COUNTYFIPS": "38059", "COUNTY": "MORTON", "EXP_FUEL": "3083077", "COUNTRY": "USA", "NAME": "#6 - MORTON COUNTY", "EXP_OTHER": "376991", "ADDRESS": "4090 62ND AVENUE; 3 MILES E OF GLEN ULLIN ON COUNTY ROAD", "LONGITUDE": "-101.758365251", "OPERATOR": "TC PIPELINES L.P.", "GCOMPID": "GCOMP593", "STATUS": "IN SERVICE", "ZIP": "58631", "EXP_POWER": "0", "STATE": "ND", "COMPID": "89", "VAL_DATE": "Fri, 17 Jun 2022 00:00:00 GMT", "GAS_COMPRE": "1650559", "ELEC_COMPR": "0", "WEBSITE": "https://www.tcpipelineslp.com/assets/northern-border/", "ZIP4": "NOT AVAILABLE", "SOURCE": "EPA ENVIROFACTS, FERC FORM 2, CORPORATE WEBSITE", "OP_NUM_COM": "1", "CITY": "GLEN ULLIN", "PLANT_COST": "36681102", "OP_COMP_HR": "6917", "POSREL": "WITHIN 40 FEET", "NAICS_DESC": "BOOSTER PUMPING STATION, NATURAL GAS TRANSPORTATION", "TYPE": "NATURAL GAS COMPRESSOR STATION", "NAICS_CODE": "486210", "OP_DATE_PE": "Thu, 12 Nov 2020 00:00:00 GMT", "SOURCEDATE": "Wed, 15 Jul 2020 00:00:00 GMT" }, "geometry": { "type": "Point", "coordinates": [ -101.758365250273243, 46.82100966478945 ] } },
{ "type": "Feature", "properties": { "PIPECO": "NORTHERN BORDER PIPELINE COMPANY", "NUM_UNITS": "1", "VAL_METHOD": "IMAGERY/OTHER", "CERT_HP": "38000", "OBJECTID": "239", "LATITUDE": "48.63216", "COUNTYFIPS": "30105", "COUNTY": "VALLEY", "EXP_FUEL": "0", "COUNTRY": "USA", "NAME": "#1 - VALLEY COUNTY", "EXP_OTHER": "169125", "ADDRESS": "OFF OF BRITCH ROAD", "LONGITUDE": "-106.68345", "OPERATOR": "TC PIPELINES L.P.", "GCOMPID": "GCOMP1213", "STATUS": "IN SERVICE", "ZIP": "59230", "EXP_POWER": "0", "STATE": "MT", "COMPID": "89", "VAL_DATE": "Fri, 17 Jun 2022 00:00:00 GMT", "GAS_COMPRE": "0", "ELEC_COMPR": "0", "WEBSITE": "https://www.tcpipelineslp.com/assets/northern-border/", "ZIP4": "NOT AVAILABLE", "SOURCE": "EPA ENVIROFACTS, FERC FORM 2, CORPORATE WEBSITE", "OP_NUM_COM": "0", "CITY": "GLASGOW", "PLANT_COST": "34153858", "OP_COMP_HR": "0", "POSREL": "WITHIN 40 FEET", "NAICS_DESC": "BOOSTER PUMPING STATION, NATURAL GAS TRANSPORTATION", "TYPE": "NATURAL GAS COMPRESSOR STATION", "NAICS_CODE": "486210", "OP_DATE_PE": "Mon, 01 Jan 2001 00:00:00 GMT", "SOURCEDATE": "Wed, 15 Jul 2020 00:00:00 GMT" }, "geometry": { "type": "Point", "coordinates": [ -106.68344999892156, 48.632159999510996 ] } },
{ "type": "Feature", "properties": { "PIPECO": "NORTHERN BORDER PIPELINE COMPANY", "NUM_UNITS": "1", "VAL_METHOD": "IMAGERY/OTHER", "CERT_HP": "1600", "OBJECTID": "682", "LATITUDE": "41.463119", "COUNTYFIPS": "17197", "COUNTY": "WILL", "EXP_FUEL": "37981", "COUNTRY": "USA", "NAME": "DES PLAINES - WILL COUNTY", "EXP_OTHER": "43084", "ADDRESS": "23132 SOUTH YOUNGS ROAD", "LONGITUDE": "-88.177666", "OPERATOR": "TC PIPELINES L.P.", "GCOMPID": "GCOMP382", "STATUS": "IN SERVICE", "ZIP": "60410", "EXP_POWER": "0", "STATE": "IL", "COMPID": "89", "VAL_DATE": "Fri, 17 Jun 2022 00:00:00 GMT", "GAS_COMPRE": "21354", "ELEC_COMPR": "0", "WEBSITE": "https://www.tcpipelineslp.com/assets/northern-border/", "ZIP4": "NOT AVAILABLE", "SOURCE": "FERC FORM 2, IMAGERY", "OP_NUM_COM": "1", "CITY": "CHANNAHON", "PLANT_COST": "17316874", "OP_COMP_HR": "107", "POSREL": "WITHIN 40 FEET", "NAICS_DESC": "BOOSTER PUMPING STATION, NATURAL GAS TRANSPORTATION", "TYPE": "NATURAL GAS COMPRESSOR STATION", "NAICS_CODE": "486210", "OP_DATE_PE": "Tue, 21 Jan 2020 00:00:00 GMT", "SOURCEDATE": "Wed, 15 Jul 2020 00:00:00 GMT" }, "geometry": { "type": "Point", "coordinates": [ -88.177666000584296, 41.463118999994613 ] } },
{ "type": "Feature", "properties": { "PIPECO": "NORTHERN BORDER PIPELINE COMPANY", "NUM_UNITS": "1", "VAL_METHOD": "IMAGERY/OTHER", "CERT_HP": "38000", "OBJECTID": "970", "LATITUDE": "44.666078028", "COUNTYFIPS": "46039", "COUNTY": "DEUEL", "EXP_FUEL": "3455882", "COUNTRY": "USA", "NAME": "#11 - DEUEL COUNTY", "EXP_OTHER": "426970", "ADDRESS": "470TH AVENUE; CORNER OF 470TH AVENUE AND 188TH STREET", "LONGITUDE": "-96.80773515", "OPERATOR": "TC PIPELINES L.P.", "GCOMPID": "GCOMP643", "STATUS": "IN SERVICE", "ZIP": "57234", "EXP_POWER": "0", "STATE": "SD", "COMPID": "89", "VAL_DATE": "Fri, 17 Jun 2022 00:00:00 GMT", "GAS_COMPRE": "1825391", "ELEC_COMPR": "0", "WEBSITE": "https://www.tcpipelineslp.com/assets/northern-border/", "ZIP4": "NOT AVAILABLE", "SOURCE": "EPA ENVIROFACTS, FERC FORM 2, CORPORATE WEBSITE", "OP_NUM_COM": "1", "CITY": "ESTELLINE", "PLANT_COST": "31178125", "OP_COMP_HR": "8195", "POSREL": "WITHIN 40 FEET", "NAICS_DESC": "BOOSTER PUMPING STATION, NATURAL GAS TRANSPORTATION", "TYPE": "NATURAL GAS COMPRESSOR STATION", "NAICS_CODE": "486210", "OP_DATE_PE": "Tue, 21 Jan 2020 00:00:00 GMT", "SOURCEDATE": "Wed, 15 Jul 2020 00:00:00 GMT" }, "geometry": { "type": "Point", "coordinates": [ -96.807735149493354, 44.666078028313329 ] } },
{ "type": "Feature", "properties": { "PIPECO": "NORTHERN BORDER PIPELINE COMPANY", "NUM_UNITS": "1", "VAL_METHOD": "IMAGERY/OTHER", "CERT_HP": "38000", "OBJECTID": "257", "LATITUDE": "44.23455926", "COUNTYFIPS": "27083", "COUNTY": "LYON", "EXP_FUEL": "2574857", "COUNTRY": "USA", "NAME": "#12 - LYNN COUNTY", "EXP_OTHER": "385945", "ADDRESS": "1270 260TH AVENUE", "LONGITUDE": "-95.77266623", "OPERATOR": "TC PIPELINES L.P.", "GCOMPID": "GCOMP123", "STATUS": "IN SERVICE", "ZIP": "56132", "EXP_POWER": "0", "STATE": "MN", "COMPID": "89", "VAL_DATE": "Fri, 17 Jun 2022 00:00:00 GMT", "GAS_COMPRE": "1386082", "ELEC_COMPR": "0", "WEBSITE": "https://www.tcpipelineslp.com/assets/northern-border/", "ZIP4": "NOT AVAILABLE", "SOURCE": "EPA ENVIROFACTS, FERC FORM 2, CORPORATE WEBSITE", "OP_NUM_COM": "1", "CITY": "GARVIN", "PLANT_COST": "36436258", "OP_COMP_HR": "7535", "POSREL": "WITHIN 40 FEET", "NAICS_DESC": "BOOSTER PUMPING STATION, NATURAL GAS TRANSPORTATION", "TYPE": "NATURAL GAS COMPRESSOR STATION", "NAICS_CODE": "486210", "OP_DATE_PE": "Tue, 15 Dec 2020 00:00:00 GMT", "SOURCEDATE": "Wed, 15 Jul 2020 00:00:00 GMT" }, "geometry": { "type": "Point", "coordinates": [ -95.772666229395156, 44.234559259869172 ] } },
{ "type": "Feature", "properties": { "PIPECO": "NORTHERN BORDER PIPELINE COMPANY", "NUM_UNITS": "1", "VAL_METHOD": "IMAGERY/OTHER", "CERT_HP": "15000", "OBJECTID": "688", "LATITUDE": "41.649156854", "COUNTYFIPS": "19163", "COUNTY": "SCOTT", "EXP_FUEL": "0", "COUNTRY": "USA", "NAME": "#17 - SCOTT COUNTY", "EXP_OTHER": "216524", "ADDRESS": "23387 230TH AVENUE", "LONGITUDE": "-90.450626564", "OPERATOR": "TC PIPELINES L.P.", "GCOMPID": "GCOMP388", "STATUS": "IN SERVICE", "ZIP": "52748", "EXP_POWER": "2239615", "STATE": "IA", "COMPID": "89", "VAL_DATE": "Fri, 17 Jun 2022 00:00:00 GMT", "GAS_COMPRE": "0", "ELEC_COMPR": "9395214", "WEBSITE": "https://www.tcpipelineslp.com/assets/northern-border/", "ZIP4": "NOT AVAILABLE", "SOURCE": "EPA ENVIROFACTS, FERC FORM 2, CORPORATE WEBSITE", "OP_NUM_COM": "1", "CITY": "ELDRIDGE", "PLANT_COST": "21437900", "OP_COMP_HR": "1587", "POSREL": "WITHIN 40 FEET", "NAICS_DESC": "BOOSTER PUMPING STATION, NATURAL GAS TRANSPORTATION", "TYPE": "NATURAL GAS COMPRESSOR STATION", "NAICS_CODE": "486210", "OP_DATE_PE": "Sat, 07 Mar 2020 00:00:00 GMT", "SOURCEDATE": "Wed, 15 Jul 2020 00:00:00 GMT" }, "geometry": { "type": "Point", "coordinates": [ -90.450626565169443, 41.649156854110657 ] } },
{ "type": "Feature", "properties": { "PIPECO": "NORTHERN BORDER PIPELINE COMPANY", "NUM_UNITS": "1", "VAL_METHOD": "IMAGERY/OTHER", "CERT_HP": "38000", "OBJECTID": "1091", "LATITUDE": "46.514544001", "COUNTYFIPS": "38059", "COUNTY": "MORTON", "EXP_FUEL": "3320262", "COUNTRY": "USA", "NAME": "#7 - MORTON COUNTY", "EXP_OTHER": "397613", "ADDRESS": "6245 COUNTY ROAD 81", "LONGITUDE": "-100.800652126", "OPERATOR": "TC PIPELINES L.P.", "GCOMPID": "GCOMP752", "STATUS": "IN SERVICE", "ZIP": "58566", "EXP_POWER": "0", "STATE": "ND", "COMPID": "89", "VAL_DATE": "Fri, 17 Jun 2022 00:00:00 GMT", "GAS_COMPRE": "1756952", "ELEC_COMPR": "0", "WEBSITE": "https://www.tcpipelineslp.com/assets/northern-border/", "ZIP4": "NOT AVAILABLE", "SOURCE": "FERC FORM 2, IMAGERY", "OP_NUM_COM": "1", "CITY": "SAINT ANTHONY", "PLANT_COST": "30980473", "OP_COMP_HR": "8134", "POSREL": "WITHIN 40 FEET", "NAICS_DESC": "BOOSTER PUMPING STATION, NATURAL GAS TRANSPORTATION", "TYPE": "NATURAL GAS COMPRESSOR STATION", "NAICS_CODE": "486210", "OP_DATE_PE": "Thu, 12 Nov 2020 00:00:00 GMT", "SOURCEDATE": "Wed, 15 Jul 2020 00:00:00 GMT" }, "geometry": { "type": "Point", "coordinates": [ -100.80065212590614, 46.514544000922506 ] } },
{ "type": "Feature", "properties": { "PIPECO": "NORTHERN BORDER PIPELINE COMPANY", "NUM_UNITS": "1", "VAL_METHOD": "IMAGERY/OTHER", "CERT_HP": "20000", "OBJECTID": "275", "LATITUDE": "48.417403402", "COUNTYFIPS": "30085", "COUNTY": "ROOSEVELT", "EXP_FUEL": "1326", "COUNTRY": "USA", "NAME": "#2 - ROOSEVELT COUNTY", "EXP_OTHER": "144596", "ADDRESS": "POWDER RIVER ROAD", "LONGITUDE": "-105.536448178", "OPERATOR": "TC PIPELINES L.P.", "GCOMPID": "GCOMP1246", "STATUS": "IN SERVICE", "ZIP": "59201", "EXP_POWER": "0", "STATE": "MT", "COMPID": "89", "VAL_DATE": "Fri, 17 Jun 2022 00:00:00 GMT", "GAS_COMPRE": "876", "ELEC_COMPR": "0", "WEBSITE": "https://www.tcpipelineslp.com/assets/northern-border/", "ZIP4": "NOT AVAILABLE", "SOURCE": "EPA ENVIROFACTS, FERC FORM 2, CORPORATE WEBSITE", "OP_NUM_COM": "1", "CITY": "WOLF POINT", "PLANT_COST": "18000351", "OP_COMP_HR": "12", "POSREL": "WITHIN 40 FEET", "NAICS_DESC": "BOOSTER PUMPING STATION, NATURAL GAS TRANSPORTATION", "TYPE": "NATURAL GAS COMPRESSOR STATION", "NAICS_CODE": "486210", "OP_DATE_PE": "Sat, 20 Jun 2020 00:00:00 GMT", "SOURCEDATE": "Wed, 15 Jul 2020 00:00:00 GMT" }, "geometry": { "type": "Point", "coordinates": [ -105.536448178061235, 48.417403402005021 ] } },
{ "type": "Feature", "properties": { "PIPECO": "NORTHERN BORDER PIPELINE COMPANY", "NUM_UNITS": "1", "VAL_METHOD": "IMAGERY/OTHER", "CERT_HP": "13000", "OBJECTID": "693", "LATITUDE": "41.488663909", "COUNTYFIPS": "17011", "COUNTY": "BUREAU", "EXP_FUEL": "0", "COUNTRY": "USA", "NAME": "#18 - BUREAU COUNTY", "EXP_OTHER": "138371", "ADDRESS": "23688 2950 EAST STREET", "LONGITUDE": "-89.284971786", "OPERATOR": "TC PIPELINES L.P.", "GCOMPID": "GCOMP392", "STATUS": "IN SERVICE", "ZIP": "61330", "EXP_POWER": "172045", "STATE": "IL", "COMPID": "89", "VAL_DATE": "Fri, 17 Jun 2022 00:00:00 GMT", "GAS_COMPRE": "0", "ELEC_COMPR": "2747945", "WEBSITE": "https://www.tcpipelineslp.com/assets/northern-border/", "ZIP4": "NOT AVAILABLE", "SOURCE": "EPA ENVIROFACTS, FERC FORM 2, CORPORATE WEBSITE", "OP_NUM_COM": "1", "CITY": "LA MOILLE", "PLANT_COST": "18528042", "OP_COMP_HR": "417", "POSREL": "WITHIN 40 FEET", "NAICS_DESC": "BOOSTER PUMPING STATION, NATURAL GAS TRANSPORTATION", "TYPE": "NATURAL GAS COMPRESSOR STATION", "NAICS_CODE": "486210", "OP_DATE_PE": "Sat, 07 Mar 2020 00:00:00 GMT", "SOURCEDATE": "Wed, 15 Jul 2020 00:00:00 GMT" }, "geometry": { "type": "Point", "coordinates": [ -89.284971786208388, 41.488663909006242 ] } },
{ "type": "Feature", "properties": { "PIPECO": "NORTHERN BORDER PIPELINE COMPANY", "NUM_UNITS": "1", "VAL_METHOD": "IMAGERY/OTHER", "CERT_HP": "38000", "OBJECTID": "1265", "LATITUDE": "46.066797", "COUNTYFIPS": "38051", "COUNTY": "MCINTOSH", "EXP_FUEL": "3004719", "COUNTRY": "USA", "NAME": "#8 - MCINTOSH COUNTY", "EXP_OTHER": "717223", "ADDRESS": "9305 28TH AVENUE SOUTHEAST", "LONGITUDE": "-99.796494", "OPERATOR": "TC PIPELINES L.P.", "GCOMPID": "GCOMP909", "STATUS": "IN SERVICE", "ZIP": "58581", "EXP_POWER": "0", "STATE": "ND", "COMPID": "89", "VAL_DATE": "Fri, 17 Jun 2022 00:00:00 GMT", "GAS_COMPRE": "1559526", "ELEC_COMPR": "0", "WEBSITE": "https://www.tcpipelineslp.com/assets/northern-border/", "ZIP4": "NOT AVAILABLE", "SOURCE": "EPA ENVIROFACTS, FERC FORM 2, CORPORATE WEBSITE", "OP_NUM_COM": "1", "CITY": "ZEELAND", "PLANT_COST": "46579245", "OP_COMP_HR": "6932", "POSREL": "WITHIN 40 FEET", "NAICS_DESC": "BOOSTER PUMPING STATION, NATURAL GAS TRANSPORTATION", "TYPE": "NATURAL GAS COMPRESSOR STATION", "NAICS_CODE": "486210", "OP_DATE_PE": "Sat, 24 Oct 2020 00:00:00 GMT", "SOURCEDATE": "Wed, 15 Jul 2020 00:00:00 GMT" }, "geometry": { "type": "Point", "coordinates": [ -99.796493999574068, 46.066797000385492 ] } },
{ "type": "Feature", "properties": { "PIPECO": "NORTHERN BORDER PIPELINE COMPANY", "NUM_UNITS": "1", "VAL_METHOD": "IMAGERY/OTHER", "CERT_HP": "38000", "OBJECTID": "563", "LATITUDE": "43.760681955", "COUNTYFIPS": "27091", "COUNTY": "MARTIN", "EXP_FUEL": "3780668", "COUNTRY": "USA", "NAME": "#13 - MARTIN COUNTY", "EXP_OTHER": "498419", "ADDRESS": "1890 60TH AVENUE", "LONGITUDE": "-94.752650899", "OPERATOR": "TC PIPELINES L.P.", "GCOMPID": "GCOMP275", "STATUS": "IN SERVICE", "ZIP": "56176", "EXP_POWER": "0", "STATE": "MN", "COMPID": "89", "VAL_DATE": "Fri, 17 Jun 2022 00:00:00 GMT", "GAS_COMPRE": "2048166", "ELEC_COMPR": "0", "WEBSITE": "https://www.tcpipelineslp.com/assets/northern-border/", "ZIP4": "NOT AVAILABLE", "SOURCE": "EPA ENVIROFACTS, FERC FORM 2, CORPORATE WEBSITE", "OP_NUM_COM": "1", "CITY": "TRIMONT", "PLANT_COST": "35234850", "OP_COMP_HR": "8383", "POSREL": "WITHIN 40 FEET", "NAICS_DESC": "BOOSTER PUMPING STATION, NATURAL GAS TRANSPORTATION", "TYPE": "NATURAL GAS COMPRESSOR STATION", "NAICS_CODE": "486210", "OP_DATE_PE": "Tue, 21 Jan 2020 00:00:00 GMT", "SOURCEDATE": "Wed, 15 Jul 2020 00:00:00 GMT" }, "geometry": { "type": "Point", "coordinates": [ -94.752650893402546, 43.760681947726482 ] } },
{ "type": "Feature", "properties": { "PIPECO": "NORTHERN BORDER PIPELINE COMPANY", "NUM_UNITS": "1", "VAL_METHOD": "IMAGERY/OTHER", "CERT_HP": "20000", "OBJECTID": "717", "LATITUDE": "47.769700139", "COUNTYFIPS": "38053", "COUNTY": "MCKENZIE", "EXP_FUEL": "8677", "COUNTRY": "USA", "NAME": "#4 - MCKENZIE COUNTY", "EXP_OTHER": "188601", "ADDRESS": "2461 136TH AVENUE NW", "LONGITUDE": "-103.499547644", "OPERATOR": "TC PIPELINES L.P.", "GCOMPID": "GCOMP413", "STATUS": "IN SERVICE", "ZIP": "58835", "EXP_POWER": "0", "STATE": "ND", "COMPID": "89", "VAL_DATE": "Fri, 17 Jun 2022 00:00:00 GMT", "GAS_COMPRE": "4811", "ELEC_COMPR": "0", "WEBSITE": "https://www.tcpipelineslp.com/assets/northern-border/", "ZIP4": "NOT AVAILABLE", "SOURCE": "EPA ENVIROFACTS, FERC FORM 2, CORPORATE WEBSITE", "OP_NUM_COM": "1", "CITY": "ARNEGARD", "PLANT_COST": "22745803", "OP_COMP_HR": "47", "POSREL": "WITHIN 40 FEET", "NAICS_DESC": "BOOSTER PUMPING STATION, NATURAL GAS TRANSPORTATION", "TYPE": "NATURAL GAS COMPRESSOR STATION", "NAICS_CODE": "486210", "OP_DATE_PE": "Mon, 20 Jan 2020 00:00:00 GMT", "SOURCEDATE": "Wed, 15 Jul 2020 00:00:00 GMT" }, "geometry": { "type": "Point", "coordinates": [ -103.499547643149839, 47.769700138661264 ] } },
{ "type": "Feature", "properties": { "PIPECO": "NORTHERN BORDER PIPELINE COMPANY", "NUM_UNITS": "1", "VAL_METHOD": "IMAGERY/OTHER", "CERT_HP": "38000", "OBJECTID": "579", "LATITUDE": "48.21010214", "COUNTYFIPS": "30085", "COUNTY": "ROOSEVELT", "EXP_FUEL": "18602", "COUNTRY": "USA", "NAME": "#3 - ROOSEVELT COUNTY", "EXP_OTHER": "167564", "ADDRESS": "10 MILES NE OF CULBERTSON", "LONGITUDE": "-104.391485581", "OPERATOR": "TC PIPELINES L.P.", "GCOMPID": "GCOMP29", "STATUS": "IN SERVICE", "ZIP": "59226", "EXP_POWER": "0", "STATE": "MT", "COMPID": "89", "VAL_DATE": "Fri, 17 Jun 2022 00:00:00 GMT", "GAS_COMPRE": "10989", "ELEC_COMPR": "0", "WEBSITE": "https://www.tcpipelineslp.com/assets/northern-border/", "ZIP4": "NOT AVAILABLE", "SOURCE": "EPA ENVIROFACTS, FERC FORM 2, CORPORATE WEBSITE", "OP_NUM_COM": "1", "CITY": "FROID", "PLANT_COST": "34883299", "OP_COMP_HR": "56", "POSREL": "WITHIN 40 FEET", "NAICS_DESC": "BOOSTER PUMPING STATION, NATURAL GAS TRANSPORTATION", "TYPE": "NATURAL GAS COMPRESSOR STATION", "NAICS_CODE": "486210", "OP_DATE_PE": "Fri, 24 Apr 2020 00:00:00 GMT", "SOURCEDATE": "Wed, 15 Jul 2020 00:00:00 GMT" }, "geometry": { "type": "Point", "coordinates": [ -104.391485580781207, 48.210102140182755 ] } },
{ "type": "Feature", "properties": { "PIPECO": "NORTHERN BORDER PIPELINE COMPANY", "NUM_UNITS": "1", "VAL_METHOD": "IMAGERY/OTHER", "CERT_HP": "38000", "OBJECTID": "867", "LATITUDE": "45.532720444", "COUNTYFIPS": "46045", "COUNTY": "EDMUNDS", "EXP_FUEL": "3528210", "COUNTRY": "USA", "NAME": "#9 - EDMUNDS COUNTY", "EXP_OTHER": "297012", "ADDRESS": "36989 128TH STREET", "LONGITUDE": "-98.786242707", "OPERATOR": "TC PIPELINES L.P.", "GCOMPID": "GCOMP549", "STATUS": "IN SERVICE", "ZIP": "57481", "EXP_POWER": "0", "STATE": "SD", "COMPID": "89", "VAL_DATE": "Fri, 17 Jun 2022 00:00:00 GMT", "GAS_COMPRE": "1862556", "ELEC_COMPR": "0", "WEBSITE": "https://www.tcpipelineslp.com/assets/northern-border/", "ZIP4": "NOT AVAILABLE", "SOURCE": "EPA ENVIROFACTS, FERC FORM 2, CORPORATE WEBSITE", "OP_NUM_COM": "1", "CITY": "WESTPORT", "PLANT_COST": "29225497", "OP_COMP_HR": "7963", "POSREL": "WITHIN 40 FEET", "NAICS_DESC": "BOOSTER PUMPING STATION, NATURAL GAS TRANSPORTATION", "TYPE": "NATURAL GAS COMPRESSOR STATION", "NAICS_CODE": "486210", "OP_DATE_PE": "Sat, 24 Oct 2020 00:00:00 GMT", "SOURCEDATE": "Wed, 15 Jul 2020 00:00:00 GMT" }, "geometry": { "type": "Point", "coordinates": [ -98.786242704822556, 45.532720441735812 ] } }
]
}
