{
"type": "FeatureCollection",
"name": "P2579-compressor-stations",
"crs": { "type": "name", "properties": { "name": "urn:ogc:def:crs:OGC:1.3:CRS84" } },
"features": [
{ "type": "Feature", "properties": { "NAME": "HUGO", "ADDRESS": "10645 180TH STREET N", "NUM_UNITS": "1", "EXP_OTHER": "268643", "VAL_METHOD": "IMAGERY/OTHER", "y": "5654616.8427833999", "WEBSITE": "http://www.northernnaturalgas.com/", "COMPID": "59", "EXP_POWER": "13070", "CERT_HP": "5967", "x": "-10340349.017889", "OBJECTID": "977", "COUNTRY": "USA", "GCOMPID": "GCOMP65", "PLANT_COST": "14913621", "OP_COMP_HR": "1259", "OPERATOR": "NORTHERN NATURAL GAS COMPANY", "ZIP": "55047", "STATUS": "IN SERVICE", "CITY": "HUGO", "COUNTYFIPS": "27163", "EXP_FUEL": "150063", "GAS_COMPRE": "83603", "OP_DATE_PE": "1/28/2020 12:00:00 AM", "LONGITUDE": "-92.888935658999998", "POSREL": "WITHIN 40 FEET", "ELEC_COMPR": "112000", "ZIP4": "NOT AVAILABLE", "LATITUDE": "45.209837641", "SOURCE": "EPA ENVIROFACTS, FERC FORM 2, CORPORATE WEBSITE", "OP_NUM_COM": "1", "STATE": "MN", "NAICS_DESC": "BOOSTER PUMPING STATION, NATURAL GAS TRANSPORTATION", "SOURCEDATE": "7/15/2020 12:00:00 AM", "TYPE": "NATURAL GAS COMPRESSOR STATION", "PIPECO": "NORTHERN NATURAL GAS COMPANY", "NAICS_CODE": "486210", "COUNTY": "WASHINGTON", "VAL_DATE": "6/17/2022 12:00:00 AM" }, "geometry": { "type": "Point", "coordinates": [ -92.888935659, 45.209837641 ] } },
{ "type": "Feature", "properties": { "NAME": "CARLTON", "ADDRESS": "1995 NORTHERN NATURAL GAS ROAD", "NUM_UNITS": "2", "EXP_OTHER": "939486", "VAL_METHOD": "IMAGERY/OTHER", "y": "5885118.6363522597", "WEBSITE": "http://www.northernnaturalgas.com/", "COMPID": "59", "EXP_POWER": "36924", "CERT_HP": "8000", "x": "-10297159.8210827", "OBJECTID": "593", "COUNTRY": "USA", "GCOMPID": "GCOMP301", "PLANT_COST": "12013846", "OP_COMP_HR": "4187", "OPERATOR": "NORTHERN NATURAL GAS COMPANY", "ZIP": "55718", "STATUS": "IN SERVICE", "CITY": "CARLTON", "COUNTYFIPS": "27017", "EXP_FUEL": "163412", "GAS_COMPRE": "87107", "OP_DATE_PE": "2/19/2020 12:00:00 AM", "LONGITUDE": "-92.500960503000002", "POSREL": "WITHIN 40 FEET", "ELEC_COMPR": "265400", "ZIP4": "NOT AVAILABLE", "LATITUDE": "46.649923041000001", "SOURCE": "EPA ENVIROFACTS, FERC FORM 2, CORPORATE WEBSITE", "OP_NUM_COM": "2", "STATE": "MN", "NAICS_DESC": "BOOSTER PUMPING STATION, NATURAL GAS TRANSPORTATION", "SOURCEDATE": "7/15/2020 12:00:00 AM", "TYPE": "NATURAL GAS COMPRESSOR STATION", "PIPECO": "NORTHERN NATURAL GAS COMPANY", "NAICS_CODE": "486210", "COUNTY": "CARLTON", "VAL_DATE": "6/17/2022 12:00:00 AM" }, "geometry": { "type": "Point", "coordinates": [ -92.500960503, 46.649923041 ] } },
{ "type": "Feature", "properties": { "NAME": "GUTHRIE CENTER", "ADDRESS": "DOGWOOD AVENUE; NORTH OF 250TH STREET", "NUM_UNITS": "1", "EXP_OTHER": "211293", "VAL_METHOD": "IMAGERY/OTHER", "y": "5109785.1374899996", "WEBSITE": "http://www.northernnaturalgas.com/", "COMPID": "59", "EXP_POWER": "6774", "CERT_HP": "7700", "x": "-10540531.891072899", "OBJECTID": "23", "COUNTRY": "USA", "GCOMPID": "GCOMP1018", "PLANT_COST": "11443957", "OP_COMP_HR": "5", "OPERATOR": "NORTHERN NATURAL GAS COMPANY", "ZIP": "50002", "STATUS": "IN SERVICE", "CITY": "ADAIR", "COUNTYFIPS": "19077", "EXP_FUEL": "376720", "GAS_COMPRE": "205643", "OP_DATE_PE": "10/19/2020 12:00:00 AM", "LONGITUDE": "-94.687209005", "POSREL": "WITHIN 40 FEET", "ELEC_COMPR": "160900", "ZIP4": "NOT AVAILABLE", "LATITUDE": "41.657320518", "SOURCE": "EPA ENVIROFACTS, FERC FORM 2, CORPORATE WEBSITE", "OP_NUM_COM": "1", "STATE": "IA", "NAICS_DESC": "BOOSTER PUMPING STATION, NATURAL GAS TRANSPORTATION", "SOURCEDATE": "7/15/2020 12:00:00 AM", "TYPE": "NATURAL GAS COMPRESSOR STATION", "PIPECO": "NORTHERN NATURAL GAS COMPANY", "NAICS_CODE": "486210", "COUNTY": "GUTHRIE", "VAL_DATE": "6/17/2022 12:00:00 AM" }, "geometry": { "type": "Point", "coordinates": [ -94.687209005, 41.657320518 ] } },
{ "type": "Feature", "properties": { "NAME": "REDFIELD", "ADDRESS": "2420 G AVENUE", "NUM_UNITS": "7", "EXP_OTHER": "7275281", "VAL_METHOD": "IMAGERY/OTHER", "y": "5113874.9865131304", "WEBSITE": "http://www.northernnaturalgas.com/", "COMPID": "59", "EXP_POWER": "314669", "CERT_HP": "16760", "x": "-10481997.399531201", "OBJECTID": "708", "COUNTRY": "USA", "GCOMPID": "GCOMP405", "PLANT_COST": "49423428", "OP_COMP_HR": "31420", "OPERATOR": "NORTHERN NATURAL GAS COMPANY", "ZIP": "50233", "STATUS": "IN SERVICE", "CITY": "REDFIELD", "COUNTYFIPS": "19049", "EXP_FUEL": "1332472", "GAS_COMPRE": "461512", "OP_DATE_PE": "1/12/2012 12:00:00 AM", "LONGITUDE": "-94.161384721000005", "POSREL": "WITHIN 40 FEET", "ELEC_COMPR": "2827000", "ZIP4": "6037", "LATITUDE": "41.684764158", "SOURCE": "EPA ENVIROFACTS, FERC FORM 2, CORPORATE WEBSITE", "OP_NUM_COM": "5", "STATE": "IA", "NAICS_DESC": "BOOSTER PUMPING STATION, NATURAL GAS TRANSPORTATION", "SOURCEDATE": "7/15/2020 12:00:00 AM", "TYPE": "NATURAL GAS COMPRESSOR STATION", "PIPECO": "NORTHERN NATURAL GAS COMPANY", "NAICS_CODE": "486210", "COUNTY": "DALLAS", "VAL_DATE": "6/17/2022 12:00:00 AM" }, "geometry": { "type": "Point", "coordinates": [ -94.161384721, 41.684764158 ] } },
{ "type": "Feature", "properties": { "NAME": "SEMINOLE", "ADDRESS": "COUNTY ROAD 305", "NUM_UNITS": "1", "EXP_OTHER": "264923", "VAL_METHOD": "IMAGERY/OTHER", "y": "3839563.18650507", "WEBSITE": "http://www.northernnaturalgas.com/", "COMPID": "59", "EXP_POWER": "22349", "CERT_HP": "9300", "x": "-11429044.324969999", "OBJECTID": "1362", "COUNTRY": "USA", "GCOMPID": "GCOMP997", "PLANT_COST": "8050314", "OP_COMP_HR": "2892", "OPERATOR": "NORTHERN NATURAL GAS COMPANY", "ZIP": "79360", "STATUS": "IN SERVICE", "CITY": "SEMINOLE", "COUNTYFIPS": "48165", "EXP_FUEL": "445928", "GAS_COMPRE": "217300", "OP_DATE_PE": "11/18/2020 12:00:00 AM", "LONGITUDE": "-102.668852", "POSREL": "WITHIN 40 FEET", "ELEC_COMPR": "366720", "ZIP4": "NOT AVAILABLE", "LATITUDE": "32.579057", "SOURCE": "EPA ENVIROFACTS, FERC FORM 2, CORPORATE WEBSITE", "OP_NUM_COM": "1", "STATE": "TX", "NAICS_DESC": "BOOSTER PUMPING STATION, NATURAL GAS TRANSPORTATION", "SOURCEDATE": "7/15/2020 12:00:00 AM", "TYPE": "NATURAL GAS COMPRESSOR STATION", "PIPECO": "NORTHERN NATURAL GAS COMPANY", "NAICS_CODE": "486210", "COUNTY": "GAINES", "VAL_DATE": "6/17/2022 12:00:00 AM" }, "geometry": { "type": "Point", "coordinates": [ -102.668852, 32.579057 ] } },
{ "type": "Feature", "properties": { "NAME": "POPPLE CREEK", "ADDRESS": "6220 GOLDEN SPIKE ROAD NE", "NUM_UNITS": "1", "EXP_OTHER": "154545", "VAL_METHOD": "IMAGERY/OTHER", "y": "5724709.1411159001", "WEBSITE": "http://www.northernnaturalgas.com/", "COMPID": "59", "EXP_POWER": "89624", "CERT_HP": "2000", "x": "-10467798.1842607", "OBJECTID": "1089", "COUNTRY": "USA", "GCOMPID": "GCOMP750", "PLANT_COST": "4653132", "OP_COMP_HR": "715", "OPERATOR": "NORTHERN NATURAL GAS COMPANY", "ZIP": "56379", "STATUS": "IN SERVICE", "CITY": "SAUK RAPIDS", "COUNTYFIPS": "27009", "EXP_FUEL": "0", "GAS_COMPRE": "0", "OP_DATE_PE": "1/8/2020 12:00:00 AM", "LONGITUDE": "-94.033831", "POSREL": "WITHIN 40 FEET", "ELEC_COMPR": "1015000", "ZIP4": "NOT AVAILABLE", "LATITUDE": "45.651704", "SOURCE": "EPA ENVIROFACTS, FERC FORM 2, CORPORATE WEBSITE", "OP_NUM_COM": "1", "STATE": "MN", "NAICS_DESC": "BOOSTER PUMPING STATION, NATURAL GAS TRANSPORTATION", "SOURCEDATE": "7/15/2020 12:00:00 AM", "TYPE": "NATURAL GAS COMPRESSOR STATION", "PIPECO": "NORTHERN NATURAL GAS COMPANY", "NAICS_CODE": "486210", "COUNTY": "BENTON", "VAL_DATE": "6/17/2022 12:00:00 AM" }, "geometry": { "type": "Point", "coordinates": [ -94.033831, 45.651704 ] } },
{ "type": "Feature", "properties": { "NAME": "PAMPA", "ADDRESS": "1224 TX-70", "NUM_UNITS": "1", "EXP_OTHER": "7243141", "VAL_METHOD": "IMAGERY/OTHER", "y": "4273503.2216299903", "WEBSITE": "http://www.northernnaturalgas.com/", "COMPID": "59", "EXP_POWER": "28406", "CERT_HP": "9300", "x": "-11234666.1451852", "OBJECTID": "168", "COUNTRY": "USA", "GCOMPID": "GCOMP115", "PLANT_COST": "7636528", "OP_COMP_HR": "7199", "OPERATOR": "NORTHERN NATURAL GAS COMPANY", "ZIP": "79059", "STATUS": "IN SERVICE", "CITY": "MIAMI", "COUNTYFIPS": "48393", "EXP_FUEL": "1333833", "GAS_COMPRE": "723919", "OP_DATE_PE": "2/9/2020 12:00:00 AM", "LONGITUDE": "-100.92272310200001", "POSREL": "WITHIN 40 FEET", "ELEC_COMPR": "541329", "ZIP4": "NOT AVAILABLE", "LATITUDE": "35.80267213", "SOURCE": "EPA ENVIROFACTS, FERC FORM 2, CORPORATE WEBSITE", "OP_NUM_COM": "1", "STATE": "TX", "NAICS_DESC": "BOOSTER PUMPING STATION, NATURAL GAS TRANSPORTATION", "SOURCEDATE": "7/15/2020 12:00:00 AM", "TYPE": "NATURAL GAS COMPRESSOR STATION", "PIPECO": "NORTHERN NATURAL GAS COMPANY", "NAICS_CODE": "486210", "COUNTY": "ROBERTS", "VAL_DATE": "6/17/2022 12:00:00 AM" }, "geometry": { "type": "Point", "coordinates": [ -100.922723102, 35.80267213 ] } },
{ "type": "Feature", "properties": { "NAME": "FARIBAULT", "ADDRESS": "21903 CANBY AVENUE", "NUM_UNITS": "3", "EXP_OTHER": "500623", "VAL_METHOD": "IMAGERY/OTHER", "y": "5507240.2119676201", "WEBSITE": "http://www.northernnaturalgas.com/", "COMPID": "59", "EXP_POWER": "79058", "CERT_HP": "44936", "x": "-10388509.5284189", "OBJECTID": "652", "COUNTRY": "USA", "GCOMPID": "GCOMP355", "PLANT_COST": "78143090", "OP_COMP_HR": "4467", "OPERATOR": "NORTHERN NATURAL GAS COMPANY", "ZIP": "55021", "STATUS": "IN SERVICE", "CITY": "FARIBAULT", "COUNTYFIPS": "27131", "EXP_FUEL": "947905", "GAS_COMPRE": "509448", "OP_DATE_PE": "2/13/2020 12:00:00 AM", "LONGITUDE": "-93.321568885999994", "POSREL": "WITHIN 40 FEET", "ELEC_COMPR": "632400", "ZIP4": "NOT AVAILABLE", "LATITUDE": "44.269481481", "SOURCE": "EPA ENVIROFACTS, FERC FORM 2, CORPORATE WEBSITE", "OP_NUM_COM": "3", "STATE": "MN", "NAICS_DESC": "BOOSTER PUMPING STATION, NATURAL GAS TRANSPORTATION", "SOURCEDATE": "7/15/2020 12:00:00 AM", "TYPE": "NATURAL GAS COMPRESSOR STATION", "PIPECO": "NORTHERN NATURAL GAS COMPANY", "NAICS_CODE": "486210", "COUNTY": "RICE", "VAL_DATE": "6/17/2022 12:00:00 AM" }, "geometry": { "type": "Point", "coordinates": [ -93.321568886, 44.269481481 ] } },
{ "type": "Feature", "properties": { "NAME": "SPRING GREEN", "ADDRESS": "STATE HIGHWAY 23 (1.77 MILES NORTH OF SPRING GREEN)", "NUM_UNITS": "2", "EXP_OTHER": "120478", "VAL_METHOD": "IMAGERY/OTHER", "y": "5342499.4884557398", "WEBSITE": "http://www.northernnaturalgas.com/", "COMPID": "59", "EXP_POWER": "10459", "CERT_HP": "1900", "x": "-10026900.8656893", "OBJECTID": "345", "COUNTRY": "USA", "GCOMPID": "GCOMP1309", "PLANT_COST": "5081293", "OP_COMP_HR": "382", "OPERATOR": "NORTHERN NATURAL GAS COMPANY", "ZIP": "53588", "STATUS": "IN SERVICE", "CITY": "SPRING GREEN", "COUNTYFIPS": "55045", "EXP_FUEL": "0", "GAS_COMPRE": "0", "OP_DATE_PE": "1/16/2020 12:00:00 AM", "LONGITUDE": "-90.073183", "POSREL": "WITHIN 40 FEET", "ELEC_COMPR": "259200", "ZIP4": "NOT AVAILABLE", "LATITUDE": "43.200235", "SOURCE": "FERC FORM 2, WISCONSIN STATE ENERGY OFFICE, CORPORATE WEBSITE, IMAGERY", "OP_NUM_COM": "1", "STATE": "WI", "NAICS_DESC": "BOOSTER PUMPING STATION, NATURAL GAS TRANSPORTATION", "SOURCEDATE": "7/15/2020 12:00:00 AM", "TYPE": "NATURAL GAS COMPRESSOR STATION", "PIPECO": "NORTHERN NATURAL GAS COMPANY", "NAICS_CODE": "486210", "COUNTY": "GREEN", "VAL_DATE": "6/17/2022 12:00:00 AM" }, "geometry": { "type": "Point", "coordinates": [ -90.073183, 43.200235 ] } },
{ "type": "Feature", "properties": { "NAME": "CLAUDE", "ADDRESS": "9568 FM-1258", "NUM_UNITS": "1", "EXP_OTHER": "416287", "VAL_METHOD": "IMAGERY/OTHER", "y": "4161996.0185587201", "WEBSITE": "http://www.northernnaturalgas.com/", "COMPID": "59", "EXP_POWER": "46015", "CERT_HP": "9300", "x": "-11284134.289149299", "OBJECTID": "1274", "COUNTRY": "USA", "GCOMPID": "GCOMP917", "PLANT_COST": "7179130", "OP_COMP_HR": "7120", "OPERATOR": "NORTHERN NATURAL GAS COMPANY", "ZIP": "79019", "STATUS": "IN SERVICE", "CITY": "CLAUDE", "COUNTYFIPS": "48011", "EXP_FUEL": "1228087", "GAS_COMPRE": "667687", "OP_DATE_PE": "11/1/2020 12:00:00 AM", "LONGITUDE": "-101.367103", "POSREL": "WITHIN 40 FEET", "ELEC_COMPR": "525600", "ZIP4": "NOT AVAILABLE", "LATITUDE": "34.986127", "SOURCE": "EPA ENVIROFACTS, FERC FORM 2, CORPORATE WEBSITE", "OP_NUM_COM": "1", "STATE": "TX", "NAICS_DESC": "BOOSTER PUMPING STATION, NATURAL GAS TRANSPORTATION", "SOURCEDATE": "7/15/2020 12:00:00 AM", "TYPE": "NATURAL GAS COMPRESSOR STATION", "PIPECO": "NORTHERN NATURAL GAS COMPANY", "NAICS_CODE": "486210", "COUNTY": "ARMSTRONG", "VAL_DATE": "6/17/2022 12:00:00 AM" }, "geometry": { "type": "Point", "coordinates": [ -101.367103, 34.986127 ] } },
{ "type": "Feature", "properties": { "NAME": "WATERLOO", "ADDRESS": "1508 EAST SCHROCK ROAD", "NUM_UNITS": "8", "EXP_OTHER": "2120626", "VAL_METHOD": "IMAGERY/OTHER", "y": "5220190.9242131999", "WEBSITE": "http://www.northernnaturalgas.com/", "COMPID": "59", "EXP_POWER": "99218", "CERT_HP": "16250", "x": "-10277747.337505599", "OBJECTID": "469", "COUNTRY": "USA", "GCOMPID": "GCOMP190", "PLANT_COST": "32154278", "OP_COMP_HR": "21328", "OPERATOR": "NORTHERN NATURAL GAS COMPANY", "ZIP": "50701", "STATUS": "IN SERVICE", "CITY": "WATERLOO", "COUNTYFIPS": "19013", "EXP_FUEL": "607041", "GAS_COMPRE": "329095", "OP_DATE_PE": "10/19/2020 12:00:00 AM", "LONGITUDE": "-92.326575195999993", "POSREL": "WITHIN 40 FEET", "ELEC_COMPR": "1416916", "ZIP4": "NOT AVAILABLE", "LATITUDE": "42.394054726999997", "SOURCE": "EPA ENVIROFACTS, FERC FORM 2, CORPORATE WEBSITE", "OP_NUM_COM": "5", "STATE": "IA", "NAICS_DESC": "BOOSTER PUMPING STATION, NATURAL GAS TRANSPORTATION", "SOURCEDATE": "7/15/2020 12:00:00 AM", "TYPE": "NATURAL GAS COMPRESSOR STATION", "PIPECO": "NORTHERN NATURAL GAS COMPANY", "NAICS_CODE": "486210", "COUNTY": "BLACK HAWK", "VAL_DATE": "6/17/2022 12:00:00 AM" }, "geometry": { "type": "Point", "coordinates": [ -92.326575196, 42.394054727 ] } },
{ "type": "Feature", "properties": { "NAME": "ALEXANDRIA", "ADDRESS": "14150 210TH AVENUE", "NUM_UNITS": "1", "EXP_OTHER": "127751", "VAL_METHOD": "IMAGERY/OTHER", "y": "5775259.1199278999", "WEBSITE": "http://www.northernnaturalgas.com/", "COMPID": "59", "EXP_POWER": "140476", "CERT_HP": "800", "x": "-10488333.158591099", "OBJECTID": "439", "COUNTRY": "USA", "GCOMPID": "GCOMP163", "PLANT_COST": "3708601", "OP_COMP_HR": "3587", "OPERATOR": "NORTHERN NATURAL GAS COMPANY", "ZIP": "56345", "STATUS": "IN SERVICE", "CITY": "LITTLE FALLS", "COUNTYFIPS": "27097", "EXP_FUEL": "764", "GAS_COMPRE": "381", "OP_DATE_PE": "1/8/2020 12:00:00 AM", "LONGITUDE": "-94.218299813000002", "POSREL": "WITHIN 40 FEET", "ELEC_COMPR": "1252416", "ZIP4": "NOT AVAILABLE", "LATITUDE": "45.968227525000003", "SOURCE": "EPA ENVIROFACTS, FERC FORM 2, CORPORATE WEBSITE", "OP_NUM_COM": "1", "STATE": "MN", "NAICS_DESC": "BOOSTER PUMPING STATION, NATURAL GAS TRANSPORTATION", "SOURCEDATE": "7/15/2020 12:00:00 AM", "TYPE": "NATURAL GAS COMPRESSOR STATION", "PIPECO": "NORTHERN NATURAL GAS COMPANY", "NAICS_CODE": "486210", "COUNTY": "MORRISON", "VAL_DATE": "6/17/2022 12:00:00 AM" }, "geometry": { "type": "Point", "coordinates": [ -94.218299813, 45.968227525 ] } },
{ "type": "Feature", "properties": { "NAME": "GALENA", "ADDRESS": "5444 N MENOMINEE ROAD", "NUM_UNITS": "2", "EXP_OTHER": "318113", "VAL_METHOD": "IMAGERY/OTHER", "y": "5229276.1853964003", "WEBSITE": "http://www.northernnaturalgas.com/", "COMPID": "59", "EXP_POWER": "11933", "CERT_HP": "7600", "x": "-10076020.257043401", "OBJECTID": "1025", "COUNTRY": "USA", "GCOMPID": "GCOMP693", "PLANT_COST": "23078604", "OP_COMP_HR": "4077", "OPERATOR": "NORTHERN NATURAL GAS COMPANY", "ZIP": "61025", "STATUS": "IN SERVICE", "CITY": "EAST DUBUQUE", "COUNTYFIPS": "17085", "EXP_FUEL": "264934", "GAS_COMPRE": "146968", "OP_DATE_PE": "3/6/2020 12:00:00 AM", "LONGITUDE": "-90.51443", "POSREL": "WITHIN 40 FEET", "ELEC_COMPR": "118212", "ZIP4": "NOT AVAILABLE", "LATITUDE": "42.4543", "SOURCE": "EPA ENVIROFACTS, FERC FORM 2, CORPORATE WEBSITE", "OP_NUM_COM": "1", "STATE": "IL", "NAICS_DESC": "BOOSTER PUMPING STATION, NATURAL GAS TRANSPORTATION", "SOURCEDATE": "7/15/2020 12:00:00 AM", "TYPE": "NATURAL GAS COMPRESSOR STATION", "PIPECO": "NORTHERN NATURAL GAS COMPANY", "NAICS_CODE": "486210", "COUNTY": "JO DAVIESS", "VAL_DATE": "6/17/2022 12:00:00 AM" }, "geometry": { "type": "Point", "coordinates": [ -90.51443, 42.4543 ] } },
{ "type": "Feature", "properties": { "NAME": "PALMYRA", "ADDRESS": "1170 NORTH 10TH ROAD", "NUM_UNITS": "12", "EXP_OTHER": "3118536", "VAL_METHOD": "IMAGERY/OTHER", "y": "4975067.1503085103", "WEBSITE": "http://www.northernnaturalgas.com/", "COMPID": "59", "EXP_POWER": "100910", "CERT_HP": "31755", "x": "-10728503.6174646", "OBJECTID": "14", "COUNTRY": "USA", "GCOMPID": "GCOMP101", "PLANT_COST": "63508241", "OP_COMP_HR": "42199", "OPERATOR": "NORTHERN NATURAL GAS COMPANY", "ZIP": "68418", "STATUS": "IN SERVICE", "CITY": "PALMYRA", "COUNTYFIPS": "31131", "EXP_FUEL": "1980640", "GAS_COMPRE": "1092311", "OP_DATE_PE": "1/16/2020 12:00:00 AM", "LONGITUDE": "-96.375787752999997", "POSREL": "WITHIN 40 FEET", "ELEC_COMPR": "1465340", "ZIP4": "4031", "LATITUDE": "40.746806792999998", "SOURCE": "EPA ENVIROFACTS, FERC FORM 2, CORPORATE WEBSITE", "OP_NUM_COM": "9", "STATE": "NE", "NAICS_DESC": "BOOSTER PUMPING STATION, NATURAL GAS TRANSPORTATION", "SOURCEDATE": "7/15/2020 12:00:00 AM", "TYPE": "NATURAL GAS COMPRESSOR STATION", "PIPECO": "NORTHERN NATURAL GAS COMPANY", "NAICS_CODE": "486210", "COUNTY": "OTOE", "VAL_DATE": "6/17/2022 12:00:00 AM" }, "geometry": { "type": "Point", "coordinates": [ -96.375787753, 40.746806793 ] } },
{ "type": "Feature", "properties": { "NAME": "PAULLINA", "ADDRESS": "4213 J AVENUE", "NUM_UNITS": "5", "EXP_OTHER": "488868", "VAL_METHOD": "IMAGERY/OTHER", "y": "5298039.7696084296", "WEBSITE": "http://www.northernnaturalgas.com/", "COMPID": "59", "EXP_POWER": "22864", "CERT_HP": "4400", "x": "-10651026.6152022", "OBJECTID": "927", "COUNTRY": "USA", "GCOMPID": "GCOMP604", "PLANT_COST": "10113692", "OP_COMP_HR": "1099", "OPERATOR": "NORTHERN NATURAL GAS COMPANY", "ZIP": "51046", "STATUS": "IN SERVICE", "CITY": "PAULLINA", "COUNTYFIPS": "19041", "EXP_FUEL": "19404", "GAS_COMPRE": "10503", "OP_DATE_PE": "1/18/2020 12:00:00 AM", "LONGITUDE": "-95.6798", "POSREL": "WITHIN 40 FEET", "ELEC_COMPR": "201760", "ZIP4": "7001", "LATITUDE": "42.9084", "SOURCE": "EPA ENVIROFACTS, FERC FORM 2, CORPORATE WEBSITE", "OP_NUM_COM": "3", "STATE": "IA", "NAICS_DESC": "BOOSTER PUMPING STATION, NATURAL GAS TRANSPORTATION", "SOURCEDATE": "7/15/2020 12:00:00 AM", "TYPE": "NATURAL GAS COMPRESSOR STATION", "PIPECO": "NORTHERN NATURAL GAS COMPANY", "NAICS_CODE": "486210", "COUNTY": "OBRIEN", "VAL_DATE": "6/17/2022 12:00:00 AM" }, "geometry": { "type": "Point", "coordinates": [ -95.6798, 42.9084 ] } },
{ "type": "Feature", "properties": { "NAME": "CUNNINGHAM", "ADDRESS": "20307 NORTHEAST 150 AVENUE", "NUM_UNITS": "7", "EXP_OTHER": "1982586", "VAL_METHOD": "IMAGERY/OTHER", "y": "4534668.7399260299", "WEBSITE": "http://www.northernnaturalgas.com/", "COMPID": "59", "EXP_POWER": "705652", "CERT_HP": "16450", "x": "-10961270.8732337", "OBJECTID": "615", "COUNTRY": "USA", "GCOMPID": "GCOMP321", "PLANT_COST": "33239709", "OP_COMP_HR": "9521", "OPERATOR": "NORTHERN NATURAL GAS COMPANY", "ZIP": "67035", "STATUS": "IN SERVICE", "CITY": "CUNNINGHAM", "COUNTYFIPS": "20095", "EXP_FUEL": "341404", "GAS_COMPRE": "124132", "OP_DATE_PE": "12/3/2012 12:00:00 AM", "LONGITUDE": "-98.466771588", "POSREL": "WITHIN 40 FEET", "ELEC_COMPR": "7853790", "ZIP4": "9123", "LATITUDE": "37.682488939000002", "SOURCE": "EPA ENVIROFACTS, FERC FORM 2, CORPORATE WEBSITE", "OP_NUM_COM": "5", "STATE": "KS", "NAICS_DESC": "BOOSTER PUMPING STATION, NATURAL GAS TRANSPORTATION", "SOURCEDATE": "7/15/2020 12:00:00 AM", "TYPE": "NATURAL GAS COMPRESSOR STATION", "PIPECO": "NORTHERN NATURAL GAS COMPANY", "NAICS_CODE": "486210", "COUNTY": "KINGMAN", "VAL_DATE": "6/17/2022 12:00:00 AM" }, "geometry": { "type": "Point", "coordinates": [ -98.466771588, 37.682488939 ] } },
{ "type": "Feature", "properties": { "NAME": "CARLTON", "ADDRESS": "1995 NORTHERN NATURAL GAS ROAD", "NUM_UNITS": "2", "EXP_OTHER": "939486", "VAL_METHOD": "IMAGERY/OTHER", "y": "5885118.6363522597", "WEBSITE": "http://www.northernnaturalgas.com/", "COMPID": "59", "EXP_POWER": "36924", "CERT_HP": "8000", "x": "-10297159.8210827", "OBJECTID": "593", "COUNTRY": "USA", "GCOMPID": "GCOMP301", "PLANT_COST": "12013846", "OP_COMP_HR": "4187", "OPERATOR": "NORTHERN NATURAL GAS COMPANY", "ZIP": "55718", "STATUS": "IN SERVICE", "CITY": "CARLTON", "COUNTYFIPS": "27017", "EXP_FUEL": "163412", "GAS_COMPRE": "87107", "OP_DATE_PE": "2/19/2020 12:00:00 AM", "LONGITUDE": "-92.500960503000002", "POSREL": "WITHIN 40 FEET", "ELEC_COMPR": "265400", "ZIP4": "NOT AVAILABLE", "LATITUDE": "46.649923041000001", "SOURCE": "EPA ENVIROFACTS, FERC FORM 2, CORPORATE WEBSITE", "OP_NUM_COM": "2", "STATE": "MN", "NAICS_DESC": "BOOSTER PUMPING STATION, NATURAL GAS TRANSPORTATION", "SOURCEDATE": "7/15/2020 12:00:00 AM", "TYPE": "NATURAL GAS COMPRESSOR STATION", "PIPECO": "NORTHERN NATURAL GAS COMPANY", "NAICS_CODE": "486210", "COUNTY": "CARLTON", "VAL_DATE": "6/17/2022 12:00:00 AM" }, "geometry": { "type": "Point", "coordinates": [ -89.889471541640006, 46.511558949799998 ] } },
{ "type": "Feature", "properties": { "NAME": "OAKLAND", "ADDRESS": "46299 HIGHWAY 6", "NUM_UNITS": "6", "EXP_OTHER": "902688", "VAL_METHOD": "IMAGERY/OTHER", "y": "5059165.9302436896", "WEBSITE": "http://www.northernnaturalgas.com/", "COMPID": "59", "EXP_POWER": "75431", "CERT_HP": "30500", "x": "-10608842.653769201", "OBJECTID": "962", "COUNTRY": "USA", "GCOMPID": "GCOMP636", "PLANT_COST": "30107601", "OP_COMP_HR": "12901", "OPERATOR": "NORTHERN NATURAL GAS COMPANY", "ZIP": "51560", "STATUS": "IN SERVICE", "CITY": "OAKLAND", "COUNTYFIPS": "19155", "EXP_FUEL": "1078960", "GAS_COMPRE": "365323", "OP_DATE_PE": "10/31/2012 12:00:00 AM", "LONGITUDE": "-95.300855026999997", "POSREL": "WITHIN 40 FEET", "ELEC_COMPR": "545400", "ZIP4": "NOT AVAILABLE", "LATITUDE": "41.31668827", "SOURCE": "EPA ENVIROFACTS, FERC FORM 2, CORPORATE WEBSITE", "OP_NUM_COM": "6", "STATE": "IA", "NAICS_DESC": "BOOSTER PUMPING STATION, NATURAL GAS TRANSPORTATION", "SOURCEDATE": "7/15/2020 12:00:00 AM", "TYPE": "NATURAL GAS COMPRESSOR STATION", "PIPECO": "NORTHERN NATURAL GAS COMPANY", "NAICS_CODE": "486210", "COUNTY": "POTTAWATTAMIE", "VAL_DATE": "6/17/2022 12:00:00 AM" }, "geometry": { "type": "Point", "coordinates": [ -95.300855027, 41.31668827 ] } },
{ "type": "Feature", "properties": { "NAME": "SPENCER", "ADDRESS": "43 1ST AVENUE", "NUM_UNITS": "1", "EXP_OTHER": "252838", "VAL_METHOD": "IMAGERY/OTHER", "y": "5422263.3589821598", "WEBSITE": "http://www.northernnaturalgas.com/", "COMPID": "59", "EXP_POWER": "33909", "CERT_HP": "1100", "x": "-10863473.5288569", "OBJECTID": "935", "COUNTRY": "USA", "GCOMPID": "GCOMP611", "PLANT_COST": "4885705", "OP_COMP_HR": "405", "OPERATOR": "NORTHERN NATURAL GAS COMPANY", "ZIP": "57374", "STATUS": "IN SERVICE", "CITY": "SPENCER", "COUNTYFIPS": "46087", "EXP_FUEL": "0", "GAS_COMPRE": "0", "OP_DATE_PE": "1/16/2020 12:00:00 AM", "LONGITUDE": "-97.588243096", "POSREL": "WITHIN 40 FEET", "ELEC_COMPR": "334800", "ZIP4": "NOT AVAILABLE", "LATITUDE": "43.720325062000001", "SOURCE": "FERC FORM 2, CORPORATE WEBSITE, IMAGERY", "OP_NUM_COM": "1", "STATE": "SD", "NAICS_DESC": "BOOSTER PUMPING STATION, NATURAL GAS TRANSPORTATION", "SOURCEDATE": "7/15/2020 12:00:00 AM", "TYPE": "NATURAL GAS COMPRESSOR STATION", "PIPECO": "NORTHERN NATURAL GAS COMPANY", "NAICS_CODE": "486210", "COUNTY": "MCCOOK", "VAL_DATE": "6/17/2022 12:00:00 AM" }, "geometry": { "type": "Point", "coordinates": [ -97.588243096, 43.720325062 ] } },
{ "type": "Feature", "properties": { "NAME": "NORTH BRANCH", "ADDRESS": "6579 420TH STREET", "NUM_UNITS": "4", "EXP_OTHER": "2210443", "VAL_METHOD": "IMAGERY/OTHER", "y": "5709430.44791207", "WEBSITE": "http://www.northernnaturalgas.com/", "COMPID": "59", "EXP_POWER": "55387", "CERT_HP": "8000", "x": "-10349811.6435955", "OBJECTID": "1122", "COUNTRY": "USA", "GCOMPID": "GCOMP780", "PLANT_COST": "17689653", "OP_COMP_HR": "11290", "OPERATOR": "NORTHERN NATURAL GAS COMPANY", "ZIP": "55056", "STATUS": "IN SERVICE", "CITY": "NORTH BRANCH", "COUNTYFIPS": "27025", "EXP_FUEL": "231211", "GAS_COMPRE": "125249", "OP_DATE_PE": "1/20/2020 12:00:00 AM", "LONGITUDE": "-92.973939872000003", "POSREL": "WITHIN 40 FEET", "ELEC_COMPR": "457600", "ZIP4": "NOT AVAILABLE", "LATITUDE": "45.555680975999998", "SOURCE": "EPA ENVIROFACTS, FERC FORM 2, CORPORATE WEBSITE", "OP_NUM_COM": "4", "STATE": "MN", "NAICS_DESC": "BOOSTER PUMPING STATION, NATURAL GAS TRANSPORTATION", "SOURCEDATE": "7/15/2020 12:00:00 AM", "TYPE": "NATURAL GAS COMPRESSOR STATION", "PIPECO": "NORTHERN NATURAL GAS COMPANY", "NAICS_CODE": "486210", "COUNTY": "CHISAGO", "VAL_DATE": "6/17/2022 12:00:00 AM" }, "geometry": { "type": "Point", "coordinates": [ -92.973939872, 45.555680976 ] } },
{ "type": "Feature", "properties": { "NAME": "BUSHTON", "ADDRESS": "790 AVENUE Y", "NUM_UNITS": "10", "EXP_OTHER": "4995883", "VAL_METHOD": "IMAGERY/OTHER", "y": "4653603.08655464", "WEBSITE": "http://www.northernnaturalgas.com/", "COMPID": "59", "EXP_POWER": "226229", "CERT_HP": "42900", "x": "-10948803.024808999", "OBJECTID": "1206", "COUNTRY": "USA", "GCOMPID": "GCOMP856", "PLANT_COST": "89918903", "OP_COMP_HR": "29189", "OPERATOR": "NORTHERN NATURAL GAS COMPANY", "ZIP": "67427", "STATUS": "IN SERVICE", "CITY": "BUSHTON", "COUNTYFIPS": "20159", "EXP_FUEL": "1713028", "GAS_COMPRE": "951688", "OP_DATE_PE": "10/19/2020 12:00:00 AM", "LONGITUDE": "-98.354771", "POSREL": "WITHIN 40 FEET", "ELEC_COMPR": "3319780", "ZIP4": "NOT AVAILABLE", "LATITUDE": "38.523205", "SOURCE": "EPA ENVIROFACTS, FERC FORM 2, CORPORATE WEBSITE", "OP_NUM_COM": "8", "STATE": "KS", "NAICS_DESC": "BOOSTER PUMPING STATION, NATURAL GAS TRANSPORTATION", "SOURCEDATE": "7/15/2020 12:00:00 AM", "TYPE": "NATURAL GAS COMPRESSOR STATION", "PIPECO": "NORTHERN NATURAL GAS COMPANY", "NAICS_CODE": "486210", "COUNTY": "RICE", "VAL_DATE": "6/17/2022 12:00:00 AM" }, "geometry": { "type": "Point", "coordinates": [ -98.354771, 38.523205 ] } },
{ "type": "Feature", "properties": { "NAME": "OWATONNA", "ADDRESS": "8763 COUNTY ROAD-7", "NUM_UNITS": "1", "EXP_OTHER": "402265", "VAL_METHOD": "IMAGERY/OTHER", "y": "5459479.2494600704", "WEBSITE": "http://www.northernnaturalgas.com/", "COMPID": "59", "EXP_POWER": "56301", "CERT_HP": "28937", "x": "-10394856.535868101", "OBJECTID": "1248", "COUNTRY": "USA", "GCOMPID": "GCOMP894", "PLANT_COST": "54227514", "OP_COMP_HR": "2714", "OPERATOR": "NORTHERN NATURAL GAS COMPANY", "ZIP": "56026", "STATUS": "IN SERVICE", "CITY": "ELLENDALE", "COUNTYFIPS": "27147", "EXP_FUEL": "304408", "GAS_COMPRE": "165502", "OP_DATE_PE": "1/28/2020 12:00:00 AM", "LONGITUDE": "-93.378585024000003", "POSREL": "WITHIN 40 FEET", "ELEC_COMPR": "486150", "ZIP4": "NOT AVAILABLE", "LATITUDE": "43.961455371", "SOURCE": "EPA ENVIROFACTS, FERC FORM 2, CORPORATE WEBSITE", "OP_NUM_COM": "1", "STATE": "MN", "NAICS_DESC": "BOOSTER PUMPING STATION, NATURAL GAS TRANSPORTATION", "SOURCEDATE": "7/15/2020 12:00:00 AM", "TYPE": "NATURAL GAS COMPRESSOR STATION", "PIPECO": "NORTHERN NATURAL GAS COMPANY", "NAICS_CODE": "486210", "COUNTY": "STEELE", "VAL_DATE": "6/17/2022 12:00:00 AM" }, "geometry": { "type": "Point", "coordinates": [ -93.378585024, 43.961455371 ] } },
{ "type": "Feature", "properties": { "NAME": "LACRESCENT", "ADDRESS": "8481 COUNTY ROAD 25", "NUM_UNITS": "1", "EXP_OTHER": "75512", "VAL_METHOD": "IMAGERY/OTHER", "y": "5436658.3156062299", "WEBSITE": "http://www.northernnaturalgas.com/", "COMPID": "59", "EXP_POWER": "13138", "CERT_HP": "1250", "x": "-10180373.105043599", "OBJECTID": "1235", "COUNTRY": "USA", "GCOMPID": "GCOMP882", "PLANT_COST": "5061717", "OP_COMP_HR": "0", "OPERATOR": "NORTHERN NATURAL GAS COMPANY", "ZIP": "55943", "STATUS": "IN SERVICE", "CITY": "HOUSTON", "COUNTYFIPS": "27055", "EXP_FUEL": "0", "GAS_COMPRE": "0", "OP_DATE_PE": "1/1/2001 12:00:00 AM", "LONGITUDE": "-91.451847583000003", "POSREL": "WITHIN 40 FEET", "ELEC_COMPR": "61245", "ZIP4": "NOT AVAILABLE", "LATITUDE": "43.813708868", "SOURCE": "EPA ENVIROFACTS, FERC FORM 2, CORPORATE WEBSITE", "OP_NUM_COM": "0", "STATE": "MN", "NAICS_DESC": "BOOSTER PUMPING STATION, NATURAL GAS TRANSPORTATION", "SOURCEDATE": "7/15/2020 12:00:00 AM", "TYPE": "NATURAL GAS COMPRESSOR STATION", "PIPECO": "NORTHERN NATURAL GAS COMPANY", "NAICS_CODE": "486210", "COUNTY": "HOUSTON", "VAL_DATE": "6/17/2022 12:00:00 AM" }, "geometry": { "type": "Point", "coordinates": [ -91.451847583, 43.813708868 ] } },
{ "type": "Feature", "properties": { "NAME": "SPRABERRY", "ADDRESS": "13521 FM-1379", "NUM_UNITS": "6", "EXP_OTHER": "3389065", "VAL_METHOD": "IMAGERY/OTHER", "y": "3744334.33832592", "WEBSITE": "http://www.northernnaturalgas.com/", "COMPID": "59", "EXP_POWER": "69310", "CERT_HP": "7702", "x": "-11331902.484524099", "OBJECTID": "421", "COUNTRY": "USA", "GCOMPID": "GCOMP147", "PLANT_COST": "22569348", "OP_COMP_HR": "32064", "OPERATOR": "NORTHERN NATURAL GAS COMPANY", "ZIP": "79706", "STATUS": "IN SERVICE", "CITY": "MIDLAND", "COUNTYFIPS": "48329", "EXP_FUEL": "514959", "GAS_COMPRE": "282053", "OP_DATE_PE": "12/26/2020 12:00:00 AM", "LONGITUDE": "-101.796212", "POSREL": "WITHIN 40 FEET", "ELEC_COMPR": "1197100", "ZIP4": "NOT AVAILABLE", "LATITUDE": "31.855322", "SOURCE": "EPA ENVIROFACTS, FERC FORM 2, CORPORATE WEBSITE", "OP_NUM_COM": "3", "STATE": "TX", "NAICS_DESC": "BOOSTER PUMPING STATION, NATURAL GAS TRANSPORTATION", "SOURCEDATE": "7/15/2020 12:00:00 AM", "TYPE": "NATURAL GAS COMPRESSOR STATION", "PIPECO": "NORTHERN NATURAL GAS COMPANY", "NAICS_CODE": "486210", "COUNTY": "MIDLAND", "VAL_DATE": "6/17/2022 12:00:00 AM" }, "geometry": { "type": "Point", "coordinates": [ -101.796212, 31.855322 ] } },
{ "type": "Feature", "properties": { "NAME": "MACKSVILLE", "ADDRESS": "130 F ROAD; SECT 12 TWNSHP 23S RNG 15W", "NUM_UNITS": "5", "EXP_OTHER": "2294337", "VAL_METHOD": "IMAGERY/OTHER", "y": "4589435.5769509804", "WEBSITE": "http://www.northernnaturalgas.com/", "COMPID": "59", "EXP_POWER": "82825", "CERT_HP": "33900", "x": "-11011675.393228499", "OBJECTID": "346", "COUNTRY": "USA", "GCOMPID": "GCOMP131", "PLANT_COST": "31008942", "OP_COMP_HR": "10578", "OPERATOR": "NORTHERN NATURAL GAS COMPANY", "ZIP": "67550", "STATUS": "IN SERVICE", "CITY": "LARNED", "COUNTYFIPS": "20145", "EXP_FUEL": "1242443", "GAS_COMPRE": "709577", "OP_DATE_PE": "2/13/2020 12:00:00 AM", "LONGITUDE": "-98.919563095000001", "POSREL": "WITHIN 40 FEET", "ELEC_COMPR": "964000", "ZIP4": "NOT AVAILABLE", "LATITUDE": "38.07082309", "SOURCE": "EPA ENVIROFACTS, FERC FORM 2, CORPORATE WEBSITE", "OP_NUM_COM": "3", "STATE": "KS", "NAICS_DESC": "BOOSTER PUMPING STATION, NATURAL GAS TRANSPORTATION", "SOURCEDATE": "7/15/2020 12:00:00 AM", "TYPE": "NATURAL GAS COMPRESSOR STATION", "PIPECO": "NORTHERN NATURAL GAS COMPANY", "NAICS_CODE": "486210", "COUNTY": "PAWNEE", "VAL_DATE": "6/17/2022 12:00:00 AM" }, "geometry": { "type": "Point", "coordinates": [ -98.919563095, 38.07082309 ] } },
{ "type": "Feature", "properties": { "NAME": "MULLINVILLE", "ADDRESS": "CORNER OF 17TH AVENUE AND US-400; S20-T28S-R19W", "NUM_UNITS": "7", "EXP_OTHER": "2343321", "VAL_METHOD": "IMAGERY/OTHER", "y": "4521273.60717298", "WEBSITE": "http://www.northernnaturalgas.com/", "COMPID": "59", "EXP_POWER": "203208", "CERT_HP": "29300", "x": "-11066713.186054699", "OBJECTID": "1345", "COUNTRY": "USA", "GCOMPID": "GCOMP981", "PLANT_COST": "69195128", "OP_COMP_HR": "23107", "OPERATOR": "NORTHERN NATURAL GAS COMPANY", "ZIP": "67054", "STATUS": "IN SERVICE", "CITY": "GREENSBURG", "COUNTYFIPS": "20097", "EXP_FUEL": "2066548", "GAS_COMPRE": "1133393", "OP_DATE_PE": "1/8/2020 12:00:00 AM", "LONGITUDE": "-99.413976", "POSREL": "WITHIN 40 FEET", "ELEC_COMPR": "2542783", "ZIP4": "NOT AVAILABLE", "LATITUDE": "37.587197", "SOURCE": "EPA ENVIROFACTS, FERC FORM 2, CORPORATE WEBSITE", "OP_NUM_COM": "6", "STATE": "KS", "NAICS_DESC": "BOOSTER PUMPING STATION, NATURAL GAS TRANSPORTATION", "SOURCEDATE": "7/15/2020 12:00:00 AM", "TYPE": "NATURAL GAS COMPRESSOR STATION", "PIPECO": "NORTHERN NATURAL GAS COMPANY", "NAICS_CODE": "486210", "COUNTY": "KIOWA", "VAL_DATE": "6/17/2022 12:00:00 AM" }, "geometry": { "type": "Point", "coordinates": [ -99.413976, 37.587197 ] } },
{ "type": "Feature", "properties": { "NAME": "SUNRAY", "ADDRESS": "11571 TEXAS BEEF ROAD", "NUM_UNITS": "7", "EXP_OTHER": "2310531", "VAL_METHOD": "IMAGERY/OTHER", "y": "4295495.6461979598", "WEBSITE": "http://www.northernnaturalgas.com/", "COMPID": "59", "EXP_POWER": "74233", "CERT_HP": "14000", "x": "-11334060.893308099", "OBJECTID": "1310", "COUNTRY": "USA", "GCOMPID": "GCOMP95", "PLANT_COST": "23879224", "OP_COMP_HR": "34331", "OPERATOR": "NORTHERN NATURAL GAS COMPANY", "ZIP": "79086", "STATUS": "IN SERVICE", "CITY": "SUNRAY", "COUNTYFIPS": "48341", "EXP_FUEL": "830856", "GAS_COMPRE": "455999", "OP_DATE_PE": "1/1/2020 12:00:00 AM", "LONGITUDE": "-101.815601316", "POSREL": "WITHIN 40 FEET", "ELEC_COMPR": "1439400", "ZIP4": "NOT AVAILABLE", "LATITUDE": "35.962739871000103", "SOURCE": "EPA ENVIROFACTS, FERC FORM 2, CORPORATE WEBSITE", "OP_NUM_COM": "6", "STATE": "TX", "NAICS_DESC": "BOOSTER PUMPING STATION, NATURAL GAS TRANSPORTATION", "SOURCEDATE": "7/15/2020 12:00:00 AM", "TYPE": "NATURAL GAS COMPRESSOR STATION", "PIPECO": "NORTHERN NATURAL GAS COMPANY", "NAICS_CODE": "486210", "COUNTY": "MOORE", "VAL_DATE": "6/17/2022 12:00:00 AM" }, "geometry": { "type": "Point", "coordinates": [ -101.815601316, 35.962739871 ] } },
{ "type": "Feature", "properties": { "NAME": "ELK RIVER", "ADDRESS": "205TH AVENUE NW/EAST OF AUBURN STREET NW", "NUM_UNITS": "1", "EXP_OTHER": "250556", "VAL_METHOD": "IMAGERY/OTHER", "y": "5675689.5180439297", "WEBSITE": "http://www.northernnaturalgas.com/", "COMPID": "59", "EXP_POWER": "12016", "CERT_HP": "1100", "x": "-10414022.828153601", "OBJECTID": "622", "COUNTRY": "USA", "GCOMPID": "GCOMP328", "PLANT_COST": "6389118", "OP_COMP_HR": "1", "OPERATOR": "NORTHERN NATURAL GAS COMPANY", "ZIP": "55330", "STATUS": "IN SERVICE", "CITY": "ELK RIVER", "COUNTYFIPS": "27141", "EXP_FUEL": "0", "GAS_COMPRE": "0", "OP_DATE_PE": "1/8/2020 12:00:00 AM", "LONGITUDE": "-93.550758756999997", "POSREL": "WITHIN 40 FEET", "ELEC_COMPR": "139800", "ZIP4": "NOT AVAILABLE", "LATITUDE": "45.343044822000003", "SOURCE": "MINNESOTA PUBLIC UTILTIES COMMISSION, CORPORATE WEBSITE, FERC FORM 2", "OP_NUM_COM": "1", "STATE": "MN", "NAICS_DESC": "BOOSTER PUMPING STATION, NATURAL GAS TRANSPORTATION", "SOURCEDATE": "7/15/2020 12:00:00 AM", "TYPE": "NATURAL GAS COMPRESSOR STATION", "PIPECO": "NORTHERN NATURAL GAS COMPANY", "NAICS_CODE": "486210", "COUNTY": "SHERBURNE", "VAL_DATE": "6/17/2022 12:00:00 AM" }, "geometry": { "type": "Point", "coordinates": [ -93.550758757, 45.343044822 ] } },
{ "type": "Feature", "properties": { "NAME": "CARGRAY COMPRESSION STATION", "ADDRESS": "2288 FM-2386 (HIGHWAY 152 WEST 7.1 MILES RR 2386 SOUTH)", "NUM_UNITS": "3", "EXP_OTHER": "0", "VAL_METHOD": "IMAGERY/OTHER", "y": "4234081.4885828299", "WEBSITE": "http://www.northernnaturalgas.com/", "COMPID": "59", "EXP_POWER": "0", "CERT_HP": "3804", "x": "-11257890.372434599", "OBJECTID": "673", "COUNTRY": "USA", "GCOMPID": "GCOMP374", "PLANT_COST": "-999", "OP_COMP_HR": "17115", "OPERATOR": "NORTHERN NATURAL GAS COMPANY", "ZIP": "79065", "STATUS": "IN SERVICE", "CITY": "PAMPA", "COUNTYFIPS": "48065", "EXP_FUEL": "356027", "GAS_COMPRE": "128410", "OP_DATE_PE": "3/14/2012 12:00:00 AM", "LONGITUDE": "-101.131349885105", "POSREL": "WITHIN 40 FEET", "ELEC_COMPR": "0", "ZIP4": "NOT AVAILABLE", "LATITUDE": "35.514939922680902", "SOURCE": "EPA ENVIROFACTS, FERC FORM 2, CORPORATE WEBSITE", "OP_NUM_COM": "3", "STATE": "TX", "NAICS_DESC": "BOOSTER PUMPING STATION, NATURAL GAS TRANSPORTATION", "SOURCEDATE": "7/15/2020 12:00:00 AM", "TYPE": "NATURAL GAS COMPRESSOR STATION", "PIPECO": "NORTHERN NATURAL GAS COMPANY", "NAICS_CODE": "486210", "COUNTY": "CARSON", "VAL_DATE": "6/24/2022 12:00:00 AM" }, "geometry": { "type": "Point", "coordinates": [ -101.131349885109998, 35.51493992268 ] } },
{ "type": "Feature", "properties": { "NAME": "HOLCOMB", "ADDRESS": "9480 W HIGHWAY 50", "NUM_UNITS": "1", "EXP_OTHER": "6776", "VAL_METHOD": "IMAGERY/OTHER", "y": "4579885.9279529899", "WEBSITE": "http://www.northernnaturalgas.com/", "COMPID": "63", "EXP_POWER": "1803", "CERT_HP": "556", "x": "-11246965.045131899", "OBJECTID": "1271", "COUNTRY": "USA", "GCOMPID": "GCOMP914", "PLANT_COST": "247432", "OP_COMP_HR": "2145", "OPERATOR": "NORTHERN NATURAL GAS COMPANY", "ZIP": "67851", "STATUS": "IN SERVICE", "CITY": "HOLCOMB", "COUNTYFIPS": "20055", "EXP_FUEL": "0", "GAS_COMPRE": "84140", "OP_DATE_PE": "4/3/2012 12:00:00 AM", "LONGITUDE": "-101.033206", "POSREL": "WITHIN 40 FEET", "ELEC_COMPR": "4640", "ZIP4": "NOT AVAILABLE", "LATITUDE": "38.003257", "SOURCE": "FERC FORM 2, IMAGERY", "OP_NUM_COM": "1", "STATE": "KS", "NAICS_DESC": "BOOSTER PUMPING STATION, NATURAL GAS TRANSPORTATION", "SOURCEDATE": "7/15/2020 12:00:00 AM", "TYPE": "NATURAL GAS COMPRESSOR STATION", "PIPECO": "NORTHERN NATURAL GAS COMPANY", "NAICS_CODE": "486210", "COUNTY": "FINNEY", "VAL_DATE": "6/24/2022 12:00:00 AM" }, "geometry": { "type": "Point", "coordinates": [ -101.033206, 38.003257 ] } },
{ "type": "Feature", "properties": { "NAME": "TESCOTT", "ADDRESS": "685 N 40TH ROAD", "NUM_UNITS": "2", "EXP_OTHER": "1200261", "VAL_METHOD": "IMAGERY/OTHER", "y": "4729658.1357969996", "WEBSITE": "http://www.northernnaturalgas.com/", "COMPID": "59", "EXP_POWER": "34199", "CERT_HP": "20252", "x": "-10893313.0433056", "OBJECTID": "1147", "COUNTRY": "USA", "GCOMPID": "GCOMP802", "PLANT_COST": "23152912", "OP_COMP_HR": "1399", "OPERATOR": "NORTHERN NATURAL GAS COMPANY", "ZIP": "67484", "STATUS": "IN SERVICE", "CITY": "TESCOTT", "COUNTYFIPS": "20143", "EXP_FUEL": "327890", "GAS_COMPRE": "185971", "OP_DATE_PE": "2/13/2020 12:00:00 AM", "LONGITUDE": "-97.856296014999998", "POSREL": "WITHIN 40 FEET", "ELEC_COMPR": "289841", "ZIP4": "NOT AVAILABLE", "LATITUDE": "39.055733990999997", "SOURCE": "EPA ENVIROFACTS, FERC FORM 2, CORPORATE WEBSITE", "OP_NUM_COM": "1", "STATE": "KS", "NAICS_DESC": "BOOSTER PUMPING STATION, NATURAL GAS TRANSPORTATION", "SOURCEDATE": "7/15/2020 12:00:00 AM", "TYPE": "NATURAL GAS COMPRESSOR STATION", "PIPECO": "NORTHERN NATURAL GAS COMPANY", "NAICS_CODE": "486210", "COUNTY": "OTTAWA", "VAL_DATE": "6/17/2022 12:00:00 AM" }, "geometry": { "type": "Point", "coordinates": [ -97.856296015, 39.055733991 ] } },
{ "type": "Feature", "properties": { "NAME": "VENTURA", "ADDRESS": "2415 270TH STREET", "NUM_UNITS": "5", "EXP_OTHER": "896580", "VAL_METHOD": "IMAGERY/OTHER", "y": "5335902.0555232503", "WEBSITE": "http://www.northernnaturalgas.com/", "COMPID": "59", "EXP_POWER": "48707", "CERT_HP": "12330", "x": "-10409768.669544101", "OBJECTID": "707", "COUNTRY": "USA", "GCOMPID": "GCOMP404", "PLANT_COST": "18646489", "OP_COMP_HR": "7207", "OPERATOR": "NORTHERN NATURAL GAS COMPANY", "ZIP": "50438", "STATUS": "IN SERVICE", "CITY": "GARNER", "COUNTYFIPS": "19081", "EXP_FUEL": "551371", "GAS_COMPRE": "311051", "OP_DATE_PE": "1/16/2020 12:00:00 AM", "LONGITUDE": "-93.512543", "POSREL": "WITHIN 40 FEET", "ELEC_COMPR": "506457", "ZIP4": "NOT AVAILABLE", "LATITUDE": "43.157017", "SOURCE": "EPA ENVIROFACTS, FERC FORM 2, CORPORATE WEBSITE", "OP_NUM_COM": "5", "STATE": "IA", "NAICS_DESC": "BOOSTER PUMPING STATION, NATURAL GAS TRANSPORTATION", "SOURCEDATE": "7/15/2020 12:00:00 AM", "TYPE": "NATURAL GAS COMPRESSOR STATION", "PIPECO": "NORTHERN NATURAL GAS COMPANY", "NAICS_CODE": "486210", "COUNTY": "HANCOCK", "VAL_DATE": "6/17/2022 12:00:00 AM" }, "geometry": { "type": "Point", "coordinates": [ -93.512543, 43.157017 ] } },
{ "type": "Feature", "properties": { "NAME": "ROGER MILLS COUNTY #1 COMPRESSOR STATION (NORTHERN NATURAL)", "ADDRESS": "SW OF ROADS N1940 AND E1010", "NUM_UNITS": "2", "EXP_OTHER": "-999", "VAL_METHOD": "IMAGERY/OTHER", "y": "4238942.2821062999", "WEBSITE": "https://www.northernnaturalgas.com/", "COMPID": "NOT AVAILABLE", "EXP_POWER": "-999", "CERT_HP": "-999", "x": "-11078902.2250186", "OBJECTID": "2135", "COUNTRY": "USA", "GCOMPID": "GCOMP2138", "PLANT_COST": "-999", "OP_COMP_HR": "-999", "OPERATOR": "NORTHERN NATURAL GAS COMPANY", "ZIP": "73644", "STATUS": "IN SERVICE", "CITY": "ELK CITY", "COUNTYFIPS": "40129", "EXP_FUEL": "-999", "GAS_COMPRE": "-999", "OP_DATE_PE": null, "LONGITUDE": "-99.523472", "POSREL": "WITHIN 166 FEET", "ELEC_COMPR": "-999", "ZIP4": "NOT AVAILABLE", "LATITUDE": "35.550474", "SOURCE": "NPMS, IMAGERY", "OP_NUM_COM": "-999", "STATE": "OK", "NAICS_DESC": "BOOSTER PUMPING STATION, NATURAL GAS TRANSPORTATION", "SOURCEDATE": "6/10/2022 12:00:00 AM", "TYPE": "NATURAL GAS COMPRESSOR STATION", "PIPECO": "NORTHERN NATURAL GAS COMPANY", "NAICS_CODE": "486210", "COUNTY": "ROGER MILLS", "VAL_DATE": "6/25/2022 12:00:00 AM" }, "geometry": { "type": "Point", "coordinates": [ -99.523472, 35.550474 ] } },
{ "type": "Feature", "properties": { "NAME": "EARLVILLE", "ADDRESS": "2379 260TH AVENUE", "NUM_UNITS": "1", "EXP_OTHER": "171091", "VAL_METHOD": "IMAGERY/OTHER", "y": "5226909.88624804", "WEBSITE": "http://www.northernnaturalgas.com/", "COMPID": "59", "EXP_POWER": "16070", "CERT_HP": "15000", "x": "-10162056.2166517", "OBJECTID": "695", "COUNTRY": "USA", "GCOMPID": "GCOMP394", "PLANT_COST": "17071044", "OP_COMP_HR": "54", "OPERATOR": "NORTHERN NATURAL GAS COMPANY", "ZIP": "52223", "STATUS": "IN SERVICE", "CITY": "DELHI", "COUNTYFIPS": "19055", "EXP_FUEL": "9810", "GAS_COMPRE": "5876", "OP_DATE_PE": "5/11/2020 12:00:00 AM", "LONGITUDE": "-91.287304175000003", "POSREL": "WITHIN 40 FEET", "ELEC_COMPR": "167624", "ZIP4": "NOT AVAILABLE", "LATITUDE": "42.43861441", "SOURCE": "EPA ENVIROFACTS, FERC FORM 2, CORPORATE WEBSITE", "OP_NUM_COM": "1", "STATE": "IA", "NAICS_DESC": "BOOSTER PUMPING STATION, NATURAL GAS TRANSPORTATION", "SOURCEDATE": "7/15/2020 12:00:00 AM", "TYPE": "NATURAL GAS COMPRESSOR STATION", "PIPECO": "NORTHERN NATURAL GAS COMPANY", "NAICS_CODE": "486210", "COUNTY": "DELAWARE", "VAL_DATE": "6/17/2022 12:00:00 AM" }, "geometry": { "type": "Point", "coordinates": [ -91.287304175, 42.43861441 ] } },
{ "type": "Feature", "properties": { "NAME": "FARMINGTON", "ADDRESS": "4685 212TH STREET W", "NUM_UNITS": "7", "EXP_OTHER": "1740522", "VAL_METHOD": "IMAGERY/OTHER", "y": "5565420.5349643202", "WEBSITE": "http://www.northernnaturalgas.com/", "COMPID": "59", "EXP_POWER": "296228", "CERT_HP": "20200", "x": "-10370705.060341001", "OBJECTID": "967", "COUNTRY": "USA", "GCOMPID": "GCOMP640", "PLANT_COST": "43412016", "OP_COMP_HR": "17469", "OPERATOR": "NORTHERN NATURAL GAS COMPANY", "ZIP": "55024", "STATUS": "IN SERVICE", "CITY": "FARMINGTON", "COUNTYFIPS": "27037", "EXP_FUEL": "469361", "GAS_COMPRE": "259034", "OP_DATE_PE": "10/3/2020 12:00:00 AM", "LONGITUDE": "-93.161628628000003", "POSREL": "WITHIN 40 FEET", "ELEC_COMPR": "2359760", "ZIP4": "NOT AVAILABLE", "LATITUDE": "44.64253587", "SOURCE": "EPA ENVIROFACTS, FERC FORM 2, CORPORATE WEBSITE", "OP_NUM_COM": "5", "STATE": "MN", "NAICS_DESC": "BOOSTER PUMPING STATION, NATURAL GAS TRANSPORTATION", "SOURCEDATE": "7/15/2020 12:00:00 AM", "TYPE": "NATURAL GAS COMPRESSOR STATION", "PIPECO": "NORTHERN NATURAL GAS COMPANY", "NAICS_CODE": "486210", "COUNTY": "DAKOTA", "VAL_DATE": "6/17/2022 12:00:00 AM" }, "geometry": { "type": "Point", "coordinates": [ -93.161628628, 44.64253587 ] } },
{ "type": "Feature", "properties": { "NAME": "BEATRICE", "ADDRESS": "30694 US HIGHWAY 77", "NUM_UNITS": "8", "EXP_OTHER": "2385839", "VAL_METHOD": "IMAGERY/OTHER", "y": "4897976.6079959199", "WEBSITE": "http://www.northernnaturalgas.com/", "COMPID": "59", "EXP_POWER": "75424", "CERT_HP": "35900", "x": "-10769361.8371218", "OBJECTID": "802", "COUNTRY": "USA", "GCOMPID": "GCOMP490", "PLANT_COST": "46435650", "OP_COMP_HR": "24694", "OPERATOR": "NORTHERN NATURAL GAS COMPANY", "ZIP": "68310", "STATUS": "IN SERVICE", "CITY": "BEATRICE", "COUNTYFIPS": "31067", "EXP_FUEL": "1639230", "GAS_COMPRE": "908355", "OP_DATE_PE": "1/16/2020 12:00:00 AM", "LONGITUDE": "-96.742823384999994", "POSREL": "WITHIN 40 FEET", "ELEC_COMPR": "907040", "ZIP4": "NOT AVAILABLE", "LATITUDE": "40.220088048000001", "SOURCE": "EPA ENVIROFACTS, FERC FORM 2, CORPORATE WEBSITE", "OP_NUM_COM": "8", "STATE": "NE", "NAICS_DESC": "BOOSTER PUMPING STATION, NATURAL GAS TRANSPORTATION", "SOURCEDATE": "7/15/2020 12:00:00 AM", "TYPE": "NATURAL GAS COMPRESSOR STATION", "PIPECO": "NORTHERN NATURAL GAS COMPANY", "NAICS_CODE": "486210", "COUNTY": "GAGE", "VAL_DATE": "6/17/2022 12:00:00 AM" }, "geometry": { "type": "Point", "coordinates": [ -96.742823385, 40.220088048 ] } },
{ "type": "Feature", "properties": { "NAME": "BROWNFIELD", "ADDRESS": "1770 FM-211; AT BROWNFIELD, 10 MILEN ON US38", "NUM_UNITS": "1", "EXP_OTHER": "565774", "VAL_METHOD": "IMAGERY/OTHER", "y": "3938591.37274436", "WEBSITE": "http://www.northernnaturalgas.com/", "COMPID": "59", "EXP_POWER": "39980", "CERT_HP": "9300", "x": "-11387667.1769273", "OBJECTID": "538", "COUNTRY": "USA", "GCOMPID": "GCOMP252", "PLANT_COST": "8330810", "OP_COMP_HR": "8743", "OPERATOR": "NORTHERN NATURAL GAS COMPANY", "ZIP": "79345", "STATUS": "IN SERVICE", "CITY": "MEADOW", "COUNTYFIPS": "48445", "EXP_FUEL": "1608620", "GAS_COMPRE": "880149", "OP_DATE_PE": "2/20/2020 12:00:00 AM", "LONGITUDE": "-102.29715475499999", "POSREL": "WITHIN 40 FEET", "ELEC_COMPR": "535840", "ZIP4": "NOT AVAILABLE", "LATITUDE": "33.32551952", "SOURCE": "EPA ENVIROFACTS, FERC FORM 2, CORPORATE WEBSITE", "OP_NUM_COM": "1", "STATE": "TX", "NAICS_DESC": "BOOSTER PUMPING STATION, NATURAL GAS TRANSPORTATION", "SOURCEDATE": "7/15/2020 12:00:00 AM", "TYPE": "NATURAL GAS COMPRESSOR STATION", "PIPECO": "NORTHERN NATURAL GAS COMPANY", "NAICS_CODE": "486210", "COUNTY": "TERRY", "VAL_DATE": "6/17/2022 12:00:00 AM" }, "geometry": { "type": "Point", "coordinates": [ -102.297154755, 33.32551952 ] } },
{ "type": "Feature", "properties": { "NAME": "SEMINOLE", "ADDRESS": "COUNTY ROAD 305", "NUM_UNITS": "1", "EXP_OTHER": "264923", "VAL_METHOD": "IMAGERY/OTHER", "y": "3839563.18650507", "WEBSITE": "http://www.northernnaturalgas.com/", "COMPID": "59", "EXP_POWER": "22349", "CERT_HP": "9300", "x": "-11429044.324969999", "OBJECTID": "1362", "COUNTRY": "USA", "GCOMPID": "GCOMP997", "PLANT_COST": "8050314", "OP_COMP_HR": "2892", "OPERATOR": "NORTHERN NATURAL GAS COMPANY", "ZIP": "79360", "STATUS": "IN SERVICE", "CITY": "SEMINOLE", "COUNTYFIPS": "48165", "EXP_FUEL": "445928", "GAS_COMPRE": "217300", "OP_DATE_PE": "11/18/2020 12:00:00 AM", "LONGITUDE": "-102.668852", "POSREL": "WITHIN 40 FEET", "ELEC_COMPR": "366720", "ZIP4": "NOT AVAILABLE", "LATITUDE": "32.579057", "SOURCE": "EPA ENVIROFACTS, FERC FORM 2, CORPORATE WEBSITE", "OP_NUM_COM": "1", "STATE": "TX", "NAICS_DESC": "BOOSTER PUMPING STATION, NATURAL GAS TRANSPORTATION", "SOURCEDATE": "7/15/2020 12:00:00 AM", "TYPE": "NATURAL GAS COMPRESSOR STATION", "PIPECO": "NORTHERN NATURAL GAS COMPANY", "NAICS_CODE": "486210", "COUNTY": "GAINES", "VAL_DATE": "6/17/2022 12:00:00 AM" }, "geometry": { "type": "Point", "coordinates": [ -102.576599142549995, 32.756025192289997 ] } },
{ "type": "Feature", "properties": { "NAME": "BELLEVILLE", "ADDRESS": "4982 CENTER ROAD", "NUM_UNITS": "4", "EXP_OTHER": "328709", "VAL_METHOD": "IMAGERY/OTHER", "y": "5264353.3821568796", "WEBSITE": "http://www.northernnaturalgas.com/", "COMPID": "59", "EXP_POWER": "18648", "CERT_HP": "4640", "x": "-9978767.7650237102", "OBJECTID": "983", "COUNTRY": "USA", "GCOMPID": "GCOMP655", "PLANT_COST": "6001801", "OP_COMP_HR": "11416", "OPERATOR": "NORTHERN NATURAL GAS COMPANY", "ZIP": "53566", "STATUS": "IN SERVICE", "CITY": "MONROE", "COUNTYFIPS": "55045", "EXP_FUEL": "262233", "GAS_COMPRE": "147272", "OP_DATE_PE": "4/29/2020 12:00:00 AM", "LONGITUDE": "-89.640796", "POSREL": "WITHIN 40 FEET", "ELEC_COMPR": "163832", "ZIP4": "NOT AVAILABLE", "LATITUDE": "42.686357", "SOURCE": "FERC FORM 2, IMAGERY", "OP_NUM_COM": "3", "STATE": "WI", "NAICS_DESC": "BOOSTER PUMPING STATION, NATURAL GAS TRANSPORTATION", "SOURCEDATE": "7/15/2020 12:00:00 AM", "TYPE": "NATURAL GAS COMPRESSOR STATION", "PIPECO": "NORTHERN NATURAL GAS COMPANY", "NAICS_CODE": "486210", "COUNTY": "GREEN", "VAL_DATE": "6/17/2022 12:00:00 AM" }, "geometry": { "type": "Point", "coordinates": [ -89.640796, 42.686357 ] } },
{ "type": "Feature", "properties": { "NAME": "OGDEN", "ADDRESS": "608 210TH STREET", "NUM_UNITS": "10", "EXP_OTHER": "3839612", "VAL_METHOD": "IMAGERY/OTHER", "y": "5168013.4238614701", "WEBSITE": "http://www.northernnaturalgas.com/", "COMPID": "59", "EXP_POWER": "101316", "CERT_HP": "30400", "x": "-10469083.8130599", "OBJECTID": "1076", "COUNTRY": "USA", "GCOMPID": "GCOMP739", "PLANT_COST": "35420810", "OP_COMP_HR": "33386", "OPERATOR": "NORTHERN NATURAL GAS COMPANY", "ZIP": "50212", "STATUS": "IN SERVICE", "CITY": "OGDEN", "COUNTYFIPS": "19015", "EXP_FUEL": "1507337", "GAS_COMPRE": "814360", "OP_DATE_PE": "12/2/2020 12:00:00 AM", "LONGITUDE": "-94.04538", "POSREL": "WITHIN 40 FEET", "ELEC_COMPR": "1150500", "ZIP4": "7441", "LATITUDE": "42.04694", "SOURCE": "EPA ENVIROFACTS, FERC FORM 2, CORPORATE WEBSITE", "OP_NUM_COM": "7", "STATE": "IA", "NAICS_DESC": "BOOSTER PUMPING STATION, NATURAL GAS TRANSPORTATION", "SOURCEDATE": "7/15/2020 12:00:00 AM", "TYPE": "NATURAL GAS COMPRESSOR STATION", "PIPECO": "NORTHERN NATURAL GAS COMPANY", "NAICS_CODE": "486210", "COUNTY": "BOONE", "VAL_DATE": "6/17/2022 12:00:00 AM" }, "geometry": { "type": "Point", "coordinates": [ -94.04538, 42.04694 ] } },
{ "type": "Feature", "properties": { "NAME": "PIERZ", "ADDRESS": "26373 123RD STREET", "NUM_UNITS": "1", "EXP_OTHER": "116679", "VAL_METHOD": "IMAGERY/OTHER", "y": "5770838.2137084398", "WEBSITE": "http://www.northernnaturalgas.com/", "COMPID": "59", "EXP_POWER": "62018", "CERT_HP": "800", "x": "-10477310.120382801", "OBJECTID": "739", "COUNTRY": "USA", "GCOMPID": "GCOMP433", "PLANT_COST": "5751795", "OP_COMP_HR": "2018", "OPERATOR": "NORTHERN NATURAL GAS COMPANY", "ZIP": "56364", "STATUS": "IN SERVICE", "CITY": "PIERZ", "COUNTYFIPS": "27097", "EXP_FUEL": "2709", "GAS_COMPRE": "1440", "OP_DATE_PE": "12/24/2020 12:00:00 AM", "LONGITUDE": "-94.119278175999995", "POSREL": "WITHIN 40 FEET", "ELEC_COMPR": "602000", "ZIP4": "NOT AVAILABLE", "LATITUDE": "45.940617371999998", "SOURCE": "EPA ENVIROFACTS, FERC FORM 2, CORPORATE WEBSITE", "OP_NUM_COM": "1", "STATE": "MN", "NAICS_DESC": "BOOSTER PUMPING STATION, NATURAL GAS TRANSPORTATION", "SOURCEDATE": "7/15/2020 12:00:00 AM", "TYPE": "NATURAL GAS COMPRESSOR STATION", "PIPECO": "NORTHERN NATURAL GAS COMPANY", "NAICS_CODE": "486210", "COUNTY": "MORRISON", "VAL_DATE": "6/17/2022 12:00:00 AM" }, "geometry": { "type": "Point", "coordinates": [ -94.119278176, 45.940617372 ] } },
{ "type": "Feature", "properties": { "NAME": "HUBBARD", "ADDRESS": "21497 290TH STREET", "NUM_UNITS": "1", "EXP_OTHER": "256660", "VAL_METHOD": "IMAGERY/OTHER", "y": "5203320.9312870298", "WEBSITE": "http://www.northernnaturalgas.com/", "COMPID": "59", "EXP_POWER": "44765", "CERT_HP": "8000", "x": "-10384034.3007666", "OBJECTID": "639", "COUNTRY": "USA", "GCOMPID": "GCOMP343", "PLANT_COST": "13530104", "OP_COMP_HR": "0", "OPERATOR": "NORTHERN NATURAL GAS COMPANY", "ZIP": "50122", "STATUS": "IN SERVICE", "CITY": "HUBBARD", "COUNTYFIPS": "19083", "EXP_FUEL": "0", "GAS_COMPRE": "0", "OP_DATE_PE": "7/16/2020 12:00:00 AM", "LONGITUDE": "-93.281367231999994", "POSREL": "WITHIN 40 FEET", "ELEC_COMPR": "421000", "ZIP4": "NOT AVAILABLE", "LATITUDE": "42.282034592000002", "SOURCE": "EPA ENVIROFACTS, FERC FORM 2, CORPORATE WEBSITE", "OP_NUM_COM": "1", "STATE": "IA", "NAICS_DESC": "BOOSTER PUMPING STATION, NATURAL GAS TRANSPORTATION", "SOURCEDATE": "7/15/2020 12:00:00 AM", "TYPE": "NATURAL GAS COMPRESSOR STATION", "PIPECO": "NORTHERN NATURAL GAS COMPANY", "NAICS_CODE": "486210", "COUNTY": "HARDIN", "VAL_DATE": "6/17/2022 12:00:00 AM" }, "geometry": { "type": "Point", "coordinates": [ -93.281367232, 42.282034592 ] } },
{ "type": "Feature", "properties": { "NAME": "SUBLETTE", "ADDRESS": "US-160; S1-T32S-R33W", "NUM_UNITS": "4", "EXP_OTHER": "839766", "VAL_METHOD": "IMAGERY/OTHER", "y": "4480662.3194156596", "WEBSITE": "http://www.northernnaturalgas.com/", "COMPID": "59", "EXP_POWER": "203679", "CERT_HP": "12360", "x": "-11228423.888374999", "OBJECTID": "377", "COUNTRY": "USA", "GCOMPID": "GCOMP1338", "PLANT_COST": "22196195", "OP_COMP_HR": "15014", "OPERATOR": "NORTHERN NATURAL GAS COMPANY", "ZIP": "67901", "STATUS": "IN SERVICE", "CITY": "LIBERAL", "COUNTYFIPS": "20175", "EXP_FUEL": "471916", "GAS_COMPRE": "172227", "OP_DATE_PE": "1/11/2012 12:00:00 AM", "LONGITUDE": "-100.866647955", "POSREL": "WITHIN 40 FEET", "ELEC_COMPR": "1943680", "ZIP4": "NOT AVAILABLE", "LATITUDE": "37.297545332", "SOURCE": "EPA ENVIROFACTS, FERC FORM 2, CORPORATE WEBSITE", "OP_NUM_COM": "2", "STATE": "KS", "NAICS_DESC": "BOOSTER PUMPING STATION, NATURAL GAS TRANSPORTATION", "SOURCEDATE": "7/15/2020 12:00:00 AM", "TYPE": "NATURAL GAS COMPRESSOR STATION", "PIPECO": "NORTHERN NATURAL GAS COMPANY", "NAICS_CODE": "486210", "COUNTY": "SEWARD", "VAL_DATE": "6/17/2022 12:00:00 AM" }, "geometry": { "type": "Point", "coordinates": [ -100.866647955, 37.297545332 ] } },
{ "type": "Feature", "properties": { "NAME": "PLAINS", "ADDRESS": "COUNTY ROAD-355; CORNER OF COUNTY ROAD-355 AND LIGHT PLANT ROAD", "NUM_UNITS": "1", "EXP_OTHER": "245455", "VAL_METHOD": "IMAGERY/OTHER", "y": "3891492.6166027901", "WEBSITE": "http://www.northernnaturalgas.com/", "COMPID": "59", "EXP_POWER": "8040", "CERT_HP": "3546", "x": "-11437960.125626599", "OBJECTID": "10", "COUNTRY": "USA", "GCOMPID": "GCOMP1006", "PLANT_COST": "8495941", "OP_COMP_HR": "21", "OPERATOR": "NORTHERN NATURAL GAS COMPANY", "ZIP": "79323", "STATUS": "IN SERVICE", "CITY": "DENVER CITY", "COUNTYFIPS": "48501", "EXP_FUEL": "1171", "GAS_COMPRE": "703", "OP_DATE_PE": "4/22/2020 12:00:00 AM", "LONGITUDE": "-102.748944", "POSREL": "WITHIN 40 FEET", "ELEC_COMPR": "109371", "ZIP4": "NOT AVAILABLE", "LATITUDE": "32.971281", "SOURCE": "EPA ENVIROFACTS, FERC FORM 2, CORPORATE WEBSITE", "OP_NUM_COM": "1", "STATE": "TX", "NAICS_DESC": "BOOSTER PUMPING STATION, NATURAL GAS TRANSPORTATION", "SOURCEDATE": "7/15/2020 12:00:00 AM", "TYPE": "NATURAL GAS COMPRESSOR STATION", "PIPECO": "NORTHERN NATURAL GAS COMPANY", "NAICS_CODE": "486210", "COUNTY": "YOAKUM", "VAL_DATE": "6/17/2022 12:00:00 AM" }, "geometry": { "type": "Point", "coordinates": [ -102.748944, 32.971281 ] } },
{ "type": "Feature", "properties": { "NAME": "CLIFTON", "ADDRESS": "2994 GAS CITY ROAD", "NUM_UNITS": "5", "EXP_OTHER": "2862249", "VAL_METHOD": "IMAGERY/OTHER", "y": "4800705.0775707299", "WEBSITE": "http://www.northernnaturalgas.com/", "COMPID": "59", "EXP_POWER": "121474", "CERT_HP": "24200", "x": "-10826225.4759834", "OBJECTID": "787", "COUNTRY": "USA", "GCOMPID": "GCOMP477", "PLANT_COST": "21498630", "OP_COMP_HR": "8653", "OPERATOR": "NORTHERN NATURAL GAS COMPANY", "ZIP": "66937", "STATUS": "IN SERVICE", "CITY": "CLIFTON", "COUNTYFIPS": "20027", "EXP_FUEL": "1351273", "GAS_COMPRE": "748881", "OP_DATE_PE": "1/16/2020 12:00:00 AM", "LONGITUDE": "-97.253638144000007", "POSREL": "WITHIN 40 FEET", "ELEC_COMPR": "1721490", "ZIP4": "NOT AVAILABLE", "LATITUDE": "39.549596193", "SOURCE": "EPA ENVIROFACTS, FERC FORM 2, CORPORATE WEBSITE", "OP_NUM_COM": "5", "STATE": "KS", "NAICS_DESC": "BOOSTER PUMPING STATION, NATURAL GAS TRANSPORTATION", "SOURCEDATE": "7/15/2020 12:00:00 AM", "TYPE": "NATURAL GAS COMPRESSOR STATION", "PIPECO": "NORTHERN NATURAL GAS COMPANY", "NAICS_CODE": "486210", "COUNTY": "CLAY", "VAL_DATE": "6/17/2022 12:00:00 AM" }, "geometry": { "type": "Point", "coordinates": [ -97.253638144, 39.549596193 ] } },
{ "type": "Feature", "properties": { "NAME": "ALBERT LEA", "ADDRESS": "73650 325TH STREET", "NUM_UNITS": "1", "EXP_OTHER": "251678", "VAL_METHOD": "IMAGERY/OTHER", "y": "5438595.6922607301", "WEBSITE": "http://www.northernnaturalgas.com/", "COMPID": "59", "EXP_POWER": "31796", "CERT_HP": "15000", "x": "-10396917.354973299", "OBJECTID": "1180", "COUNTRY": "USA", "GCOMPID": "GCOMP832", "PLANT_COST": "21898225", "OP_COMP_HR": "2216", "OPERATOR": "NORTHERN NATURAL GAS COMPANY", "ZIP": "56042", "STATUS": "IN SERVICE", "CITY": "HARTLAND", "COUNTYFIPS": "27047", "EXP_FUEL": "461030", "GAS_COMPRE": "246682", "OP_DATE_PE": "2/13/2020 12:00:00 AM", "LONGITUDE": "-93.397097677000005", "POSREL": "WITHIN 40 FEET", "ELEC_COMPR": "248800", "ZIP4": "NOT AVAILABLE", "LATITUDE": "43.826266", "SOURCE": "EPA ENVIROFACTS, FERC FORM 2, CORPORATE WEBSITE", "OP_NUM_COM": "1", "STATE": "MN", "NAICS_DESC": "BOOSTER PUMPING STATION, NATURAL GAS TRANSPORTATION", "SOURCEDATE": "7/15/2020 12:00:00 AM", "TYPE": "NATURAL GAS COMPRESSOR STATION", "PIPECO": "NORTHERN NATURAL GAS COMPANY", "NAICS_CODE": "486210", "COUNTY": "FREEBORN", "VAL_DATE": "6/17/2022 12:00:00 AM" }, "geometry": { "type": "Point", "coordinates": [ -93.397097677, 43.826266 ] } },
{ "type": "Feature", "properties": { "NAME": "CHATFIELD", "ADDRESS": "32759 171ST AVENUE", "NUM_UNITS": "1", "EXP_OTHER": "108842", "VAL_METHOD": "IMAGERY/OTHER", "y": "5439206.47010432", "WEBSITE": "http://www.northernnaturalgas.com/", "COMPID": "59", "EXP_POWER": "41710", "CERT_HP": "2500", "x": "-10275838.1900934", "OBJECTID": "825", "COUNTRY": "USA", "GCOMPID": "GCOMP510", "PLANT_COST": "5316856", "OP_COMP_HR": "392", "OPERATOR": "NORTHERN NATURAL GAS COMPANY", "ZIP": "55923", "STATUS": "IN SERVICE", "CITY": "CHATFIELD", "COUNTYFIPS": "27045", "EXP_FUEL": "0", "GAS_COMPRE": "0", "OP_DATE_PE": "1/16/2020 12:00:00 AM", "LONGITUDE": "-92.309425032999997", "POSREL": "WITHIN 40 FEET", "ELEC_COMPR": "503322", "ZIP4": "NOT AVAILABLE", "LATITUDE": "43.830224217000001", "SOURCE": "EPA ENVIROFACTS, FERC FORM 2, CORPORATE WEBSITE", "OP_NUM_COM": "1", "STATE": "MN", "NAICS_DESC": "BOOSTER PUMPING STATION, NATURAL GAS TRANSPORTATION", "SOURCEDATE": "7/15/2020 12:00:00 AM", "TYPE": "NATURAL GAS COMPRESSOR STATION", "PIPECO": "NORTHERN NATURAL GAS COMPANY", "NAICS_CODE": "486210", "COUNTY": "FILLMORE", "VAL_DATE": "6/17/2022 12:00:00 AM" }, "geometry": { "type": "Point", "coordinates": [ -92.309425033, 43.830224217 ] } },
{ "type": "Feature", "properties": { "NAME": "SPRABERRY", "ADDRESS": "13521 FM-1379", "NUM_UNITS": "6", "EXP_OTHER": "3389065", "VAL_METHOD": "IMAGERY/OTHER", "y": "3744334.33832592", "WEBSITE": "http://www.northernnaturalgas.com/", "COMPID": "59", "EXP_POWER": "69310", "CERT_HP": "7702", "x": "-11331902.484524099", "OBJECTID": "421", "COUNTRY": "USA", "GCOMPID": "GCOMP147", "PLANT_COST": "22569348", "OP_COMP_HR": "32064", "OPERATOR": "NORTHERN NATURAL GAS COMPANY", "ZIP": "79706", "STATUS": "IN SERVICE", "CITY": "MIDLAND", "COUNTYFIPS": "48329", "EXP_FUEL": "514959", "GAS_COMPRE": "282053", "OP_DATE_PE": "12/26/2020 12:00:00 AM", "LONGITUDE": "-101.796212", "POSREL": "WITHIN 40 FEET", "ELEC_COMPR": "1197100", "ZIP4": "NOT AVAILABLE", "LATITUDE": "31.855322", "SOURCE": "EPA ENVIROFACTS, FERC FORM 2, CORPORATE WEBSITE", "OP_NUM_COM": "3", "STATE": "TX", "NAICS_DESC": "BOOSTER PUMPING STATION, NATURAL GAS TRANSPORTATION", "SOURCEDATE": "7/15/2020 12:00:00 AM", "TYPE": "NATURAL GAS COMPRESSOR STATION", "PIPECO": "NORTHERN NATURAL GAS COMPANY", "NAICS_CODE": "486210", "COUNTY": "MIDLAND", "VAL_DATE": "6/17/2022 12:00:00 AM" }, "geometry": { "type": "Point", "coordinates": [ -102.386870405669995, 30.87734735654 ] } },
{ "type": "Feature", "properties": { "NAME": "PLAINVIEW", "ADDRESS": "1249 COUNTY ROAD 105", "NUM_UNITS": "1", "EXP_OTHER": "410468", "VAL_METHOD": "IMAGERY/OTHER", "y": "4051028.7157477699", "WEBSITE": "http://www.northernnaturalgas.com/", "COMPID": "59", "EXP_POWER": "19961", "CERT_HP": "9300", "x": "-11339288.8666967", "OBJECTID": "201", "COUNTRY": "USA", "GCOMPID": "GCOMP118", "PLANT_COST": "7465994", "OP_COMP_HR": "6277", "OPERATOR": "NORTHERN NATURAL GAS COMPANY", "ZIP": "79072", "STATUS": "IN SERVICE", "CITY": "PLAINVIEW", "COUNTYFIPS": "48189", "EXP_FUEL": "988395", "GAS_COMPRE": "536143", "OP_DATE_PE": "1/21/2020 12:00:00 AM", "LONGITUDE": "-101.862565", "POSREL": "WITHIN 40 FEET", "ELEC_COMPR": "301600", "ZIP4": "NOT AVAILABLE", "LATITUDE": "34.165369", "SOURCE": "EPA ENVIROFACTS, FERC FORM 2, CORPORATE WEBSITE", "OP_NUM_COM": "1", "STATE": "TX", "NAICS_DESC": "BOOSTER PUMPING STATION, NATURAL GAS TRANSPORTATION", "SOURCEDATE": "7/15/2020 12:00:00 AM", "TYPE": "NATURAL GAS COMPRESSOR STATION", "PIPECO": "NORTHERN NATURAL GAS COMPANY", "NAICS_CODE": "486210", "COUNTY": "HALE", "VAL_DATE": "6/17/2022 12:00:00 AM" }, "geometry": { "type": "Point", "coordinates": [ -101.862565, 34.165369 ] } }
]
}
