{
"type": "FeatureCollection",
"name": "P6233-compressor-stations",
"crs": { "type": "name", "properties": { "name": "urn:ogc:def:crs:OGC:1.3:CRS84" } },
"features": [
{ "type": "Feature", "properties": { "OBJECTID": "1375", "VAL_METHOD": "IMAGERY/OTHER", "OP_COMP_HR": "-999", "NUM_UNITS": "-999", "COUNTY": "SAN BERNADINO", "NAME": "NORTH NEEDLES", "ADDRESS": "4528 NEEDLES HIGHWAY", "COUNTYFIPS": "06071", "SOURCE": "FERC FROM 2, CORPORATE WEBSITE, IMAGERY", "COUNTRY": "USA", "EXP_OTHER": "-999", "LATITUDE": "34.90831", "GAS_COMPRE": "-999", "STATUS": "IN SERVICE", "CERT_HP": "-999", "WEBSITE": "www.socalgas.com", "OPERATOR": "SOUTHERN CALIFORNIA GAS COMPANY (SOCALGAS)", "EXP_FUEL": "-999", "POSREL": "WITHIN 40 FEET", "ELEC_COMPR": "-999", "ZIP4": "NOT AVAILABLE", "OP_NUM_COM": "-999", "STATE": "CA", "EXP_POWER": "-999", "LONGITUDE": "-114.6434", "ZIP": "92363", "PIPECO": "SOUTHERN CALIFORNIA GAS COMPANY (SOCALGAS)", "VAL_DATE": "Thu, 19 May 2022 00:00:00 GMT", "GCOMPID": "GCOMP1378", "NAICS_DESC": "BOOSTER PUMPING STATION, NATURAL GAS TRANSPORTATION", "CITY": "NEEDLES", "TYPE": "NATURAL GAS COMPRESSOR STATION", "NAICS_CODE": "486210", "PLANT_COST": "-999", "COMPID": "18484", "SOURCEDATE": "Wed, 15 Jul 2020 00:00:00 GMT" }, "geometry": { "type": "Point", "coordinates": [ -114.6434, 34.90831 ] } },
{ "type": "Feature", "properties": { "OBJECTID": "1386", "VAL_METHOD": "IMAGERY/OTHER", "OP_COMP_HR": "-999", "NUM_UNITS": "-999", "COUNTY": "LOS ANGELES", "NAME": "ALISO CANYON", "ADDRESS": "LIME KILN CANYON ROAD, NORTH OF PORTER RANCH AND NORTHRIDGE", "COUNTYFIPS": "06037", "SOURCE": "FERC FROM 2, CORPORATE WEBSITE, IMAGERY", "COUNTRY": "USA", "EXP_OTHER": "-999", "LATITUDE": "34.30669", "GAS_COMPRE": "-999", "STATUS": "IN SERVICE", "CERT_HP": "-999", "WEBSITE": "www.socalgas.com", "OPERATOR": "SOUTHERN CALIFORNIA GAS COMPANY (SOCALGAS)", "EXP_FUEL": "-999", "POSREL": "WITHIN 40 FEET", "ELEC_COMPR": "-999", "ZIP4": "NOT AVAILABLE", "OP_NUM_COM": "-999", "STATE": "CA", "EXP_POWER": "-999", "LONGITUDE": "-118.5536", "ZIP": "91326", "PIPECO": "SOUTHERN CALIFORNIA GAS COMPANY (SOCALGAS)", "VAL_DATE": "Thu, 19 May 2022 00:00:00 GMT", "GCOMPID": "GCOMP1389", "NAICS_DESC": "BOOSTER PUMPING STATION, NATURAL GAS TRANSPORTATION", "CITY": "NORTH RIDGE", "TYPE": "NATURAL GAS COMPRESSOR STATION", "NAICS_CODE": "486210", "PLANT_COST": "-999", "COMPID": "18484", "SOURCEDATE": "Wed, 15 Jul 2020 00:00:00 GMT" }, "geometry": { "type": "Point", "coordinates": [ -118.5536, 34.30669 ] } },
{ "type": "Feature", "properties": { "OBJECTID": "1377", "VAL_METHOD": "IMAGERY/OTHER", "OP_COMP_HR": "-999", "NUM_UNITS": "-999", "COUNTY": "SAN BERNADINO", "NAME": "KELSO", "ADDRESS": "NOT AVAILABLE", "COUNTYFIPS": "06071", "SOURCE": "FERC FROM 2, CORPORATE WEBSITE, IMAGERY", "COUNTRY": "USA", "EXP_OTHER": "-999", "LATITUDE": "34.89734", "GAS_COMPRE": "-999", "STATUS": "IN SERVICE", "CERT_HP": "-999", "WEBSITE": "www.socalgas.com", "OPERATOR": "SOUTHERN CALIFORNIA GAS COMPANY (SOCALGAS)", "EXP_FUEL": "-999", "POSREL": "WITHIN 40 FEET", "ELEC_COMPR": "-999", "ZIP4": "NOT AVAILABLE", "OP_NUM_COM": "-999", "STATE": "CA", "EXP_POWER": "-999", "LONGITUDE": "-115.6513", "ZIP": "92309", "PIPECO": "SOUTHERN CALIFORNIA GAS COMPANY (SOCALGAS)", "VAL_DATE": "Thu, 19 May 2022 00:00:00 GMT", "GCOMPID": "GCOMP1380", "NAICS_DESC": "BOOSTER PUMPING STATION, NATURAL GAS TRANSPORTATION", "CITY": "BAKER", "TYPE": "NATURAL GAS COMPRESSOR STATION", "NAICS_CODE": "486210", "PLANT_COST": "-999", "COMPID": "18484", "SOURCEDATE": "Wed, 15 Jul 2020 00:00:00 GMT" }, "geometry": { "type": "Point", "coordinates": [ -115.6513, 34.89734 ] } },
{ "type": "Feature", "properties": { "OBJECTID": "1383", "VAL_METHOD": "IMAGERY/OTHER", "OP_COMP_HR": "-999", "NUM_UNITS": "-999", "COUNTY": "LOS ANGELES", "NAME": "WHEELER RIDGE", "ADDRESS": "NOT AVAILABLE", "COUNTYFIPS": "06037", "SOURCE": "FERC FROM 2, CORPORATE WEBSITE, IMAGERY", "COUNTRY": "USA", "EXP_OTHER": "-999", "LATITUDE": "34.80298", "GAS_COMPRE": "-999", "STATUS": "IN SERVICE", "CERT_HP": "-999", "WEBSITE": "www.socalgas.com", "OPERATOR": "SOUTHERN CALIFORNIA GAS COMPANY (SOCALGAS)", "EXP_FUEL": "-999", "POSREL": "EXCEEDS 1 MILE", "ELEC_COMPR": "-999", "ZIP4": "NOT AVAILABLE", "OP_NUM_COM": "-999", "STATE": "CA", "EXP_POWER": "-999", "LONGITUDE": "-118.807", "ZIP": "93243", "PIPECO": "SOUTHERN CALIFORNIA GAS COMPANY (SOCALGAS)", "VAL_DATE": "Thu, 19 May 2022 00:00:00 GMT", "GCOMPID": "GCOMP1386", "NAICS_DESC": "BOOSTER PUMPING STATION, NATURAL GAS TRANSPORTATION", "CITY": "LEBEC", "TYPE": "NATURAL GAS COMPRESSOR STATION", "NAICS_CODE": "486210", "PLANT_COST": "-999", "COMPID": "18484", "SOURCEDATE": "Wed, 15 Jul 2020 00:00:00 GMT" }, "geometry": { "type": "Point", "coordinates": [ -119.027037642, 35.060879751949997 ] } },
{ "type": "Feature", "properties": { "OBJECTID": "1378", "VAL_METHOD": "IMAGERY/OTHER", "OP_COMP_HR": "-999", "NUM_UNITS": "-999", "COUNTY": "SAN BERNADINO", "NAME": "NEWBERRY", "ADDRESS": "48400B CENTER ROAD", "COUNTYFIPS": "06071", "SOURCE": "FERC FROM 2, CORPORATE WEBSITE, IMAGERY", "COUNTRY": "USA", "EXP_OTHER": "-999", "LATITUDE": "34.77999", "GAS_COMPRE": "-999", "STATUS": "IN SERVICE", "CERT_HP": "-999", "WEBSITE": "www.socalgas.com", "OPERATOR": "SOUTHERN CALIFORNIA GAS COMPANY (SOCALGAS)", "EXP_FUEL": "-999", "POSREL": "WITHIN 40 FEET", "ELEC_COMPR": "-999", "ZIP4": "9026", "OP_NUM_COM": "-999", "STATE": "CA", "EXP_POWER": "-999", "LONGITUDE": "-116.5951", "ZIP": "92365", "PIPECO": "SOUTHERN CALIFORNIA GAS COMPANY (SOCALGAS)", "VAL_DATE": "Thu, 19 May 2022 00:00:00 GMT", "GCOMPID": "GCOMP1381", "NAICS_DESC": "BOOSTER PUMPING STATION, NATURAL GAS TRANSPORTATION", "CITY": "NEWBERRY SPRINGS", "TYPE": "NATURAL GAS COMPRESSOR STATION", "NAICS_CODE": "486210", "PLANT_COST": "-999", "COMPID": "18484", "SOURCEDATE": "Wed, 15 Jul 2020 00:00:00 GMT" }, "geometry": { "type": "Point", "coordinates": [ -116.5951, 34.77999 ] } },
{ "type": "Feature", "properties": { "OBJECTID": "1380", "VAL_METHOD": "IMAGERY/OTHER", "OP_COMP_HR": "-999", "NUM_UNITS": "-999", "COUNTY": "LOS ANGELES", "NAME": "PLAYA DEL REY", "ADDRESS": "8141 GULANA AVENUE", "COUNTYFIPS": "06037", "SOURCE": "FERC FROM 2, CORPORATE WEBSITE, IMAGERY", "COUNTRY": "USA", "EXP_OTHER": "-999", "LATITUDE": "33.96316", "GAS_COMPRE": "-999", "STATUS": "IN SERVICE", "CERT_HP": "-999", "WEBSITE": "www.socalgas.com", "OPERATOR": "SOUTHERN CALIFORNIA GAS COMPANY (SOCALGAS)", "EXP_FUEL": "-999", "POSREL": "WITHIN 40 FEET", "ELEC_COMPR": "-999", "ZIP4": "7930", "OP_NUM_COM": "-999", "STATE": "CA", "EXP_POWER": "-999", "LONGITUDE": "-118.4383", "ZIP": "90293", "PIPECO": "SOUTHERN CALIFORNIA GAS COMPANY (SOCALGAS)", "VAL_DATE": "Thu, 19 May 2022 00:00:00 GMT", "GCOMPID": "GCOMP1383", "NAICS_DESC": "BOOSTER PUMPING STATION, NATURAL GAS TRANSPORTATION", "CITY": "PLAYA DEL REY", "TYPE": "NATURAL GAS COMPRESSOR STATION", "NAICS_CODE": "486210", "PLANT_COST": "-999", "COMPID": "18484", "SOURCEDATE": "Wed, 15 Jul 2020 00:00:00 GMT" }, "geometry": { "type": "Point", "coordinates": [ -118.4383, 33.96316 ] } },
{ "type": "Feature", "properties": { "OBJECTID": "1379", "VAL_METHOD": "IMAGERY/OTHER", "OP_COMP_HR": "-999", "NUM_UNITS": "-999", "COUNTY": "SAN BERNADINO", "NAME": "ADELANTO", "ADDRESS": "9880 RANCH ROAD", "COUNTYFIPS": "06071", "SOURCE": "FERC FROM 2, CORPORATE WEBSITE, IMAGERY", "COUNTRY": "USA", "EXP_OTHER": "-999", "LATITUDE": "34.55717", "GAS_COMPRE": "-999", "STATUS": "IN SERVICE", "CERT_HP": "-999", "WEBSITE": "www.socalgas.com", "OPERATOR": "SOUTHERN CALIFORNIA GAS COMPANY (SOCALGAS)", "EXP_FUEL": "-999", "POSREL": "WITHIN 40 FEET", "ELEC_COMPR": "-999", "ZIP4": "2200", "OP_NUM_COM": "-999", "STATE": "CA", "EXP_POWER": "-999", "LONGITUDE": "-117.4504", "ZIP": "92301", "PIPECO": "SOUTHERN CALIFORNIA GAS COMPANY (SOCALGAS)", "VAL_DATE": "Thu, 19 May 2022 00:00:00 GMT", "GCOMPID": "GCOMP1382", "NAICS_DESC": "BOOSTER PUMPING STATION, NATURAL GAS TRANSPORTATION", "CITY": "ADELANTO", "TYPE": "NATURAL GAS COMPRESSOR STATION", "NAICS_CODE": "486210", "PLANT_COST": "-999", "COMPID": "18484", "SOURCEDATE": "Wed, 15 Jul 2020 00:00:00 GMT" }, "geometry": { "type": "Point", "coordinates": [ -117.4504, 34.55717 ] } },
{ "type": "Feature", "properties": { "OBJECTID": "1381", "VAL_METHOD": "IMAGERY/OTHER", "OP_COMP_HR": "-999", "NUM_UNITS": "-999", "COUNTY": "VENTURA", "NAME": "VENTURA", "ADDRESS": "1689 OLIVE STREET", "COUNTYFIPS": "06111", "SOURCE": "FERC FROM 2, CORPORATE WEBSITE, IMAGERY", "COUNTRY": "USA", "EXP_OTHER": "-999", "LATITUDE": "34.29869", "GAS_COMPRE": "-999", "STATUS": "IN SERVICE", "CERT_HP": "-999", "WEBSITE": "www.socalgas.com", "OPERATOR": "SOUTHERN CALIFORNIA GAS COMPANY (SOCALGAS)", "EXP_FUEL": "-999", "POSREL": "WITHIN 40 FEET", "ELEC_COMPR": "-999", "ZIP4": "1370", "OP_NUM_COM": "-999", "STATE": "CA", "EXP_POWER": "-999", "LONGITUDE": "-119.3006", "ZIP": "93001", "PIPECO": "SOUTHERN CALIFORNIA GAS COMPANY (SOCALGAS)", "VAL_DATE": "Thu, 19 May 2022 00:00:00 GMT", "GCOMPID": "GCOMP1384", "NAICS_DESC": "BOOSTER PUMPING STATION, NATURAL GAS TRANSPORTATION", "CITY": "VENTURA", "TYPE": "NATURAL GAS COMPRESSOR STATION", "NAICS_CODE": "486210", "PLANT_COST": "-999", "COMPID": "18484", "SOURCEDATE": "Wed, 15 Jul 2020 00:00:00 GMT" }, "geometry": { "type": "Point", "coordinates": [ -119.3006, 34.29869 ] } },
{ "type": "Feature", "properties": { "OBJECTID": "1382", "VAL_METHOD": "IMAGERY/OTHER", "OP_COMP_HR": "-999", "NUM_UNITS": "-999", "COUNTY": "SANTA BARBARA", "NAME": "LA GOLETA", "ADDRESS": "MORE RANCH ROAD", "COUNTYFIPS": "06083", "SOURCE": "FERC FROM 2, CORPORATE WEBSITE, IMAGERY", "COUNTRY": "USA", "EXP_OTHER": "-999", "LATITUDE": "34.42102", "GAS_COMPRE": "-999", "STATUS": "IN SERVICE", "CERT_HP": "-999", "WEBSITE": "www.socalgas.com", "OPERATOR": "SOUTHERN CALIFORNIA GAS COMPANY (SOCALGAS)", "EXP_FUEL": "-999", "POSREL": "WITHIN 40 FEET", "ELEC_COMPR": "-999", "ZIP4": "2910", "OP_NUM_COM": "-999", "STATE": "CA", "EXP_POWER": "-999", "LONGITUDE": "-119.8183", "ZIP": "93111", "PIPECO": "SOUTHERN CALIFORNIA GAS COMPANY (SOCALGAS)", "VAL_DATE": "Thu, 19 May 2022 00:00:00 GMT", "GCOMPID": "GCOMP1385", "NAICS_DESC": "BOOSTER PUMPING STATION, NATURAL GAS TRANSPORTATION", "CITY": "SANTA BARBARA", "TYPE": "NATURAL GAS COMPRESSOR STATION", "NAICS_CODE": "486210", "PLANT_COST": "-999", "COMPID": "18484", "SOURCEDATE": "Wed, 15 Jul 2020 00:00:00 GMT" }, "geometry": { "type": "Point", "coordinates": [ -119.8183, 34.42102 ] } },
{ "type": "Feature", "properties": { "OBJECTID": "1384", "VAL_METHOD": "IMAGERY/OTHER", "OP_COMP_HR": "-999", "NUM_UNITS": "-999", "COUNTY": "RIVERSIDE", "NAME": "BLYTHE", "ADDRESS": "13100 WEST 14TH AVENUE", "COUNTYFIPS": "06065", "SOURCE": "FERC FROM 2, CORPORATE WEBSITE, IMAGERY", "COUNTRY": "USA", "EXP_OTHER": "-999", "LATITUDE": "33.60298", "GAS_COMPRE": "-999", "STATUS": "IN SERVICE", "CERT_HP": "-999", "WEBSITE": "www.socalgas.com", "OPERATOR": "SOUTHERN CALIFORNIA GAS COMPANY (SOCALGAS)", "EXP_FUEL": "-999", "POSREL": "WITHIN 40 FEET", "ELEC_COMPR": "-999", "ZIP4": "9406", "OP_NUM_COM": "-999", "STATE": "CA", "EXP_POWER": "-999", "LONGITUDE": "-114.6409", "ZIP": "92225", "PIPECO": "SOUTHERN CALIFORNIA GAS COMPANY (SOCALGAS)", "VAL_DATE": "Thu, 19 May 2022 00:00:00 GMT", "GCOMPID": "GCOMP1387", "NAICS_DESC": "BOOSTER PUMPING STATION, NATURAL GAS TRANSPORTATION", "CITY": "BLYTHE", "TYPE": "NATURAL GAS COMPRESSOR STATION", "NAICS_CODE": "486210", "PLANT_COST": "-999", "COMPID": "18484", "SOURCEDATE": "Wed, 15 Jul 2020 00:00:00 GMT" }, "geometry": { "type": "Point", "coordinates": [ -114.6409, 33.60298 ] } },
{ "type": "Feature", "properties": { "OBJECTID": "1385", "VAL_METHOD": "IMAGERY/OTHER", "OP_COMP_HR": "-999", "NUM_UNITS": "-999", "COUNTY": "LOS ANGELES", "NAME": "HONOR RANCHO", "ADDRESS": "EDISON ROAD/BRADY PARKWAY", "COUNTYFIPS": "06037", "SOURCE": "FERC FROM 2, CORPORATE WEBSITE, IMAGERY", "COUNTRY": "USA", "EXP_OTHER": "-999", "LATITUDE": "34.44508", "GAS_COMPRE": "-999", "STATUS": "IN SERVICE", "CERT_HP": "-999", "WEBSITE": "www.socalgas.com", "OPERATOR": "SOUTHERN CALIFORNIA GAS COMPANY (SOCALGAS)", "EXP_FUEL": "-999", "POSREL": "WITHIN 40 FEET", "ELEC_COMPR": "-999", "ZIP4": "NOT AVAILABLE", "OP_NUM_COM": "-999", "STATE": "CA", "EXP_POWER": "-999", "LONGITUDE": "-118.5905", "ZIP": "91355", "PIPECO": "SOUTHERN CALIFORNIA GAS COMPANY (SOCALGAS)", "VAL_DATE": "Thu, 19 May 2022 00:00:00 GMT", "GCOMPID": "GCOMP1388", "NAICS_DESC": "BOOSTER PUMPING STATION, NATURAL GAS TRANSPORTATION", "CITY": "CASTAIC JUNCTION", "TYPE": "NATURAL GAS COMPRESSOR STATION", "NAICS_CODE": "486210", "PLANT_COST": "-999", "COMPID": "18484", "SOURCEDATE": "Wed, 15 Jul 2020 00:00:00 GMT" }, "geometry": { "type": "Point", "coordinates": [ -118.5905, 34.44508 ] } },
{ "type": "Feature", "properties": { "OBJECTID": "1376", "VAL_METHOD": "IMAGERY/OTHER", "OP_COMP_HR": "-999", "NUM_UNITS": "-999", "COUNTY": "SAN BERNADINO", "NAME": "SOUTH NEEDLES", "ADDRESS": "US HIGHWAY 95", "COUNTYFIPS": "06071", "SOURCE": "FERC FROM 2, CORPORATE WEBSITE, IMAGERY", "COUNTRY": "USA", "EXP_OTHER": "-999", "LATITUDE": "34.69514", "GAS_COMPRE": "-999", "STATUS": "IN SERVICE", "CERT_HP": "-999", "WEBSITE": "www.socalgas.com", "OPERATOR": "SOUTHERN CALIFORNIA GAS COMPANY (SOCALGAS)", "EXP_FUEL": "-999", "POSREL": "WITHIN 40 FEET", "ELEC_COMPR": "-999", "ZIP4": "NOT AVAILABLE", "OP_NUM_COM": "-999", "STATE": "CA", "EXP_POWER": "-999", "LONGITUDE": "-114.6112", "ZIP": "92363", "PIPECO": "SOUTHERN CALIFORNIA GAS COMPANY (SOCALGAS)", "VAL_DATE": "Thu, 19 May 2022 00:00:00 GMT", "GCOMPID": "GCOMP1379", "NAICS_DESC": "BOOSTER PUMPING STATION, NATURAL GAS TRANSPORTATION", "CITY": "NEEDLES", "TYPE": "NATURAL GAS COMPRESSOR STATION", "NAICS_CODE": "486210", "PLANT_COST": "-999", "COMPID": "18484", "SOURCEDATE": "Wed, 15 Jul 2020 00:00:00 GMT" }, "geometry": { "type": "Point", "coordinates": [ -114.6112, 34.69514 ] } }
]
}
