{
"type": "FeatureCollection",
"name": "P6250-compressor-stations",
"crs": { "type": "name", "properties": { "name": "urn:ogc:def:crs:OGC:1.3:CRS84" } },
"features": [
{ "type": "Feature", "properties": { "COUNTY": "ALAMEDA", "VAL_METHOD": "IMAGERY/OTHER", "OP_COMP_HR": "-999", "NUM_UNITS": "-999", "PIPECO": "PACIFIC GAS AND ELECTRIC", "ADDRESS": "14750 KELSO ROAD", "WEBSITE": "https://www.pge.com/", "LATITUDE": "37.7969175294209", "NAME": "BETHANY", "SOURCE": "FERC FROM 2, CORPORATE WEBSITE, IMAGERY", "COMPID": "15007", "COUNTRY": "USA", "ZIP": "94514", "EXP_OTHER": "-999", "GAS_COMPRE": "-999", "STATUS": "IN SERVICE", "CERT_HP": "-999", "COUNTYFIPS": "06001", "OBJECTID": "1369", "EXP_FUEL": "-999", "POSREL": "WITHIN 40 FEET", "LONGITUDE": "-121.601604673573", "ELEC_COMPR": "-999", "ZIP4": "NOT AVAILABLE", "OP_NUM_COM": "-999", "STATE": "CA", "CITY": "BYRON", "EXP_POWER": "-999", "OPERATOR": "PACIFIC GAS AND ELECTRIC", "VAL_DATE": "Thu, 19 May 2022 00:00:00 GMT", "NAICS_DESC": "BOOSTER PUMPING STATION, NATURAL GAS TRANSPORTATION", "TYPE": "NATURAL GAS COMPRESSOR STATION", "GCOMPID": "GCOMP1372", "NAICS_CODE": "486210", "PLANT_COST": "-999", "SOURCEDATE": "Wed, 15 Jul 2020 00:00:00 GMT" }, "geometry": { "type": "Point", "coordinates": [ -121.601604673708295, 37.796917528667116 ] } },
{ "type": "Feature", "properties": { "COUNTY": "SAN BERNADINO", "VAL_METHOD": "IMAGERY/OTHER", "OP_COMP_HR": "-999", "NUM_UNITS": "-999", "PIPECO": "PACIFIC GAS AND ELECTRIC", "ADDRESS": "12 MILES SW OF NEEDLES", "WEBSITE": "https://www.pge.com/", "LATITUDE": "34.71412", "NAME": "TOPOCK", "SOURCE": "FERC FROM 2, CORPORATE WEBSITE, IMAGERY", "COMPID": "15007", "COUNTRY": "USA", "ZIP": "92363", "EXP_OTHER": "-999", "GAS_COMPRE": "-999", "STATUS": "IN SERVICE", "CERT_HP": "-999", "COUNTYFIPS": "06071", "OBJECTID": "1372", "EXP_FUEL": "-999", "POSREL": "WITHIN 40 FEET", "LONGITUDE": "-114.4928", "ELEC_COMPR": "-999", "ZIP4": "NOT AVAILABLE", "OP_NUM_COM": "-999", "STATE": "CA", "CITY": "TOPOCK", "EXP_POWER": "-999", "OPERATOR": "PACIFIC GAS AND ELECTRIC", "VAL_DATE": "Thu, 19 May 2022 00:00:00 GMT", "NAICS_DESC": "BOOSTER PUMPING STATION, NATURAL GAS TRANSPORTATION", "TYPE": "NATURAL GAS COMPRESSOR STATION", "GCOMPID": "GCOMP1375", "NAICS_CODE": "486210", "PLANT_COST": "-999", "SOURCEDATE": "Wed, 15 Jul 2020 00:00:00 GMT" }, "geometry": { "type": "Point", "coordinates": [ -114.492800000001651, 34.714119999991148 ] } },
{ "type": "Feature", "properties": { "COUNTY": "TEHMA", "VAL_METHOD": "IMAGERY/OTHER", "OP_COMP_HR": "-999", "NUM_UNITS": "-999", "PIPECO": "PACIFIC GAS AND ELECTRIC", "ADDRESS": ".05 EAST OF INTERSTATE 5 NEAR GERBER", "WEBSITE": "https://www.pge.com/", "LATITUDE": "40.06308", "NAME": "GERBER", "SOURCE": "FERC FROM 2, CORPORATE WEBSITE, IMAGERY", "COMPID": "15007", "COUNTRY": "USA", "ZIP": "96035", "EXP_OTHER": "-999", "GAS_COMPRE": "-999", "STATUS": "IN SERVICE", "CERT_HP": "-999", "COUNTYFIPS": "06103", "OBJECTID": "1367", "EXP_FUEL": "-999", "POSREL": "WITHIN 40 FEET", "LONGITUDE": "-122.2143", "ELEC_COMPR": "-999", "ZIP4": "NOT AVAILABLE", "OP_NUM_COM": "-999", "STATE": "CA", "CITY": "GERBER", "EXP_POWER": "-999", "OPERATOR": "PACIFIC GAS AND ELECTRIC", "VAL_DATE": "Thu, 19 May 2022 00:00:00 GMT", "NAICS_DESC": "BOOSTER PUMPING STATION, NATURAL GAS TRANSPORTATION", "TYPE": "NATURAL GAS COMPRESSOR STATION", "GCOMPID": "GCOMP1370", "NAICS_CODE": "486210", "PLANT_COST": "-999", "SOURCEDATE": "Wed, 15 Jul 2020 00:00:00 GMT" }, "geometry": { "type": "Point", "coordinates": [ -122.214299999987986, 40.063080000509842 ] } },
{ "type": "Feature", "properties": { "COUNTY": "KINGS", "VAL_METHOD": "IMAGERY/OTHER", "OP_COMP_HR": "-999", "NUM_UNITS": "-999", "PIPECO": "PACIFIC GAS AND ELECTRIC", "ADDRESS": "34453 PLYMOUTH AVENUE", "WEBSITE": "https://www.pge.com/", "LATITUDE": "36.07042", "NAME": "KETTLEMAN", "SOURCE": "FERC FROM 2, CORPORATE WEBSITE, IMAGERY", "COMPID": "15007", "COUNTRY": "USA", "ZIP": "93204", "EXP_OTHER": "-999", "GAS_COMPRE": "-999", "STATUS": "IN SERVICE", "CERT_HP": "-999", "COUNTYFIPS": "06031", "OBJECTID": "1370", "EXP_FUEL": "-999", "POSREL": "WITHIN 40 FEET", "LONGITUDE": "-120.0873", "ELEC_COMPR": "-999", "ZIP4": "NOT AVAILABLE", "OP_NUM_COM": "-999", "STATE": "CA", "CITY": "AVENAL", "EXP_POWER": "-999", "OPERATOR": "PACIFIC GAS AND ELECTRIC", "VAL_DATE": "Thu, 19 May 2022 00:00:00 GMT", "NAICS_DESC": "BOOSTER PUMPING STATION, NATURAL GAS TRANSPORTATION", "TYPE": "NATURAL GAS COMPRESSOR STATION", "GCOMPID": "GCOMP1373", "NAICS_CODE": "486210", "PLANT_COST": "-999", "SOURCEDATE": "Wed, 15 Jul 2020 00:00:00 GMT" }, "geometry": { "type": "Point", "coordinates": [ -120.087299170060007, 36.070420871510002 ] } },
{ "type": "Feature", "properties": { "COUNTY": "COLUSA", "VAL_METHOD": "IMAGERY/OTHER", "OP_COMP_HR": "-999", "NUM_UNITS": "-999", "PIPECO": "PACIFIC GAS AND ELECTRIC", "ADDRESS": "5001 DELEVAN ROAD", "WEBSITE": "https://www.pge.com/", "LATITUDE": "39.368", "NAME": "DELEVAN", "SOURCE": "FERC FROM 2, CORPORATE WEBSITE, IMAGERY", "COMPID": "15007", "COUNTRY": "USA", "ZIP": "95955", "EXP_OTHER": "-999", "GAS_COMPRE": "-999", "STATUS": "IN SERVICE", "CERT_HP": "-999", "COUNTYFIPS": "06011", "OBJECTID": "1368", "EXP_FUEL": "-999", "POSREL": "WITHIN 40 FEET", "LONGITUDE": "-122.269", "ELEC_COMPR": "-999", "ZIP4": "NOT AVAILABLE", "OP_NUM_COM": "-999", "STATE": "CA", "CITY": "MAXWELL", "EXP_POWER": "-999", "OPERATOR": "PACIFIC GAS AND ELECTRIC", "VAL_DATE": "Thu, 19 May 2022 00:00:00 GMT", "NAICS_DESC": "BOOSTER PUMPING STATION, NATURAL GAS TRANSPORTATION", "TYPE": "NATURAL GAS COMPRESSOR STATION", "GCOMPID": "GCOMP1371", "NAICS_CODE": "486210", "PLANT_COST": "-999", "SOURCEDATE": "Wed, 15 Jul 2020 00:00:00 GMT" }, "geometry": { "type": "Point", "coordinates": [ -122.268999999971356, 39.367999999463912 ] } },
{ "type": "Feature", "properties": { "COUNTY": "SAN BERNADINO", "VAL_METHOD": "IMAGERY/OTHER", "OP_COMP_HR": "-999", "NUM_UNITS": "-999", "PIPECO": "PACIFIC GAS AND ELECTRIC", "ADDRESS": "35863 FAIRVIEW ROAD", "WEBSITE": "https://www.pge.com/", "LATITUDE": "34.90069", "NAME": "HINKLEY", "SOURCE": "FERC FROM 2, CORPORATE WEBSITE, IMAGERY", "COMPID": "15007", "COUNTRY": "USA", "ZIP": "92347", "EXP_OTHER": "-999", "GAS_COMPRE": "-999", "STATUS": "IN SERVICE", "CERT_HP": "-999", "COUNTYFIPS": "06071", "OBJECTID": "1371", "EXP_FUEL": "-999", "POSREL": "WITHIN 40 FEET", "LONGITUDE": "-117.1589", "ELEC_COMPR": "-999", "ZIP4": "NOT AVAILABLE", "OP_NUM_COM": "-999", "STATE": "CA", "CITY": "HINKLEY", "EXP_POWER": "-999", "OPERATOR": "PACIFIC GAS AND ELECTRIC", "VAL_DATE": "Thu, 19 May 2022 00:00:00 GMT", "NAICS_DESC": "BOOSTER PUMPING STATION, NATURAL GAS TRANSPORTATION", "TYPE": "NATURAL GAS COMPRESSOR STATION", "GCOMPID": "GCOMP1374", "NAICS_CODE": "486210", "PLANT_COST": "-999", "SOURCEDATE": "Wed, 15 Jul 2020 00:00:00 GMT" }, "geometry": { "type": "Point", "coordinates": [ -117.158896938214326, 34.90068974347394 ] } },
{ "type": "Feature", "properties": { "COUNTY": "MODOC", "VAL_METHOD": "IMAGERY/OTHER", "OP_COMP_HR": "-999", "NUM_UNITS": "-999", "PIPECO": "PACIFIC GAS AND ELECTRIC", "ADDRESS": "3.5 MILES EAST OF HIGHWAY 139", "WEBSITE": "https://www.pge.com/", "LATITUDE": "41.64898", "NAME": "TIONESTA", "SOURCE": "FERC FROM 2, CORPORATE WEBSITE, IMAGERY", "COMPID": "15007", "COUNTRY": "USA", "ZIP": "96134", "EXP_OTHER": "-999", "GAS_COMPRE": "-999", "STATUS": "IN SERVICE", "CERT_HP": "-999", "COUNTYFIPS": "06049", "OBJECTID": "1365", "EXP_FUEL": "-999", "POSREL": "WITHIN 40 FEET", "LONGITUDE": "-121.3179", "ELEC_COMPR": "-999", "ZIP4": "NOT AVAILABLE", "OP_NUM_COM": "-999", "STATE": "CA", "CITY": "TULELAKE", "EXP_POWER": "-999", "OPERATOR": "PACIFIC GAS AND ELECTRIC", "VAL_DATE": "Thu, 19 May 2022 00:00:00 GMT", "NAICS_DESC": "BOOSTER PUMPING STATION, NATURAL GAS TRANSPORTATION", "TYPE": "NATURAL GAS COMPRESSOR STATION", "GCOMPID": "GCOMP1368", "NAICS_CODE": "486210", "PLANT_COST": "-999", "SOURCEDATE": "Wed, 15 Jul 2020 00:00:00 GMT" }, "geometry": { "type": "Point", "coordinates": [ -121.317900000080456, 41.648979999549809 ] } },
{ "type": "Feature", "properties": { "COUNTY": "SHASTA", "VAL_METHOD": "IMAGERY/OTHER", "OP_COMP_HR": "-999", "NUM_UNITS": "-999", "PIPECO": "PACIFIC GAS AND ELECTRIC", "ADDRESS": "BURNEY COMPRESSOR ROAD AND HIGHWAY 299", "WEBSITE": "https://www.pge.com/", "LATITUDE": "40.89723", "NAME": "BURNEY", "SOURCE": "FERC FROM 2, CORPORATE WEBSITE, IMAGERY", "COMPID": "15007", "COUNTRY": "USA", "ZIP": "96013", "EXP_OTHER": "-999", "GAS_COMPRE": "-999", "STATUS": "IN SERVICE", "CERT_HP": "-999", "COUNTYFIPS": "06089", "OBJECTID": "1366", "EXP_FUEL": "-999", "POSREL": "WITHIN 40 FEET", "LONGITUDE": "-121.6353", "ELEC_COMPR": "-999", "ZIP4": "NOT AVAILABLE", "OP_NUM_COM": "-999", "STATE": "CA", "CITY": "BURNEY", "EXP_POWER": "-999", "OPERATOR": "PACIFIC GAS AND ELECTRIC", "VAL_DATE": "Thu, 19 May 2022 00:00:00 GMT", "NAICS_DESC": "BOOSTER PUMPING STATION, NATURAL GAS TRANSPORTATION", "TYPE": "NATURAL GAS COMPRESSOR STATION", "GCOMPID": "GCOMP1369", "NAICS_CODE": "486210", "PLANT_COST": "-999", "SOURCEDATE": "Wed, 15 Jul 2020 00:00:00 GMT" }, "geometry": { "type": "Point", "coordinates": [ -121.635300000189957, 40.897229999320167 ] } }
]
}
