{
"type": "FeatureCollection",
"name": "National_Fuel_Gas_Supply_Co_CS",
"crs": { "type": "name", "properties": { "name": "urn:ogc:def:crs:OGC:1.3:CRS84" } },
"features": [
{ "type": "Feature", "properties": { "OBJECTID": 41, "GCOMPID": "GCOMP1034", "NAME": "SUMMIT", "ADDRESS": "EAST GRANDVIEW BOULEVARD AND GRANDVIEW BOULEVARD", "CITY": "ERIE", "STATE": "PA", "ZIP": "16510", "ZIP4": "NOT AVAILABLE", "TYPE": "NATURAL GAS COMPRESSOR STATION", "STATUS": "IN SERVICE", "COUNTY": "ERIE", "COUNTYFIPS": "42049", "COUNTRY": "USA", "LATITUDE": 42.0976, "LONGITUDE": -80.053539, "NAICS_CODE": "486210", "NAICS_DESC": "BOOSTER PUMPING STATION, NATURAL GAS TRANSPORTATION", "SOURCE": "EPA ENVIROFACTS, FERC FORM 2, CORPORATE WEBSITE", "SOURCEDATE": "Wed, 15 Jul 2020 00:00:00 GMT", "VAL_METHOD": "IMAGERY/OTHER", "VAL_DATE": "Fri, 17 Jun 2022 00:00:00 GMT", "WEBSITE": "http://www.natfuel.com/", "PIPECO": "NATIONAL FUEL GAS SUPPLY CORPORATION", "COMPID": "16", "OPERATOR": "NATIONAL FUEL GAS SUPPLY CORPORATION", "POSREL": "WITHIN 40 FEET", "NUM_UNITS": 2, "CERT_HP": 880, "PLANT_COST": 1732614, "EXP_FUEL": 4600, "EXP_OTHER": 77883, "GAS_COMPRE": 3122, "OP_COMP_HR": 903, "OP_NUM_COM": 0, "OP_DATE_PE": "Thu, 27 Feb 2020 00:00:00 GMT", "EXP_POWER": 11336, "ELEC_COMPR": 140972 }, "geometry": { "type": "Point", "coordinates": [ -80.053539, 42.0976 ] } },
{ "type": "Feature", "properties": { "OBJECTID": 52, "GCOMPID": "GCOMP1044", "NAME": "BOONE MOUNTAIN", "ADDRESS": "FIRE TOWER-RATTLESNAKE ROAD/NE OF BUNDY CEMETARY ROAD", "CITY": "BROCKPORT", "STATE": "PA", "ZIP": "15823", "ZIP4": "NOT AVAILABLE", "TYPE": "NATURAL GAS COMPRESSOR STATION", "STATUS": "IN SERVICE", "COUNTY": "ELK", "COUNTYFIPS": "42047", "COUNTRY": "USA", "LATITUDE": 41.218361, "LONGITUDE": -78.678322, "NAICS_CODE": "486210", "NAICS_DESC": "BOOSTER PUMPING STATION, NATURAL GAS TRANSPORTATION", "SOURCE": "FERC FORM 2, CORPORATE WEBSITE", "SOURCEDATE": "Wed, 15 Jul 2020 00:00:00 GMT", "VAL_METHOD": "IMAGERY/OTHER", "VAL_DATE": "Fri, 17 Jun 2022 00:00:00 GMT", "WEBSITE": "http://www.natfuel.com/", "PIPECO": "NATIONAL FUEL GAS SUPPLY CORPORATION", "COMPID": "16", "OPERATOR": "NATIONAL FUEL GAS SUPPLY CORPORATION", "POSREL": "WITHIN 40 FEET", "NUM_UNITS": 2, "CERT_HP": 300, "PLANT_COST": 411133, "EXP_FUEL": 20735, "EXP_OTHER": 52736, "GAS_COMPRE": 7905, "OP_COMP_HR": 5221, "OP_NUM_COM": 2, "OP_DATE_PE": "Sun, 15 Jan 2012 00:00:00 GMT", "EXP_POWER": 6146, "ELEC_COMPR": 46273 }, "geometry": { "type": "Point", "coordinates": [ -78.678322, 41.218361000000101 ] } },
{ "type": "Feature", "properties": { "OBJECTID": 54, "GCOMPID": "GCOMP1046", "NAME": "KNOX", "ADDRESS": "FIVE MILE RUN ROAD (SOUTH)", "CITY": "BROOKVILLE", "STATE": "PA", "ZIP": "15825", "ZIP4": "NOT AVAILABLE", "TYPE": "NATURAL GAS COMPRESSOR STATION", "STATUS": "IN SERVICE", "COUNTY": "JEFFERSON", "COUNTYFIPS": "42065", "COUNTRY": "USA", "LATITUDE": 41.120152708, "LONGITUDE": -79.081835604999995, "NAICS_CODE": "486210", "NAICS_DESC": "BOOSTER PUMPING STATION, NATURAL GAS TRANSPORTATION", "SOURCE": "EPA ENVIROFACTS, FERC FORM 2, CORPORATE WEBSITE", "SOURCEDATE": "Wed, 15 Jul 2020 00:00:00 GMT", "VAL_METHOD": "IMAGERY/OTHER", "VAL_DATE": "Fri, 17 Jun 2022 00:00:00 GMT", "WEBSITE": "http://www.natfuel.com/", "PIPECO": "NATIONAL FUEL GAS SUPPLY CORPORATION", "COMPID": "16", "OPERATOR": "NATIONAL FUEL GAS SUPPLY CORPORATION", "POSREL": "WITHIN 40 FEET", "NUM_UNITS": 4, "CERT_HP": 1968, "PLANT_COST": 7773474, "EXP_FUEL": 65702, "EXP_OTHER": 160303, "GAS_COMPRE": 44602, "OP_COMP_HR": 8994, "OP_NUM_COM": 1, "OP_DATE_PE": "Tue, 17 Nov 2020 00:00:00 GMT", "EXP_POWER": 8667, "ELEC_COMPR": 103493 }, "geometry": { "type": "Point", "coordinates": [ -79.081835605, 41.120152708 ] } },
{ "type": "Feature", "properties": { "OBJECTID": 61, "GCOMPID": "GCOMP1052", "NAME": "CARTER HILL", "ADDRESS": "FOLLET ROAD/WEST OF BUFFALO ROAD", "CITY": "CORRY", "STATE": "PA", "ZIP": "16407", "ZIP4": "NOT AVAILABLE", "TYPE": "NATURAL GAS COMPRESSOR STATION", "STATUS": "IN SERVICE", "COUNTY": "ERIE", "COUNTYFIPS": "42049", "COUNTRY": "USA", "LATITUDE": 41.97173, "LONGITUDE": -79.719738, "NAICS_CODE": "486210", "NAICS_DESC": "BOOSTER PUMPING STATION, NATURAL GAS TRANSPORTATION", "SOURCE": "FERC FORM 2, CORPORATE WEBSITE", "SOURCEDATE": "Wed, 15 Jul 2020 00:00:00 GMT", "VAL_METHOD": "IMAGERY/OTHER", "VAL_DATE": "Fri, 17 Jun 2022 00:00:00 GMT", "WEBSITE": "http://www.natfuel.com/", "PIPECO": "NATIONAL FUEL GAS SUPPLY CORPORATION", "COMPID": "16", "OPERATOR": "NATIONAL FUEL GAS SUPPLY CORPORATION", "POSREL": "WITHIN 40 FEET", "NUM_UNITS": 2, "CERT_HP": 765, "PLANT_COST": 2013247, "EXP_FUEL": 15148, "EXP_OTHER": 21771, "GAS_COMPRE": 5775, "OP_COMP_HR": 2480, "OP_NUM_COM": 1, "OP_DATE_PE": "Mon, 26 Mar 2012 00:00:00 GMT", "EXP_POWER": 4262, "ELEC_COMPR": 44401 }, "geometry": { "type": "Point", "coordinates": [ -79.719737999999893, 41.97173 ] } },
{ "type": "Feature", "properties": { "OBJECTID": 81, "GCOMPID": "GCOMP1070", "NAME": "BOWEN", "ADDRESS": "HIGHLAND KANE ROAD (4009)/NORTH OF MCCLAIN LANE", "CITY": "DE YOUNG", "STATE": "PA", "ZIP": "16735", "ZIP4": "NOT AVAILABLE", "TYPE": "NATURAL GAS COMPRESSOR STATION", "STATUS": "IN SERVICE", "COUNTY": "ELK", "COUNTYFIPS": "42047", "COUNTRY": "USA", "LATITUDE": 41.576820324000003, "LONGITUDE": -78.833565035000007, "NAICS_CODE": "486210", "NAICS_DESC": "BOOSTER PUMPING STATION, NATURAL GAS TRANSPORTATION", "SOURCE": "FERC FORM 2, CORPORATE WEBSITE", "SOURCEDATE": "Wed, 15 Jul 2020 00:00:00 GMT", "VAL_METHOD": "IMAGERY/OTHER", "VAL_DATE": "Fri, 17 Jun 2022 00:00:00 GMT", "WEBSITE": "http://www.natfuel.com/", "PIPECO": "NATIONAL FUEL GAS SUPPLY CORPORATION", "COMPID": "16", "OPERATOR": "NATIONAL FUEL GAS SUPPLY CORPORATION", "POSREL": "WITHIN 166 FEET", "NUM_UNITS": 3, "CERT_HP": 4890, "PLANT_COST": 13647231, "EXP_FUEL": 35359, "EXP_OTHER": 122687, "GAS_COMPRE": 13480, "OP_COMP_HR": 1753, "OP_NUM_COM": 1, "OP_DATE_PE": "Sat, 18 Aug 2012 00:00:00 GMT", "EXP_POWER": 21724, "ELEC_COMPR": 261200 }, "geometry": { "type": "Point", "coordinates": [ -78.833565034999907, 41.576820324 ] } },
{ "type": "Feature", "properties": { "OBJECTID": 161, "GCOMPID": "GCOMP1143", "NAME": "VAN", "ADDRESS": "LAKES TO THE SEA HIGHWAY (ROUTE 322) AND VAN ROAD", "CITY": "CRANBERRY", "STATE": "PA", "ZIP": "16319", "ZIP4": "NOT AVAILABLE", "TYPE": "NATURAL GAS COMPRESSOR STATION", "STATUS": "IN SERVICE", "COUNTY": "VENANGO", "COUNTYFIPS": "42121", "COUNTRY": "USA", "LATITUDE": 41.3177085654821, "LONGITUDE": -79.659701335538799, "NAICS_CODE": "486210", "NAICS_DESC": "BOOSTER PUMPING STATION, NATURAL GAS TRANSPORTATION", "SOURCE": "EPA ENVIROFACTS, FERC FORM 2, CORPORATE WEBSITE", "SOURCEDATE": "Wed, 15 Jul 2020 00:00:00 GMT", "VAL_METHOD": "IMAGERY/OTHER", "VAL_DATE": "Fri, 24 Jun 2022 00:00:00 GMT", "WEBSITE": "http://www.natfuel.com/", "PIPECO": "NATIONAL FUEL GAS SUPPLY CORPORATION", "COMPID": "16", "OPERATOR": "NATIONAL FUEL GAS SUPPLY CORPORATION", "POSREL": "WITHIN 40 FEET", "NUM_UNITS": 1, "CERT_HP": 180, "PLANT_COST": 772992, "EXP_FUEL": 0, "EXP_OTHER": 0, "GAS_COMPRE": 0, "OP_COMP_HR": 10, "OP_NUM_COM": 0, "OP_DATE_PE": "Thu, 20 Feb 2020 00:00:00 GMT", "EXP_POWER": 1390, "ELEC_COMPR": 9198 }, "geometry": { "type": "Point", "coordinates": [ -79.659701336, 41.317708565 ] } },
{ "type": "Feature", "properties": { "OBJECTID": 263, "GCOMPID": "GCOMP1235", "NAME": "SACKETT", "ADDRESS": "OWLS NEST ROAD", "CITY": "JAMES CITY", "STATE": "PA", "ZIP": "16734", "ZIP4": "NOT AVAILABLE", "TYPE": "NATURAL GAS COMPRESSOR STATION", "STATUS": "ABANDONED", "COUNTY": "ELK", "COUNTYFIPS": "42047", "COUNTRY": "USA", "LATITUDE": 41.519482, "LONGITUDE": -78.902883, "NAICS_CODE": "486210", "NAICS_DESC": "BOOSTER PUMPING STATION, NATURAL GAS TRANSPORTATION", "SOURCE": "FERC FORM 2, IMAGERY", "SOURCEDATE": "Wed, 15 Jul 2020 00:00:00 GMT", "VAL_METHOD": "IMAGERY/OTHER", "VAL_DATE": "Fri, 17 Jun 2022 00:00:00 GMT", "WEBSITE": "http://www.natfuel.com/", "PIPECO": "NATIONAL FUEL GAS SUPPLY CORPORATION", "COMPID": "16", "OPERATOR": "NATIONAL FUEL GAS SUPPLY CORPORATION", "POSREL": "WITHIN 40 FEET", "NUM_UNITS": 4, "CERT_HP": 675, "PLANT_COST": 958243, "EXP_FUEL": 5535, "EXP_OTHER": 13176, "GAS_COMPRE": 2110, "OP_COMP_HR": 41, "OP_NUM_COM": 0, "OP_DATE_PE": "Sun, 01 Jan 2012 00:00:00 GMT", "EXP_POWER": 5478, "ELEC_COMPR": 48323 }, "geometry": { "type": "Point", "coordinates": [ -78.902883, 41.519482 ] } },
{ "type": "Feature", "properties": { "OBJECTID": 271, "GCOMPID": "GCOMP1242", "NAME": "LIMESTONE", "ADDRESS": "PARKSIDE DRIVE/SOUTH OF IRVINE MILLS ROAD", "CITY": "LIMESTONE", "STATE": "NY", "ZIP": "14753", "ZIP4": "NOT AVAILABLE", "TYPE": "NATURAL GAS COMPRESSOR STATION", "STATUS": "IN SERVICE", "COUNTY": "CATTARAUGUS", "COUNTYFIPS": "36009", "COUNTRY": "USA", "LATITUDE": 42.05546921, "LONGITUDE": -78.644543034999998, "NAICS_CODE": "486210", "NAICS_DESC": "BOOSTER PUMPING STATION, NATURAL GAS TRANSPORTATION", "SOURCE": "FERC FORM 2, IMAGERY", "SOURCEDATE": "Wed, 15 Jul 2020 00:00:00 GMT", "VAL_METHOD": "IMAGERY/OTHER", "VAL_DATE": "Fri, 17 Jun 2022 00:00:00 GMT", "WEBSITE": "http://www.natfuel.com/", "PIPECO": "NATIONAL FUEL GAS SUPPLY CORPORATION", "COMPID": "16", "OPERATOR": "NATIONAL FUEL GAS SUPPLY CORPORATION", "POSREL": "WITHIN 40 FEET", "NUM_UNITS": 1, "CERT_HP": 800, "PLANT_COST": 6386750, "EXP_FUEL": 44279, "EXP_OTHER": 361948, "GAS_COMPRE": 30058, "OP_COMP_HR": 3661, "OP_NUM_COM": 0, "OP_DATE_PE": "Mon, 14 Dec 2020 00:00:00 GMT", "EXP_POWER": 8711, "ELEC_COMPR": 79920 }, "geometry": { "type": "Point", "coordinates": [ -78.644543035, 42.055469210000098 ] } },
{ "type": "Feature", "properties": { "OBJECTID": 272, "GCOMPID": "GCOMP1243", "NAME": "BEECH HILL", "ADDRESS": "PEET ROAD/SOUTH OF HIGHWAY 39 (BEECH HILL RD)", "CITY": "WILLING", "STATE": "NY", "ZIP": "14895", "ZIP4": "NOT AVAILABLE", "TYPE": "NATURAL GAS COMPRESSOR STATION", "STATUS": "IN SERVICE", "COUNTY": "ALLEGANY", "COUNTYFIPS": "36003", "COUNTRY": "USA", "LATITUDE": 42.049518948, "LONGITUDE": -77.840953721000005, "NAICS_CODE": "486210", "NAICS_DESC": "BOOSTER PUMPING STATION, NATURAL GAS TRANSPORTATION", "SOURCE": "FERC FORM 2, CORPORATE WEBSITE", "SOURCEDATE": "Wed, 15 Jul 2020 00:00:00 GMT", "VAL_METHOD": "IMAGERY/OTHER", "VAL_DATE": "Fri, 17 Jun 2022 00:00:00 GMT", "WEBSITE": "http://www.natfuel.com/", "PIPECO": "NATIONAL FUEL GAS SUPPLY CORPORATION", "COMPID": "16", "OPERATOR": "NATIONAL FUEL GAS SUPPLY CORPORATION", "POSREL": "WITHIN 40 FEET", "NUM_UNITS": 3, "CERT_HP": 8350, "PLANT_COST": 15548426, "EXP_FUEL": 195849, "EXP_OTHER": 389011, "GAS_COMPRE": 132951, "OP_COMP_HR": 7900, "OP_NUM_COM": 0, "OP_DATE_PE": "Tue, 21 Jan 2020 00:00:00 GMT", "EXP_POWER": 28960, "ELEC_COMPR": 308360 }, "geometry": { "type": "Point", "coordinates": [ -77.840953720999906, 42.049518948000099 ] } },
{ "type": "Feature", "properties": { "OBJECTID": 274, "GCOMPID": "GCOMP1245", "NAME": "ISLAND RUN", "ADDRESS": "PORTLAND MILLS ROAD", "CITY": "RIDGWAY", "STATE": "PA", "ZIP": "15853", "ZIP4": "NOT AVAILABLE", "TYPE": "NATURAL GAS COMPRESSOR STATION", "STATUS": "IN SERVICE", "COUNTY": "ELK", "COUNTYFIPS": "42047", "COUNTRY": "USA", "LATITUDE": 41.380136124000003, "LONGITUDE": -78.739642484000001, "NAICS_CODE": "486210", "NAICS_DESC": "BOOSTER PUMPING STATION, NATURAL GAS TRANSPORTATION", "SOURCE": "EPA ENVIROFACTS, FERC FORM 2, CORPORATE WEBSITE", "SOURCEDATE": "Wed, 15 Jul 2020 00:00:00 GMT", "VAL_METHOD": "IMAGERY/OTHER", "VAL_DATE": "Fri, 17 Jun 2022 00:00:00 GMT", "WEBSITE": "http://www.natfuel.com/", "PIPECO": "NATIONAL FUEL GAS SUPPLY CORPORATION", "COMPID": "16", "OPERATOR": "NATIONAL FUEL GAS SUPPLY CORPORATION", "POSREL": "WITHIN 40 FEET", "NUM_UNITS": 4, "CERT_HP": 615, "PLANT_COST": 1941725, "EXP_FUEL": 19630, "EXP_OTHER": 88532, "GAS_COMPRE": 13326, "OP_COMP_HR": 10209, "OP_NUM_COM": 0, "OP_DATE_PE": "Sat, 26 Dec 2020 00:00:00 GMT", "EXP_POWER": 7176, "ELEC_COMPR": 97373 }, "geometry": { "type": "Point", "coordinates": [ -78.739642484, 41.380136124 ] } },
{ "type": "Feature", "properties": { "OBJECTID": 282, "GCOMPID": "GCOMP1252", "NAME": "QUEEN", "ADDRESS": "QUEEN PUMPING STATION ROAD AND QUEEN ROAD", "CITY": "QUEEN", "STATE": "PA", "ZIP": "16353", "ZIP4": "NOT AVAILABLE", "TYPE": "NATURAL GAS COMPRESSOR STATION", "STATUS": "IN SERVICE", "COUNTY": "FOREST", "COUNTYFIPS": "42053", "COUNTRY": "USA", "LATITUDE": 41.623465, "LONGITUDE": -79.349169, "NAICS_CODE": "486210", "NAICS_DESC": "BOOSTER PUMPING STATION, NATURAL GAS TRANSPORTATION", "SOURCE": "EPA ENVIROFACTS, FERC FORM 2, CORPORATE WEBSITE", "SOURCEDATE": "Wed, 15 Jul 2020 00:00:00 GMT", "VAL_METHOD": "IMAGERY/OTHER", "VAL_DATE": "Fri, 17 Jun 2022 00:00:00 GMT", "WEBSITE": "http://www.natfuel.com/", "PIPECO": "NATIONAL FUEL GAS SUPPLY CORPORATION", "COMPID": "16", "OPERATOR": "NATIONAL FUEL GAS SUPPLY CORPORATION", "POSREL": "WITHIN 40 FEET", "NUM_UNITS": 0, "CERT_HP": 0, "PLANT_COST": 0, "EXP_FUEL": 856, "EXP_OTHER": 0, "GAS_COMPRE": 581, "OP_COMP_HR": 0, "OP_NUM_COM": 0, "OP_DATE_PE": "Mon, 01 Jan 2001 00:00:00 GMT", "EXP_POWER": 3365, "ELEC_COMPR": 22508 }, "geometry": { "type": "Point", "coordinates": [ -79.349169, 41.623465000000103 ] } },
{ "type": "Feature", "properties": { "OBJECTID": 306, "GCOMPID": "GCOMP1274", "NAME": "HEATH", "ADDRESS": "ROUTE 949 EAST OF SIGEL RR 1 BOX", "CITY": "SIGEL", "STATE": "PA", "ZIP": "15860", "ZIP4": "NOT AVAILABLE", "TYPE": "NATURAL GAS COMPRESSOR STATION", "STATUS": "IN SERVICE", "COUNTY": "JEFFERSON", "COUNTYFIPS": "42065", "COUNTRY": "USA", "LATITUDE": 41.349166, "LONGITUDE": -79.013611, "NAICS_CODE": "486210", "NAICS_DESC": "BOOSTER PUMPING STATION, NATURAL GAS TRANSPORTATION", "SOURCE": "EPA ENVIROFACTS, FERC FORM 2, CORPORATE WEBSITE", "SOURCEDATE": "Wed, 15 Jul 2020 00:00:00 GMT", "VAL_METHOD": "IMAGERY/OTHER", "VAL_DATE": "Fri, 17 Jun 2022 00:00:00 GMT", "WEBSITE": "http://www.natfuel.com/", "PIPECO": "NATIONAL FUEL GAS SUPPLY CORPORATION", "COMPID": "16", "OPERATOR": "NATIONAL FUEL GAS SUPPLY CORPORATION", "POSREL": "WITHIN 40 FEET", "NUM_UNITS": 1, "CERT_HP": 1160, "PLANT_COST": 4304986, "EXP_FUEL": 175117, "EXP_OTHER": 329658, "GAS_COMPRE": 66761, "OP_COMP_HR": 7103, "OP_NUM_COM": 1, "OP_DATE_PE": "Fri, 31 Jan 2020 00:00:00 GMT", "EXP_POWER": 43004, "ELEC_COMPR": 418320 }, "geometry": { "type": "Point", "coordinates": [ -79.013611, 41.349166 ] } },
{ "type": "Feature", "properties": { "OBJECTID": 323, "GCOMPID": "GCOMP129", "NAME": "ELDRED", "ADDRESS": "12797 FISHER ROAD", "CITY": "SIGEL", "STATE": "PA", "ZIP": "15860", "ZIP4": "NOT AVAILABLE", "TYPE": "NATURAL GAS COMPRESSOR STATION", "STATUS": "IN SERVICE", "COUNTY": "JEFFERSON", "COUNTYFIPS": "42065", "COUNTRY": "USA", "LATITUDE": 41.27652, "LONGITUDE": -79.130424, "NAICS_CODE": "486210", "NAICS_DESC": "BOOSTER PUMPING STATION, NATURAL GAS TRANSPORTATION", "SOURCE": "FERC FORM 2, IMAGERY", "SOURCEDATE": "Wed, 15 Jul 2020 00:00:00 GMT", "VAL_METHOD": "IMAGERY/OTHER", "VAL_DATE": "Fri, 24 Jun 2022 00:00:00 GMT", "WEBSITE": "http://www.natfuel.com/", "PIPECO": "NATIONAL FUEL GAS SUPPLY CORPORATION", "COMPID": "16", "OPERATOR": "NATIONAL FUEL GAS SUPPLY CORPORATION", "POSREL": "WITHIN 40 FEET", "NUM_UNITS": 2, "CERT_HP": 300, "PLANT_COST": 523078, "EXP_FUEL": 18054, "EXP_OTHER": 146511, "GAS_COMPRE": 6883, "OP_COMP_HR": 4245, "OP_NUM_COM": 2, "OP_DATE_PE": "Wed, 16 May 2012 00:00:00 GMT", "EXP_POWER": 5142, "ELEC_COMPR": 43640 }, "geometry": { "type": "Point", "coordinates": [ -79.130424, 41.27652 ] } },
{ "type": "Feature", "properties": { "OBJECTID": 342, "GCOMPID": "GCOMP1306", "NAME": "EAST FORK", "ADDRESS": "STATE ROUTE 0872", "CITY": "WHARTON", "STATE": "PA", "ZIP": "16720", "ZIP4": "NOT AVAILABLE", "TYPE": "NATURAL GAS COMPRESSOR STATION", "STATUS": "IN SERVICE", "COUNTY": "POTTER", "COUNTYFIPS": "42105", "COUNTRY": "USA", "LATITUDE": 41.530481, "LONGITUDE": -78.014048, "NAICS_CODE": "486210", "NAICS_DESC": "BOOSTER PUMPING STATION, NATURAL GAS TRANSPORTATION", "SOURCE": "EPA ENVIROFACTS, FERC FORM 2, CORPORATE WEBSITE", "SOURCEDATE": "Wed, 15 Jul 2020 00:00:00 GMT", "VAL_METHOD": "IMAGERY/OTHER", "VAL_DATE": "Fri, 17 Jun 2022 00:00:00 GMT", "WEBSITE": "http://www.natfuel.com/", "PIPECO": "NATIONAL FUEL GAS SUPPLY CORPORATION", "COMPID": "16", "OPERATOR": "NATIONAL FUEL GAS SUPPLY CORPORATION", "POSREL": "WITHIN 40 FEET", "NUM_UNITS": 5, "CERT_HP": 3060, "PLANT_COST": 7209655, "EXP_FUEL": 3195, "EXP_OTHER": 139314, "GAS_COMPRE": 1218, "OP_COMP_HR": 251, "OP_NUM_COM": 5, "OP_DATE_PE": "Tue, 22 Sep 2020 00:00:00 GMT", "EXP_POWER": 7383, "ELEC_COMPR": 63045 }, "geometry": { "type": "Point", "coordinates": [ -78.014048, 41.530481000000101 ] } },
{ "type": "Feature", "properties": { "OBJECTID": 354, "GCOMPID": "GCOMP1317", "NAME": "COSTELLO", "ADDRESS": "STATE STREET/YOUNG HOLLOW LANE-RIPPLE DRIVE", "CITY": "AUSTIN", "STATE": "PA", "ZIP": "16720", "ZIP4": "NOT AVAILABLE", "TYPE": "NATURAL GAS COMPRESSOR STATION", "STATUS": "IN SERVICE", "COUNTY": "POTTER", "COUNTYFIPS": "42105", "COUNTRY": "USA", "LATITUDE": 41.588861823000002, "LONGITUDE": -78.057675755999995, "NAICS_CODE": "486210", "NAICS_DESC": "BOOSTER PUMPING STATION, NATURAL GAS TRANSPORTATION", "SOURCE": "FERC FORM 2, IMAGERY", "SOURCEDATE": "Wed, 15 Jul 2020 00:00:00 GMT", "VAL_METHOD": "IMAGERY/OTHER", "VAL_DATE": "Fri, 17 Jun 2022 00:00:00 GMT", "WEBSITE": "http://www.natfuel.com/", "PIPECO": "NATIONAL FUEL GAS SUPPLY CORPORATION", "COMPID": "16", "OPERATOR": "NATIONAL FUEL GAS SUPPLY CORPORATION", "POSREL": "WITHIN 40 FEET", "NUM_UNITS": 2, "CERT_HP": 1440, "PLANT_COST": 3427290, "EXP_FUEL": 117909, "EXP_OTHER": 89531, "GAS_COMPRE": 44951, "OP_COMP_HR": 10772, "OP_NUM_COM": 2, "OP_DATE_PE": "Fri, 19 Oct 2012 00:00:00 GMT", "EXP_POWER": 4525348, "ELEC_COMPR": 68339901 }, "geometry": { "type": "Point", "coordinates": [ -78.057675756, 41.588861823 ] } },
{ "type": "Feature", "properties": { "OBJECTID": 382, "GCOMPID": "GCOMP1342", "NAME": "ROYSTONE", "ADDRESS": "US-6 GRAND ARMY OF THE REPUBLIC HIGHWAY", "CITY": "SHEFFIELD", "STATE": "PA", "ZIP": "16347", "ZIP4": "NOT AVAILABLE", "TYPE": "NATURAL GAS COMPRESSOR STATION", "STATUS": "IN SERVICE", "COUNTY": "WARREN", "COUNTYFIPS": "42123", "COUNTRY": "USA", "LATITUDE": 41.72441, "LONGITUDE": -78.969927, "NAICS_CODE": "486210", "NAICS_DESC": "BOOSTER PUMPING STATION, NATURAL GAS TRANSPORTATION", "SOURCE": "EPA ENVIROFACTS, FERC FORM 2, CORPORATE WEBSITE", "SOURCEDATE": "Wed, 15 Jul 2020 00:00:00 GMT", "VAL_METHOD": "IMAGERY/OTHER", "VAL_DATE": "Fri, 17 Jun 2022 00:00:00 GMT", "WEBSITE": "http://www.natfuel.com/", "PIPECO": "NATIONAL FUEL GAS SUPPLY CORPORATION", "COMPID": "16", "OPERATOR": "NATIONAL FUEL GAS SUPPLY CORPORATION", "POSREL": "WITHIN 40 FEET", "NUM_UNITS": 10, "CERT_HP": 6000, "PLANT_COST": 25397893, "EXP_FUEL": 280827, "EXP_OTHER": 940505, "GAS_COMPRE": 190637, "OP_COMP_HR": 41813, "OP_NUM_COM": 8, "OP_DATE_PE": "Fri, 14 Feb 2020 00:00:00 GMT", "EXP_POWER": 23593, "ELEC_COMPR": 286085 }, "geometry": { "type": "Point", "coordinates": [ -78.969927, 41.72441 ] } },
{ "type": "Feature", "properties": { "OBJECTID": 386, "GCOMPID": "GCOMP1346", "NAME": "DERBY", "ADDRESS": "VERSAILLES ROAD/NNE OF DERBY", "CITY": "DERBY", "STATE": "NY", "ZIP": "14047", "ZIP4": "NOT AVAILABLE", "TYPE": "NATURAL GAS COMPRESSOR STATION", "STATUS": "IN SERVICE", "COUNTY": "ERIE", "COUNTYFIPS": "36029", "COUNTRY": "USA", "LATITUDE": 42.685435145, "LONGITUDE": -78.964501037999995, "NAICS_CODE": "486210", "NAICS_DESC": "BOOSTER PUMPING STATION, NATURAL GAS TRANSPORTATION", "SOURCE": "FERC FORM 2, CORPORATE WEBSITE", "SOURCEDATE": "Wed, 15 Jul 2020 00:00:00 GMT", "VAL_METHOD": "IMAGERY/OTHER", "VAL_DATE": "Fri, 17 Jun 2022 00:00:00 GMT", "WEBSITE": "http://www.natfuel.com/", "PIPECO": "NATIONAL FUEL GAS SUPPLY CORPORATION", "COMPID": "16", "OPERATOR": "NATIONAL FUEL GAS SUPPLY CORPORATION", "POSREL": "WITHIN 40 FEET", "NUM_UNITS": 1, "CERT_HP": 75, "PLANT_COST": 169557, "EXP_FUEL": 984, "EXP_OTHER": 0, "GAS_COMPRE": 375, "OP_COMP_HR": 2611, "OP_NUM_COM": 1, "OP_DATE_PE": "Fri, 23 Nov 2012 00:00:00 GMT", "EXP_POWER": 1674, "ELEC_COMPR": 11002 }, "geometry": { "type": "Point", "coordinates": [ -78.964501038, 42.685435145 ] } },
{ "type": "Feature", "properties": { "OBJECTID": 394, "GCOMPID": "GCOMP1353", "NAME": "WELLENDORF", "ADDRESS": "WEST OF SHAWMUT GR ROAD", "CITY": "NORWICH", "STATE": "PA", "ZIP": "16749", "ZIP4": "NOT AVAILABLE", "TYPE": "NATURAL GAS COMPRESSOR STATION", "STATUS": "IN SERVICE", "COUNTY": "MCKEAN", "COUNTYFIPS": "42083", "COUNTRY": "USA", "LATITUDE": 41.618104, "LONGITUDE": -78.465465, "NAICS_CODE": "486210", "NAICS_DESC": "BOOSTER PUMPING STATION, NATURAL GAS TRANSPORTATION", "SOURCE": "FERC FORM 2, CORPORATE WEBSITE", "SOURCEDATE": "Wed, 15 Jul 2020 00:00:00 GMT", "VAL_METHOD": "IMAGERY/OTHER", "VAL_DATE": "Fri, 17 Jun 2022 00:00:00 GMT", "WEBSITE": "http://www.natfuel.com/", "PIPECO": "NATIONAL FUEL GAS SUPPLY CORPORATION", "COMPID": "16", "OPERATOR": "NATIONAL FUEL GAS SUPPLY CORPORATION", "POSREL": "WITHIN 40 FEET", "NUM_UNITS": 1, "CERT_HP": 325, "PLANT_COST": 1737070, "EXP_FUEL": 6379, "EXP_OTHER": 34712, "GAS_COMPRE": 4330, "OP_COMP_HR": 1804, "OP_NUM_COM": 0, "OP_DATE_PE": "Wed, 02 Sep 2020 00:00:00 GMT", "EXP_POWER": 0, "ELEC_COMPR": 0 }, "geometry": { "type": "Point", "coordinates": [ -78.465464999999895, 41.618104000000102 ] } },
{ "type": "Feature", "properties": { "OBJECTID": 398, "GCOMPID": "GCOMP1357", "NAME": "ZOAR", "ADDRESS": "WILSON ROAD AND KONERT ROAD", "CITY": "COLLINS", "STATE": "NY", "ZIP": "14034", "ZIP4": "NOT AVAILABLE", "TYPE": "NATURAL GAS COMPRESSOR STATION", "STATUS": "IN SERVICE", "COUNTY": "ERIE", "COUNTYFIPS": "36029", "COUNTRY": "USA", "LATITUDE": 42.472583, "LONGITUDE": -78.825162, "NAICS_CODE": "486210", "NAICS_DESC": "BOOSTER PUMPING STATION, NATURAL GAS TRANSPORTATION", "SOURCE": "EPA ENVIROFACTS, FERC FORM 2, CORPORATE WEBSITE", "SOURCEDATE": "Wed, 15 Jul 2020 00:00:00 GMT", "VAL_METHOD": "IMAGERY/OTHER", "VAL_DATE": "Fri, 17 Jun 2022 00:00:00 GMT", "WEBSITE": "http://www.natfuel.com/", "PIPECO": "NATIONAL FUEL GAS SUPPLY CORPORATION", "COMPID": "16", "OPERATOR": "NATIONAL FUEL GAS SUPPLY CORPORATION", "POSREL": "WITHIN 40 FEET", "NUM_UNITS": 8, "CERT_HP": 1200, "PLANT_COST": 4564092, "EXP_FUEL": 38537, "EXP_OTHER": 118598, "GAS_COMPRE": 26161, "OP_COMP_HR": 12229, "OP_NUM_COM": 0, "OP_DATE_PE": "Tue, 17 Nov 2020 00:00:00 GMT", "EXP_POWER": 16761, "ELEC_COMPR": 152120 }, "geometry": { "type": "Point", "coordinates": [ -78.825162, 42.472583 ] } },
{ "type": "Feature", "properties": { "OBJECTID": 558, "GCOMPID": "GCOMP270", "NAME": "ELLISBURG", "ADDRESS": "187 ROSE LAKE ROAD", "CITY": "ELLISBURG", "STATE": "PA", "ZIP": "16923", "ZIP4": "NOT AVAILABLE", "TYPE": "NATURAL GAS COMPRESSOR STATION", "STATUS": "IN SERVICE", "COUNTY": "POTTER", "COUNTYFIPS": "42105", "COUNTRY": "USA", "LATITUDE": 41.899531640000077, "LONGITUDE": -77.915862424999943, "NAICS_CODE": "486210", "NAICS_DESC": "BOOSTER PUMPING STATION, NATURAL GAS TRANSPORTATION", "SOURCE": "EPA ENVIROFACTS, FERC FORM 2, CORPORATE WEBSITE", "SOURCEDATE": "Wed, 15 Jul 2020 00:00:00 GMT", "VAL_METHOD": "IMAGERY/OTHER", "VAL_DATE": "Fri, 17 Jun 2022 00:00:00 GMT", "WEBSITE": "http://www.natfuel.com/", "PIPECO": "NATIONAL FUEL GAS SUPPLY CORPORATION", "COMPID": "16", "OPERATOR": "NATIONAL FUEL GAS SUPPLY CORPORATION", "POSREL": "WITHIN 40 FEET", "NUM_UNITS": 4, "CERT_HP": 9445, "PLANT_COST": 27580922, "EXP_FUEL": 0, "EXP_OTHER": 394438, "GAS_COMPRE": 0, "OP_COMP_HR": 14216, "OP_NUM_COM": 0, "OP_DATE_PE": "Fri, 06 Mar 2020 00:00:00 GMT", "EXP_POWER": 0, "ELEC_COMPR": 0 }, "geometry": { "type": "Point", "coordinates": [ -77.915862425, 41.899531640000099 ] } },
{ "type": "Feature", "properties": { "OBJECTID": 560, "GCOMPID": "GCOMP272", "NAME": "ELLISBURG", "ADDRESS": "188 ROSE LAKE ROAD", "CITY": "ELLISBURG", "STATE": "PA", "ZIP": "16923", "ZIP4": "NOT AVAILABLE", "TYPE": "NATURAL GAS COMPRESSOR STATION", "STATUS": "IN SERVICE", "COUNTY": "POTTER", "COUNTYFIPS": "42105", "COUNTRY": "USA", "LATITUDE": 41.899504840000077, "LONGITUDE": -77.91614382399996, "NAICS_CODE": "486210", "NAICS_DESC": "BOOSTER PUMPING STATION, NATURAL GAS TRANSPORTATION", "SOURCE": "EPA ENVIROFACTS, FERC FORM 2, CORPORATE WEBSITE", "SOURCEDATE": "Wed, 15 Jul 2020 00:00:00 GMT", "VAL_METHOD": "IMAGERY/OTHER", "VAL_DATE": "Fri, 17 Jun 2022 00:00:00 GMT", "WEBSITE": "http://www.natfuel.com/", "PIPECO": "NATIONAL FUEL GAS SUPPLY CORPORATION", "COMPID": "16", "OPERATOR": "NATIONAL FUEL GAS SUPPLY CORPORATION", "POSREL": "WITHIN 40 FEET", "NUM_UNITS": 7, "CERT_HP": 20920, "PLANT_COST": 74449513, "EXP_FUEL": 1362610, "EXP_OTHER": 2161782, "GAS_COMPRE": 924997, "OP_COMP_HR": 30289, "OP_NUM_COM": 4, "OP_DATE_PE": "Mon, 20 Jan 2020 00:00:00 GMT", "EXP_POWER": 130140, "ELEC_COMPR": 1487700 }, "geometry": { "type": "Point", "coordinates": [ -77.916143824, 41.899504840000098 ] } },
{ "type": "Feature", "properties": { "OBJECTID": 659, "GCOMPID": "GCOMP361", "NAME": "INDEPENDENCE", "ADDRESS": "2210 COUNTY ROAD 22", "CITY": "INDEPENDENCE", "STATE": "NY", "ZIP": "14806", "ZIP4": "NOT AVAILABLE", "TYPE": "NATURAL GAS COMPRESSOR STATION", "STATUS": "IN SERVICE", "COUNTY": "ALLEGANY", "COUNTYFIPS": "36003", "COUNTRY": "USA", "LATITUDE": 42.094525, "LONGITUDE": -77.780484, "NAICS_CODE": "486210", "NAICS_DESC": "BOOSTER PUMPING STATION, NATURAL GAS TRANSPORTATION", "SOURCE": "EPA ENVIROFACTS, FERC FORM 2, CORPORATE WEBSITE", "SOURCEDATE": "Wed, 15 Jul 2020 00:00:00 GMT", "VAL_METHOD": "IMAGERY/OTHER", "VAL_DATE": "Fri, 17 Jun 2022 00:00:00 GMT", "WEBSITE": "http://www.natfuel.com/", "PIPECO": "NATIONAL FUEL GAS SUPPLY CORPORATION", "COMPID": "16", "OPERATOR": "NATIONAL FUEL GAS SUPPLY CORPORATION", "POSREL": "WITHIN 40 FEET", "NUM_UNITS": 4, "CERT_HP": 5000, "PLANT_COST": 17151728, "EXP_FUEL": 156022, "EXP_OTHER": 602347, "GAS_COMPRE": 105914, "OP_COMP_HR": 10468, "OP_NUM_COM": 0, "OP_DATE_PE": "Fri, 25 Dec 2020 00:00:00 GMT", "EXP_POWER": 31644, "ELEC_COMPR": 363040 }, "geometry": { "type": "Point", "coordinates": [ -77.780484, 42.094525 ] } },
{ "type": "Feature", "properties": { "OBJECTID": 706, "GCOMPID": "GCOMP403", "NAME": "HENDERSON", "ADDRESS": "241 HENDERSON STATION ROAD", "CITY": "STONEBORO", "STATE": "PA", "ZIP": "16153", "ZIP4": "NOT AVAILABLE", "TYPE": "NATURAL GAS COMPRESSOR STATION", "STATUS": "IN SERVICE", "COUNTY": "MERCER", "COUNTYFIPS": "42085", "COUNTRY": "USA", "LATITUDE": 41.295658, "LONGITUDE": -79.993499, "NAICS_CODE": "486210", "NAICS_DESC": "BOOSTER PUMPING STATION, NATURAL GAS TRANSPORTATION", "SOURCE": "EPA ENVIROFACTS, FERC FORM 2, CORPORATE WEBSITE", "SOURCEDATE": "Wed, 15 Jul 2020 00:00:00 GMT", "VAL_METHOD": "IMAGERY/OTHER", "VAL_DATE": "Fri, 17 Jun 2022 00:00:00 GMT", "WEBSITE": "http://www.natfuel.com/", "PIPECO": "NATIONAL FUEL GAS SUPPLY CORPORATION", "COMPID": "16", "OPERATOR": "NATIONAL FUEL GAS SUPPLY CORPORATION", "POSREL": "WITHIN 40 FEET", "NUM_UNITS": 2, "CERT_HP": 2700, "PLANT_COST": 7198270, "EXP_FUEL": 105100, "EXP_OTHER": 332668, "GAS_COMPRE": 40068, "OP_COMP_HR": 4147, "OP_NUM_COM": 1, "OP_DATE_PE": "Tue, 27 Nov 2012 00:00:00 GMT", "EXP_POWER": 17769, "ELEC_COMPR": 196280 }, "geometry": { "type": "Point", "coordinates": [ -79.993499, 41.295658 ] } },
{ "type": "Feature", "properties": { "OBJECTID": 852, "GCOMPID": "GCOMP535", "NAME": "PORTERVILLE", "ADDRESS": "350 HEMSTREET ROAD", "CITY": "EAST AURORA", "STATE": "NY", "ZIP": "14052", "ZIP4": "NOT AVAILABLE", "TYPE": "NATURAL GAS COMPRESSOR STATION", "STATUS": "IN SERVICE", "COUNTY": "ERIE", "COUNTYFIPS": "36029", "COUNTRY": "USA", "LATITUDE": 42.797464, "LONGITUDE": -78.584553, "NAICS_CODE": "486210", "NAICS_DESC": "BOOSTER PUMPING STATION, NATURAL GAS TRANSPORTATION", "SOURCE": "FERC FORM 2, CORPORATE WEBSITE", "SOURCEDATE": "Wed, 15 Jul 2020 00:00:00 GMT", "VAL_METHOD": "IMAGERY/OTHER", "VAL_DATE": "Fri, 17 Jun 2022 00:00:00 GMT", "WEBSITE": "http://www.natfuel.com/", "PIPECO": "NATIONAL FUEL GAS SUPPLY CORPORATION", "COMPID": "16", "OPERATOR": "NATIONAL FUEL GAS SUPPLY CORPORATION", "POSREL": "WITHIN 40 FEET", "NUM_UNITS": 1, "CERT_HP": 400, "PLANT_COST": 8917526, "EXP_FUEL": 11732, "EXP_OTHER": 142487, "GAS_COMPRE": 7964, "OP_COMP_HR": 1532, "OP_NUM_COM": 0, "OP_DATE_PE": "Thu, 27 Feb 2020 00:00:00 GMT", "EXP_POWER": 13254, "ELEC_COMPR": 179000 }, "geometry": { "type": "Point", "coordinates": [ -78.584553, 42.797464 ] } },
{ "type": "Feature", "properties": { "OBJECTID": 998, "GCOMPID": "GCOMP669", "NAME": "LOCKPORT", "ADDRESS": "5120 5153 JUNCTION ROAD", "CITY": "LOCKPORT", "STATE": "NY", "ZIP": "14094", "ZIP4": "NOT AVAILABLE", "TYPE": "NATURAL GAS COMPRESSOR STATION", "STATUS": "IN SERVICE", "COUNTY": "NIAGARA", "COUNTYFIPS": "36063", "COUNTRY": "USA", "LATITUDE": 43.16028174, "LONGITUDE": -78.753906414, "NAICS_CODE": "486210", "NAICS_DESC": "BOOSTER PUMPING STATION, NATURAL GAS TRANSPORTATION", "SOURCE": "EPA ENVIROFACTS, FERC FORM 2, CORPORATE WEBSITE", "SOURCEDATE": "Wed, 15 Jul 2020 00:00:00 GMT", "VAL_METHOD": "IMAGERY/OTHER", "VAL_DATE": "Fri, 17 Jun 2022 00:00:00 GMT", "WEBSITE": "http://www.natfuel.com/", "PIPECO": "NATIONAL FUEL GAS SUPPLY CORPORATION", "COMPID": "16", "OPERATOR": "NATIONAL FUEL GAS SUPPLY CORPORATION", "POSREL": "WITHIN 40 FEET", "NUM_UNITS": 4, "CERT_HP": 18000, "PLANT_COST": 23275264, "EXP_FUEL": 64535, "EXP_OTHER": 250812, "GAS_COMPRE": 24603, "OP_COMP_HR": 0, "OP_NUM_COM": 0, "OP_DATE_PE": "Wed, 15 Jul 2020 00:00:00 GMT", "EXP_POWER": 0, "ELEC_COMPR": 0 }, "geometry": { "type": "Point", "coordinates": [ -78.753906414, 43.160281740000102 ] } },
{ "type": "Feature", "properties": { "OBJECTID": 1019, "GCOMPID": "GCOMP688", "NAME": "LAMONT", "ADDRESS": "5405 HIGHLAND ROAD", "CITY": "KANE", "STATE": "PA", "ZIP": "16735", "ZIP4": "NOT AVAILABLE", "TYPE": "NATURAL GAS COMPRESSOR STATION", "STATUS": "IN SERVICE", "COUNTY": "MCKEAN", "COUNTYFIPS": "42083", "COUNTRY": "USA", "LATITUDE": 41.612486, "LONGITUDE": -78.805474, "NAICS_CODE": "486210", "NAICS_DESC": "BOOSTER PUMPING STATION, NATURAL GAS TRANSPORTATION", "SOURCE": "EPA ENVIROFACTS, FERC FORM 2, CORPORATE WEBSITE", "SOURCEDATE": "Wed, 15 Jul 2020 00:00:00 GMT", "VAL_METHOD": "IMAGERY/OTHER", "VAL_DATE": "Fri, 17 Jun 2022 00:00:00 GMT", "WEBSITE": "http://www.natfuel.com/", "PIPECO": "NATIONAL FUEL GAS SUPPLY CORPORATION", "COMPID": "16", "OPERATOR": "NATIONAL FUEL GAS SUPPLY CORPORATION", "POSREL": "WITHIN 40 FEET", "NUM_UNITS": 6, "CERT_HP": 1190, "PLANT_COST": 2126686, "EXP_FUEL": 25199, "EXP_OTHER": 217995, "GAS_COMPRE": 17106, "OP_COMP_HR": 15274, "OP_NUM_COM": 2, "OP_DATE_PE": "Mon, 09 Nov 2020 00:00:00 GMT", "EXP_POWER": 15221, "ELEC_COMPR": 195840 }, "geometry": { "type": "Point", "coordinates": [ -78.805474, 41.612486 ] } },
{ "type": "Feature", "properties": { "OBJECTID": 1031, "GCOMPID": "GCOMP699", "NAME": "CONCORD", "ADDRESS": "5510 GENESSEE ROAD", "CITY": "SPRINGVILLE", "STATE": "NY", "ZIP": "14141", "ZIP4": "NOT AVAILABLE", "TYPE": "NATURAL GAS COMPRESSOR STATION", "STATUS": "IN SERVICE", "COUNTY": "ERIE", "COUNTYFIPS": "36029", "COUNTRY": "USA", "LATITUDE": 42.561973711, "LONGITUDE": -78.780898152000006, "NAICS_CODE": "486210", "NAICS_DESC": "BOOSTER PUMPING STATION, NATURAL GAS TRANSPORTATION", "SOURCE": "EPA ENVIROFACTS, FERC FORM 2, CORPORATE WEBSITE", "SOURCEDATE": "Wed, 15 Jul 2020 00:00:00 GMT", "VAL_METHOD": "IMAGERY/OTHER", "VAL_DATE": "Fri, 17 Jun 2022 00:00:00 GMT", "WEBSITE": "http://www.natfuel.com/", "PIPECO": "NATIONAL FUEL GAS SUPPLY CORPORATION", "COMPID": "16", "OPERATOR": "NATIONAL FUEL GAS SUPPLY CORPORATION", "POSREL": "WITHIN 40 FEET", "NUM_UNITS": 5, "CERT_HP": 11250, "PLANT_COST": 25039925, "EXP_FUEL": 25572, "EXP_OTHER": 198576, "GAS_COMPRE": 9749, "OP_COMP_HR": 2753, "OP_NUM_COM": 3, "OP_DATE_PE": "Thu, 27 Dec 2012 00:00:00 GMT", "EXP_POWER": 28743, "ELEC_COMPR": 310400 }, "geometry": { "type": "Point", "coordinates": [ -78.780898152, 42.5619737110001 ] } },
{ "type": "Feature", "properties": { "OBJECTID": 1210, "GCOMPID": "GCOMP86", "NAME": "NASHVILLE", "ADDRESS": "11413 ALLEGANY ROAD", "CITY": "FORESTVILLE", "STATE": "NY", "ZIP": "14062", "ZIP4": "NOT AVAILABLE", "TYPE": "NATURAL GAS COMPRESSOR STATION", "STATUS": "IN SERVICE", "COUNTY": "CHAUTAUQUA", "COUNTYFIPS": "36013", "COUNTRY": "USA", "LATITUDE": 42.496951679, "LONGITUDE": -79.091019027000002, "NAICS_CODE": "486210", "NAICS_DESC": "BOOSTER PUMPING STATION, NATURAL GAS TRANSPORTATION", "SOURCE": "FERC FORM 2, CORPORATE WEBSITE", "SOURCEDATE": "Wed, 15 Jul 2020 00:00:00 GMT", "VAL_METHOD": "IMAGERY/OTHER", "VAL_DATE": "Fri, 17 Jun 2022 00:00:00 GMT", "WEBSITE": "http://www.natfuel.com/", "PIPECO": "NATIONAL FUEL GAS SUPPLY CORPORATION", "COMPID": "16", "OPERATOR": "NATIONAL FUEL GAS SUPPLY CORPORATION", "POSREL": "WITHIN 40 FEET", "NUM_UNITS": 1, "CERT_HP": 225, "PLANT_COST": -999, "EXP_FUEL": 0, "EXP_OTHER": 12052, "GAS_COMPRE": 0, "OP_COMP_HR": 8289, "OP_NUM_COM": 1, "OP_DATE_PE": "Sun, 18 Nov 2012 00:00:00 GMT", "EXP_POWER": 0, "ELEC_COMPR": 0 }, "geometry": { "type": "Point", "coordinates": [ -79.091019027, 42.496951679000098 ] } },
{ "type": "Feature", "properties": { "OBJECTID": 1328, "GCOMPID": "GCOMP966", "NAME": "TUSCARORA", "ADDRESS": "COUNTY ROAD 100 (WILLIAMS ROAD/BORDEN PULTENEY HILL ROAD)", "CITY": "ADDISON", "STATE": "NY", "ZIP": "14801", "ZIP4": "NOT AVAILABLE", "TYPE": "NATURAL GAS COMPRESSOR STATION", "STATUS": "IN SERVICE", "COUNTY": "STEUBEN", "COUNTYFIPS": "36101", "COUNTRY": "USA", "LATITUDE": 42.070506, "LONGITUDE": -77.308605, "NAICS_CODE": "486210", "NAICS_DESC": "BOOSTER PUMPING STATION, NATURAL GAS TRANSPORTATION", "SOURCE": "FERC FORM 2, CORPORATE WEBSITE", "SOURCEDATE": "Wed, 15 Jul 2020 00:00:00 GMT", "VAL_METHOD": "IMAGERY/OTHER", "VAL_DATE": "Fri, 17 Jun 2022 00:00:00 GMT", "WEBSITE": "http://www.natfuel.com/", "PIPECO": "NATIONAL FUEL GAS SUPPLY CORPORATION", "COMPID": "16", "OPERATOR": "NATIONAL FUEL GAS SUPPLY CORPORATION", "POSREL": "WITHIN 40 FEET", "NUM_UNITS": 1, "CERT_HP": 1380, "PLANT_COST": 11523034, "EXP_FUEL": 0, "EXP_OTHER": 54513, "GAS_COMPRE": 0, "OP_COMP_HR": 3259, "OP_NUM_COM": 1, "OP_DATE_PE": "Sat, 29 Feb 2020 00:00:00 GMT", "EXP_POWER": 8475, "ELEC_COMPR": 91020 }, "geometry": { "type": "Point", "coordinates": [ -77.308605, 42.070506000000101 ] } },
{ "type": "Feature", "properties": { "OBJECTID": null, "GCOMPID": null, "NAME": null, "ADDRESS": null, "CITY": null, "STATE": null, "ZIP": null, "ZIP4": null, "TYPE": null, "STATUS": null, "COUNTY": null, "COUNTYFIPS": null, "COUNTRY": null, "LATITUDE": null, "LONGITUDE": null, "NAICS_CODE": null, "NAICS_DESC": null, "SOURCE": null, "SOURCEDATE": null, "VAL_METHOD": null, "VAL_DATE": null, "WEBSITE": null, "PIPECO": null, "COMPID": null, "OPERATOR": null, "POSREL": null, "NUM_UNITS": null, "CERT_HP": null, "PLANT_COST": null, "EXP_FUEL": null, "EXP_OTHER": null, "GAS_COMPRE": null, "OP_COMP_HR": null, "OP_NUM_COM": null, "OP_DATE_PE": null, "EXP_POWER": null, "ELEC_COMPR": null }, "geometry": { "type": "Point", "coordinates": [ -80.275216973988066, 41.275656368565087 ] } },
{ "type": "Feature", "properties": { "OBJECTID": 1767, "GCOMPID": "GCOMP1779", "NAME": "BUFFALO", "ADDRESS": "270 PLEASANT VALLEY ROAD", "CITY": "WASHINGTON", "STATE": "PA", "ZIP": "15301", "ZIP4": "NOT APPLICABLE", "TYPE": "NATURAL GAS COMPRESSOR STATION", "STATUS": "IN SERVICE", "COUNTY": "WASHINGTON", "COUNTYFIPS": "42125", "COUNTRY": "USA", "LATITUDE": 40.156951821, "LONGITUDE": -80.34352113, "NAICS_CODE": "486210", "NAICS_DESC": "BOOSTER PUMPING STATION, NATURAL GAS TRANSPORTATION", "SOURCE": "FERC FORM 2, CORPORATE WEBSITE", "SOURCEDATE": "Wed, 15 Jul 2020 00:00:00 GMT", "VAL_METHOD": "IMAGERY/OTHER", "VAL_DATE": "Fri, 17 Jun 2022 00:00:00 GMT", "WEBSITE": "http://www.natfuel.com/", "PIPECO": "NATIONAL FUEL GAS SUPPLY CORPORATION", "COMPID": "16", "OPERATOR": "NATIONAL FUEL GAS SUPPLY CORPORATION", "POSREL": "WITHIN 1 MILE", "NUM_UNITS": 4, "CERT_HP": 25300, "PLANT_COST": 47189259, "EXP_FUEL": 420943, "EXP_OTHER": 384718, "GAS_COMPRE": 135298, "OP_COMP_HR": 11339, "OP_NUM_COM": 3, "OP_DATE_PE": "Wed, 11 Aug 2021 00:00:00 GMT", "EXP_POWER": 48998, "ELEC_COMPR": 514076 }, "geometry": { "type": "Point", "coordinates": [ -80.3435211299999, 40.156951821000099 ] } },
{ "type": "Feature", "properties": { "OBJECTID": 1769, "GCOMPID": "GCOMP1780", "NAME": "EAST AURORA", "ADDRESS": "5215 REITER ROAD", "CITY": "EAST AURORA", "STATE": "NY", "ZIP": "14052", "ZIP4": "NOT APPLICABLE", "TYPE": "NATURAL GAS COMPRESSOR STATION", "STATUS": "IN SERVICE", "COUNTY": "ERIE", "COUNTYFIPS": "36029", "COUNTRY": "USA", "LATITUDE": 42.746527, "LONGITUDE": -78.573111, "NAICS_CODE": "486210", "NAICS_DESC": "BOOSTER PUMPING STATION, NATURAL GAS TRANSPORTATION", "SOURCE": "FERC FORM 2", "SOURCEDATE": "Wed, 15 Jul 2020 00:00:00 GMT", "VAL_METHOD": "IMAGERY/OTHER", "VAL_DATE": "Fri, 17 Jun 2022 00:00:00 GMT", "WEBSITE": "http://www.natfuel.com/", "PIPECO": "NATIONAL FUEL GAS SUPPLY CORPORATION", "COMPID": "16", "OPERATOR": "NATIONAL FUEL GAS SUPPLY CORPORATION", "POSREL": "WITHIN 1 MILE", "NUM_UNITS": 2, "CERT_HP": 4740, "PLANT_COST": 19901697, "EXP_FUEL": 214192, "EXP_OTHER": 610292, "GAS_COMPRE": 145403, "OP_COMP_HR": 10896, "OP_NUM_COM": 2, "OP_DATE_PE": "Thu, 18 Jun 2020 00:00:00 GMT", "EXP_POWER": 32472, "ELEC_COMPR": 433400 }, "geometry": { "type": "Point", "coordinates": [ -78.573111, 42.7465270000001 ] } },
{ "type": "Feature", "properties": { "OBJECTID": 1771, "GCOMPID": "GCOMP1781", "NAME": "HINSDALE", "ADDRESS": "1229 OAK LANE ROAD", "CITY": "HINSDALE", "STATE": "NY", "ZIP": "14743", "ZIP4": "NOT APPLICABLE", "TYPE": "NATURAL GAS COMPRESSOR STATION", "STATUS": "IN SERVICE", "COUNTY": "CATTARAUGUS", "COUNTYFIPS": "36009", "COUNTRY": "USA", "LATITUDE": 42.175273, "LONGITUDE": -78.390925, "NAICS_CODE": "486210", "NAICS_DESC": "BOOSTER PUMPING STATION, NATURAL GAS TRANSPORTATION", "SOURCE": "FERC FORM 2", "SOURCEDATE": "Fri, 08 Apr 2022 00:00:00 GMT", "VAL_METHOD": "IMAGERY/OTHER", "VAL_DATE": "Fri, 17 Jun 2022 00:00:00 GMT", "WEBSITE": "http://www.natfuel.com/", "PIPECO": "NATIONAL FUEL GAS SUPPLY CORPORATION", "COMPID": "16", "OPERATOR": "NATIONAL FUEL GAS SUPPLY CORPORATION", "POSREL": "WITHIN 1 MILE", "NUM_UNITS": 2, "CERT_HP": 15452, "PLANT_COST": 37477397, "EXP_FUEL": 1492439, "EXP_OTHER": 251939, "GAS_COMPRE": 1013131, "OP_COMP_HR": 17174, "OP_NUM_COM": 2, "OP_DATE_PE": "Thu, 16 Apr 2020 00:00:00 GMT", "EXP_POWER": 72793, "ELEC_COMPR": 1029120 }, "geometry": { "type": "Point", "coordinates": [ -78.390925, 42.175273 ] } },
{ "type": "Feature", "properties": { "OBJECTID": 1774, "GCOMPID": "GCOMP1782", "NAME": "KEELOR", "ADDRESS": "GAME SCHOOL ROAD", "CITY": "BROCKWAY", "STATE": "PA", "ZIP": "15824", "ZIP4": "NOT APPLICABLE", "TYPE": "NATURAL GAS COMPRESSOR STATION", "STATUS": "IN SERVICE", "COUNTY": "MCKEAN", "COUNTYFIPS": "42083", "COUNTRY": "USA", "LATITUDE": 41.68978, "LONGITUDE": -78.8626, "NAICS_CODE": "486210", "NAICS_DESC": "BOOSTER PUMPING STATION, NATURAL GAS TRANSPORTATION", "SOURCE": "FERC FORM 2", "SOURCEDATE": "Wed, 15 Jul 2020 00:00:00 GMT", "VAL_METHOD": "IMAGERY/OTHER", "VAL_DATE": "Fri, 17 Jun 2022 00:00:00 GMT", "WEBSITE": "http://www.natfuel.com/", "PIPECO": "NATIONAL FUEL GAS SUPPLY CORPORATION", "COMPID": "16", "OPERATOR": "NATIONAL FUEL GAS SUPPLY CORPORATION", "POSREL": "WITHIN 1 MILE", "NUM_UNITS": 3, "CERT_HP": 4140, "PLANT_COST": 26224254, "EXP_FUEL": 50975, "EXP_OTHER": 153608, "GAS_COMPRE": 34604, "OP_COMP_HR": 1515, "OP_NUM_COM": 2, "OP_DATE_PE": "Thu, 20 Feb 2020 00:00:00 GMT", "EXP_POWER": 31912, "ELEC_COMPR": 399751 }, "geometry": { "type": "Point", "coordinates": [ -78.8626, 41.68978 ] } },
{ "type": "Feature", "properties": { "OBJECTID": 1775, "GCOMPID": "GCOMP1783", "NAME": "MARVINDALE", "ADDRESS": "32 KIN FORKS LANE", "CITY": "MOUNT JEWETT", "STATE": "PA", "ZIP": "16740", "ZIP4": "NOT APPLICABLE", "TYPE": "NATURAL GAS COMPRESSOR STATION", "STATUS": "IN SERVICE", "COUNTY": "MCKEAN", "COUNTYFIPS": "42083", "COUNTRY": "USA", "LATITUDE": 41.702678591000002, "LONGITUDE": -78.500087144999995, "NAICS_CODE": "486210", "NAICS_DESC": "BOOSTER PUMPING STATION, NATURAL GAS TRANSPORTATION", "SOURCE": "FERC FORM 2", "SOURCEDATE": "Wed, 15 Jul 2020 00:00:00 GMT", "VAL_METHOD": "IMAGERY/OTHER", "VAL_DATE": "Fri, 17 Jun 2022 00:00:00 GMT", "WEBSITE": "http://www.natfuel.com/", "PIPECO": "NATIONAL FUEL GAS SUPPLY CORPORATION", "COMPID": "16", "OPERATOR": "NATIONAL FUEL GAS SUPPLY CORPORATION", "POSREL": "WITHIN 1 MILE", "NUM_UNITS": 3, "CERT_HP": 14592, "PLANT_COST": 48030704, "EXP_FUEL": 0, "EXP_OTHER": 16286, "GAS_COMPRE": 0, "OP_COMP_HR": 582, "OP_NUM_COM": 0, "OP_DATE_PE": "Fri, 29 Oct 2021 00:00:00 GMT", "EXP_POWER": 11427, "ELEC_COMPR": 126356 }, "geometry": { "type": "Point", "coordinates": [ -78.500087145, 41.702678591000101 ] } },
{ "type": "Feature", "properties": { "OBJECTID": 1777, "GCOMPID": "GCOMP1784", "NAME": "NASHVILLE (STORAGE)", "ADDRESS": "11309 WALNUT ROAD", "CITY": "SILVER CREEK", "STATE": "NY", "ZIP": "14136", "ZIP4": "NOT APPLICABLE", "TYPE": "NATURAL GAS COMPRESSOR STATION", "STATUS": "IN SERVICE", "COUNTY": "CHAUTAUQUA", "COUNTYFIPS": "36013", "COUNTRY": "USA", "LATITUDE": 42.49362, "LONGITUDE": -79.19371, "NAICS_CODE": "486210", "NAICS_DESC": "BOOSTER PUMPING STATION, NATURAL GAS TRANSPORTATION", "SOURCE": "FERC FORM 2, CORPORATE WEBSITE", "SOURCEDATE": "Wed, 15 Jul 2020 00:00:00 GMT", "VAL_METHOD": "IMAGERY/OTHER", "VAL_DATE": "Fri, 17 Jun 2022 00:00:00 GMT", "WEBSITE": "http://www.natfuel.com/", "PIPECO": "NATIONAL FUEL GAS SUPPLY CORPORATION", "COMPID": "16", "OPERATOR": "NATIONAL FUEL GAS SUPPLY CORPORATION", "POSREL": "WITHIN 1 MILE", "NUM_UNITS": 3, "CERT_HP": 3320, "PLANT_COST": 10548518, "EXP_FUEL": 180762, "EXP_OTHER": 372356, "GAS_COMPRE": 58100, "OP_COMP_HR": 6720, "OP_NUM_COM": 0, "OP_DATE_PE": "Tue, 26 Jan 2021 00:00:00 GMT", "EXP_POWER": 22068, "ELEC_COMPR": 289000 }, "geometry": { "type": "Point", "coordinates": [ -79.193709999999896, 42.49362 ] } },
{ "type": "Feature", "properties": { "OBJECTID": 1780, "GCOMPID": "GCOMP1785", "NAME": "STRATTANVILLE", "ADDRESS": "N CENTER PLACE", "CITY": "CLARION", "STATE": "PA", "ZIP": "16214", "ZIP4": "NOT APPLICABLE", "TYPE": "NATURAL GAS COMPRESSOR STATION", "STATUS": "IN SERVICE", "COUNTY": "CLARION", "COUNTYFIPS": "42031", "COUNTRY": "USA", "LATITUDE": 41.216269869000001, "LONGITUDE": -79.383505545000006, "NAICS_CODE": "486210", "NAICS_DESC": "BOOSTER PUMPING STATION, NATURAL GAS TRANSPORTATION", "SOURCE": "FERC FROM 2, CORPORATE WEBSITE, IMAGERY", "SOURCEDATE": "Wed, 15 Jul 2020 00:00:00 GMT", "VAL_METHOD": "IMAGERY/OTHER", "VAL_DATE": "Fri, 17 Jun 2022 00:00:00 GMT", "WEBSITE": "http://www.natfuel.com/", "PIPECO": "NATIONAL FUEL GAS SUPPLY CORPORATION", "COMPID": "16", "OPERATOR": "NATIONAL FUEL GAS SUPPLY CORPORATION", "POSREL": "WITHIN 1 MILE", "NUM_UNITS": -999, "CERT_HP": 30, "PLANT_COST": -999, "EXP_FUEL": -999, "EXP_OTHER": -999, "GAS_COMPRE": -999, "OP_COMP_HR": -999, "OP_NUM_COM": 0, "OP_DATE_PE": "Wed, 15 Jul 2020 00:00:00 GMT", "EXP_POWER": 0, "ELEC_COMPR": 0 }, "geometry": { "type": "Point", "coordinates": [ -79.383505544999906, 41.216269869 ] } },
{ "type": "Feature", "properties": { "OBJECTID": 1781, "GCOMPID": "GCOMP1786", "NAME": "TAMARACK", "ADDRESS": "STATE ROUTE 144", "CITY": "CROSS FORK", "STATE": "PA", "ZIP": "17729", "ZIP4": "NOT APPLICABLE", "TYPE": "NATURAL GAS COMPRESSOR STATION", "STATUS": "IN SERVICE", "COUNTY": "CLINTON", "COUNTYFIPS": "42035", "COUNTRY": "USA", "LATITUDE": 41.437064604, "LONGITUDE": -77.836657743000004, "NAICS_CODE": "486210", "NAICS_DESC": "BOOSTER PUMPING STATION, NATURAL GAS TRANSPORTATION", "SOURCE": "FERC FROM 2, CORPORATE WEBSITE, IMAGERY", "SOURCEDATE": "Wed, 15 Jul 2020 00:00:00 GMT", "VAL_METHOD": "IMAGERY/OTHER", "VAL_DATE": "Fri, 17 Jun 2022 00:00:00 GMT", "WEBSITE": "http://www.natfuel.com/", "PIPECO": "NATIONAL FUEL GAS SUPPLY CORPORATION", "COMPID": "16", "OPERATOR": "NATIONAL FUEL GAS SUPPLY CORPORATION", "POSREL": "WITHIN 1 MILE", "NUM_UNITS": 2, "CERT_HP": 21074, "PLANT_COST": 47652794, "EXP_FUEL": 0, "EXP_OTHER": 7135, "GAS_COMPRE": 0, "OP_COMP_HR": 0, "OP_NUM_COM": 1, "OP_DATE_PE": "Tue, 09 Nov 2021 00:00:00 GMT", "EXP_POWER": 15613, "ELEC_COMPR": 125760 }, "geometry": { "type": "Point", "coordinates": [ -77.836657743, 41.437064604 ] } },
{ "type": "Feature", "properties": { "OBJECTID": 1783, "GCOMPID": "GCOMP1772", "NAME": "WILLING", "ADDRESS": "FITZSTEVEN ROAD", "CITY": "WELLSVILLE", "STATE": "PA", "ZIP": "14895", "ZIP4": "NOT APPLICABLE", "TYPE": "NATURAL GAS COMPRESSOR STATION", "STATUS": "IN SERVICE", "COUNTY": "ALLEGANY", "COUNTYFIPS": "36003", "COUNTRY": "USA", "LATITUDE": 42.01269, "LONGITUDE": -77.92126, "NAICS_CODE": "486210", "NAICS_DESC": "BOOSTER PUMPING STATION, NATURAL GAS TRANSPORTATION", "SOURCE": "FERC FROM 2, CORPORATE WEBSITE, IMAGERY", "SOURCEDATE": "Wed, 15 Jul 2020 00:00:00 GMT", "VAL_METHOD": "IMAGERY/OTHER", "VAL_DATE": "Fri, 17 Jun 2022 00:00:00 GMT", "WEBSITE": "http://www.natfuel.com/", "PIPECO": "NATIONAL FUEL GAS SUPPLY CORPORATION", "COMPID": "16", "OPERATOR": "NATIONAL FUEL GAS SUPPLY CORPORATION", "POSREL": "WITHIN 1 MILE", "NUM_UNITS": 1, "CERT_HP": 330, "PLANT_COST": 662373, "EXP_FUEL": 16419, "EXP_OTHER": 62266, "GAS_COMPRE": 11146, "OP_COMP_HR": 8097, "OP_NUM_COM": 1, "OP_DATE_PE": "Thu, 07 May 2020 00:00:00 GMT", "EXP_POWER": 0, "ELEC_COMPR": 0 }, "geometry": { "type": "Point", "coordinates": [ -77.92126, 42.01269 ] } },
{ "type": "Feature", "properties": { "OBJECTID": null, "GCOMPID": null, "NAME": null, "ADDRESS": null, "CITY": null, "STATE": null, "ZIP": null, "ZIP4": null, "TYPE": null, "STATUS": null, "COUNTY": null, "COUNTYFIPS": null, "COUNTRY": null, "LATITUDE": null, "LONGITUDE": null, "NAICS_CODE": null, "NAICS_DESC": null, "SOURCE": null, "SOURCEDATE": null, "VAL_METHOD": null, "VAL_DATE": null, "WEBSITE": null, "PIPECO": null, "COMPID": null, "OPERATOR": null, "POSREL": null, "NUM_UNITS": null, "CERT_HP": null, "PLANT_COST": null, "EXP_FUEL": null, "EXP_OTHER": null, "GAS_COMPRE": null, "OP_COMP_HR": null, "OP_NUM_COM": null, "OP_DATE_PE": null, "EXP_POWER": null, "ELEC_COMPR": null }, "geometry": { "type": "Point", "coordinates": [ -80.453363389999893, 39.891638618000101 ] } }
]
}
