{
"type": "FeatureCollection",
"name": "P6898-compressor-stations",
"crs": { "type": "name", "properties": { "name": "urn:ogc:def:crs:OGC:1.3:CRS84" } },
"features": [
{ "type": "Feature", "properties": { "OBJECTID": 5, "GCOMPID": "GCOMP1001", "NAME": "COLORADO - SKULL CREEK DEW POINT PLANT", "ADDRESS": "COUNTY ROAD 4; SW SE SEC 32 T12N R97W", "CITY": "MAYBELL", "STATE": "CO", "ZIP": "81640", "ZIP4": "NOT AVAILABLE", "TYPE": "NATURAL GAS COMPRESSOR STATION", "STATUS": "IN SERVICE", "COUNTY": "MOFFAT", "COUNTYFIPS": "08081", "COUNTRY": "USA", "LATITUDE": 40.950557337, "LONGITUDE": -108.311926251, "NAICS_CODE": "486210", "NAICS_DESC": "BOOSTER PUMPING STATION, NATURAL GAS TRANSPORTATION", "SOURCE": "EPA ENVIROFACTS, FERC FORM 2, CORPORATE WEBSITE", "SOURCEDATE": "Wed, 15 Jul 2020 00:00:00 GMT", "VAL_METHOD": "IMAGERY/OTHER", "VAL_DATE": "Sat, 25 Jun 2022 00:00:00 GMT", "WEBSITE": "http://www.questarpipeline.com/", "PIPECO": "QUESTAR PIPELINE COMPANY", "COMPID": "55", "OPERATOR": "QUESTAR PIPELINE COMPANY", "POSREL": "WITHIN 40 FEET", "NUM_UNITS": 1, "CERT_HP": 100, "PLANT_COST": 950473, "EXP_FUEL": 84436, "EXP_OTHER": 375595, "GAS_COMPRE": 32497, "OP_COMP_HR": 7002, "OP_NUM_COM": 1, "OP_DATE_PE": "Sun, 23 Dec 2012 00:00:00 GMT", "EXP_POWER": 0, "ELEC_COMPR": 0 }, "geometry": { "type": "Point", "coordinates": [ -108.311926251, 40.950557337000099 ] } },
{ "type": "Feature", "properties": { "OBJECTID": 39, "GCOMPID": "GCOMP1032", "NAME": "WYOMING - EAKIN/MUDDY CREEK", "ADDRESS": "EAKIN STATION ROAD; 7 MILES NW OF EXIT 48 I-80 E", "CITY": "FORT BRIDGER", "STATE": "WY", "ZIP": "82933", "ZIP4": "NOT AVAILABLE", "TYPE": "NATURAL GAS COMPRESSOR STATION", "STATUS": "IN SERVICE", "COUNTY": "UINTA", "COUNTYFIPS": "56041", "COUNTRY": "USA", "LATITUDE": 41.442130212000002, "LONGITUDE": -110.243088265, "NAICS_CODE": "486210", "NAICS_DESC": "BOOSTER PUMPING STATION, NATURAL GAS TRANSPORTATION", "SOURCE": "EPA ENVIROFACTS, FERC FORM 2, CORPORATE WEBSITE", "SOURCEDATE": "Wed, 15 Jul 2020 00:00:00 GMT", "VAL_METHOD": "IMAGERY/OTHER", "VAL_DATE": "Fri, 17 Jun 2022 00:00:00 GMT", "WEBSITE": "http://www.questarpipeline.com/", "PIPECO": "QUESTAR PIPELINE COMPANY", "COMPID": "55", "OPERATOR": "QUESTAR PIPELINE COMPANY", "POSREL": "WITHIN 40 FEET", "NUM_UNITS": 5, "CERT_HP": 15080, "PLANT_COST": 25148567, "EXP_FUEL": 798777, "EXP_OTHER": 544821, "GAS_COMPRE": 281700, "OP_COMP_HR": 7059, "OP_NUM_COM": 5, "OP_DATE_PE": "Wed, 29 Feb 2012 00:00:00 GMT", "EXP_POWER": 0, "ELEC_COMPR": 0 }, "geometry": { "type": "Point", "coordinates": [ -110.243088265, 41.442130212 ] } },
{ "type": "Feature", "properties": { "OBJECTID": 160, "GCOMPID": "GCOMP1142", "NAME": "UTAH - THISTLE CREEK", "ADDRESS": "LAKE FORK ROAD", "CITY": "FAIRVIEW", "STATE": "UT", "ZIP": "84629", "ZIP4": "NOT AVAILABLE", "TYPE": "NATURAL GAS COMPRESSOR STATION", "STATUS": "IN SERVICE", "COUNTY": "UTAH", "COUNTYFIPS": "49049", "COUNTRY": "USA", "LATITUDE": 39.81943866, "LONGITUDE": -111.464694235, "NAICS_CODE": "486210", "NAICS_DESC": "BOOSTER PUMPING STATION, NATURAL GAS TRANSPORTATION", "SOURCE": "EPA ENVIROFACTS, FERC FORM 2, CORPORATE WEBSITE", "SOURCEDATE": "Wed, 15 Jul 2020 00:00:00 GMT", "VAL_METHOD": "IMAGERY/OTHER", "VAL_DATE": "Tue, 07 Jun 2022 00:00:00 GMT", "WEBSITE": "http://www.questarpipeline.com/", "PIPECO": "QUESTAR PIPELINE COMPANY", "COMPID": "55", "OPERATOR": "QUESTAR PIPELINE COMPANY", "POSREL": "WITHIN 40 FEET", "NUM_UNITS": 1, "CERT_HP": 7800, "PLANT_COST": 12987911, "EXP_FUEL": 1140547, "EXP_OTHER": 161728, "GAS_COMPRE": 441705, "OP_COMP_HR": 8627, "OP_NUM_COM": 1, "OP_DATE_PE": "Mon, 16 Jan 2012 00:00:00 GMT", "EXP_POWER": 0, "ELEC_COMPR": 0 }, "geometry": { "type": "Point", "coordinates": [ -111.464694235, 39.819438660000102 ] } },
{ "type": "Feature", "properties": { "OBJECTID": 169, "GCOMPID": "GCOMP1150", "NAME": "WYOMING - LEROY", "ADDRESS": "LEROY ROAD; SEC33, T16N, RANGE 117W", "CITY": "FORT BRIDGER", "STATE": "WY", "ZIP": "82933", "ZIP4": "NOT AVAILABLE", "TYPE": "NATURAL GAS COMPRESSOR STATION", "STATUS": "IN SERVICE", "COUNTY": "UINTA", "COUNTYFIPS": "56041", "COUNTRY": "USA", "LATITUDE": 41.329884862999997, "LONGITUDE": -110.619300979, "NAICS_CODE": "486210", "NAICS_DESC": "BOOSTER PUMPING STATION, NATURAL GAS TRANSPORTATION", "SOURCE": "EPA ENVIROFACTS, FERC FORM 2, CORPORATE WEBSITE", "SOURCEDATE": "Wed, 15 Jul 2020 00:00:00 GMT", "VAL_METHOD": "IMAGERY/OTHER", "VAL_DATE": "Sat, 18 Jun 2022 00:00:00 GMT", "WEBSITE": "http://www.questarpipeline.com/", "PIPECO": "QUESTAR PIPELINE COMPANY", "COMPID": "55", "OPERATOR": "QUESTAR PIPELINE COMPANY", "POSREL": "WITHIN 40 FEET", "NUM_UNITS": 1, "CERT_HP": 3830, "PLANT_COST": 2686581, "EXP_FUEL": 80803, "EXP_OTHER": 48116, "GAS_COMPRE": 31446, "OP_COMP_HR": 582, "OP_NUM_COM": 0, "OP_DATE_PE": "Mon, 08 Oct 2012 00:00:00 GMT", "EXP_POWER": 0, "ELEC_COMPR": 0 }, "geometry": { "type": "Point", "coordinates": [ -110.619300979, 41.329884863000103 ] } },
{ "type": "Feature", "properties": { "OBJECTID": 190, "GCOMPID": "GCOMP117", "NAME": "UTAH - CHALK CREEK", "ADDRESS": "1247 E CHALK CREEK ROAD", "CITY": "COALVILLE", "STATE": "UT", "ZIP": "84017", "ZIP4": "NOT AVAILABLE", "TYPE": "NATURAL GAS COMPRESSOR STATION", "STATUS": "IN SERVICE", "COUNTY": "SUMMIT", "COUNTYFIPS": "49043", "COUNTRY": "USA", "LATITUDE": 40.922823411000003, "LONGITUDE": -111.318551957, "NAICS_CODE": "486210", "NAICS_DESC": "BOOSTER PUMPING STATION, NATURAL GAS TRANSPORTATION", "SOURCE": "EPA ENVIROFACTS, FERC FORM 2, CORPORATE WEBSITE", "SOURCEDATE": "Wed, 15 Jul 2020 00:00:00 GMT", "VAL_METHOD": "IMAGERY/OTHER", "VAL_DATE": "Tue, 21 Jun 2022 00:00:00 GMT", "WEBSITE": "http://www.questarpipeline.com/", "PIPECO": "QUESTAR PIPELINE COMPANY", "COMPID": "55", "OPERATOR": "QUESTAR PIPELINE COMPANY", "POSREL": "WITHIN 40 FEET", "NUM_UNITS": 1, "CERT_HP": 550, "PLANT_COST": 919218, "EXP_FUEL": 21236, "EXP_OTHER": 34372, "GAS_COMPRE": 6753, "OP_COMP_HR": 1097, "OP_NUM_COM": 0, "OP_DATE_PE": "Tue, 14 Feb 2012 00:00:00 GMT", "EXP_POWER": 0, "ELEC_COMPR": 0 }, "geometry": { "type": "Point", "coordinates": [ -111.318551957, 40.922823411 ] } },
{ "type": "Feature", "properties": { "OBJECTID": 211, "GCOMPID": "GCOMP1189", "NAME": "COLORADO - GREASEWOOD", "ADDRESS": "NEAR CORNER OF COUNTY ROAD 76 AND COUNTY ROAD 3A; SE SE SEC 5 T2S R96W", "CITY": "MEEKER", "STATE": "CO", "ZIP": "81641", "ZIP4": "NOT AVAILABLE", "TYPE": "NATURAL GAS COMPRESSOR STATION", "STATUS": "IN SERVICE", "COUNTY": "RIO BLANCO", "COUNTYFIPS": "08103", "COUNTRY": "USA", "LATITUDE": 39.898463, "LONGITUDE": -108.191171, "NAICS_CODE": "486210", "NAICS_DESC": "BOOSTER PUMPING STATION, NATURAL GAS TRANSPORTATION", "SOURCE": "EPA ENVIROFACTS, FERC FORM 2, CORPORATE WEBSITE", "SOURCEDATE": "Wed, 15 Jul 2020 00:00:00 GMT", "VAL_METHOD": "IMAGERY/OTHER", "VAL_DATE": "Tue, 07 Jun 2022 00:00:00 GMT", "WEBSITE": "http://www.questarpipeline.com/", "PIPECO": "QUESTAR PIPELINE COMPANY", "COMPID": "55", "OPERATOR": "QUESTAR PIPELINE COMPANY", "POSREL": "WITHIN 40 FEET", "NUM_UNITS": 2, "CERT_HP": 7100, "PLANT_COST": 24024015, "EXP_FUEL": 35290, "EXP_OTHER": 238495, "GAS_COMPRE": 14825, "OP_COMP_HR": 1042, "OP_NUM_COM": 2, "OP_DATE_PE": "Wed, 25 Apr 2012 00:00:00 GMT", "EXP_POWER": 0, "ELEC_COMPR": 0 }, "geometry": { "type": "Point", "coordinates": [ -108.191171, 39.898463 ] } },
{ "type": "Feature", "properties": { "OBJECTID": 237, "GCOMPID": "GCOMP1211", "NAME": "UTAH - CLAY BASIN PARK AND LOAN", "ADDRESS": "OFF JUG HOLLOW ROAD/ WEST OF HIGHWAY 191", "CITY": "DUTCH JOHN", "STATE": "UT", "ZIP": "84023", "ZIP4": "NOT AVAILABLE", "TYPE": "NATURAL GAS COMPRESSOR STATION", "STATUS": "IN SERVICE", "COUNTY": "DAGGETT", "COUNTYFIPS": "49009", "COUNTRY": "USA", "LATITUDE": 40.970639, "LONGITUDE": -109.470908, "NAICS_CODE": "486210", "NAICS_DESC": "BOOSTER PUMPING STATION, NATURAL GAS TRANSPORTATION", "SOURCE": "EPA ENVIROFACTS, FERC FORM 2, CORPORATE WEBSITE", "SOURCEDATE": "Wed, 15 Jul 2020 00:00:00 GMT", "VAL_METHOD": "IMAGERY/OTHER", "VAL_DATE": "Sat, 18 Jun 2022 00:00:00 GMT", "WEBSITE": "http://www.questarpipeline.com/", "PIPECO": "QUESTAR PIPELINE COMPANY", "COMPID": "55", "OPERATOR": "QUESTAR PIPELINE COMPANY", "POSREL": "WITHIN 40 FEET", "NUM_UNITS": 1, "CERT_HP": 1680, "PLANT_COST": 3954703, "EXP_FUEL": 17211, "EXP_OTHER": 47429, "GAS_COMPRE": 5307, "OP_COMP_HR": 83, "OP_NUM_COM": 0, "OP_DATE_PE": "Tue, 27 Nov 2012 00:00:00 GMT", "EXP_POWER": 0, "ELEC_COMPR": 0 }, "geometry": { "type": "Point", "coordinates": [ -109.470908, 40.970639 ] } },
{ "type": "Feature", "properties": { "OBJECTID": 315, "GCOMPID": "GCOMP1282", "NAME": "WYOMING - SOUTH BAXTER", "ADDRESS": "S BAXTER CAMP ROAD/S BAXTER ROAD; SEC 16 TWN16N RANGE 104W", "CITY": "ROCK SPRINGS", "STATE": "WY", "ZIP": "82901", "ZIP4": "NOT AVAILABLE", "TYPE": "NATURAL GAS COMPRESSOR STATION", "STATUS": "IN SERVICE", "COUNTY": "SWEETWATER", "COUNTYFIPS": "56037", "COUNTRY": "USA", "LATITUDE": 41.364814, "LONGITUDE": -109.121209, "NAICS_CODE": "486210", "NAICS_DESC": "BOOSTER PUMPING STATION, NATURAL GAS TRANSPORTATION", "SOURCE": "EPA ENVIROFACTS, FERC FORM 2, CORPORATE WEBSITE", "SOURCEDATE": "Wed, 30 Sep 2015 00:00:00 GMT", "VAL_METHOD": "IMAGERY/OTHER", "VAL_DATE": "Fri, 17 Jun 2022 00:00:00 GMT", "WEBSITE": "http://www.questarpipeline.com/", "PIPECO": "QUESTAR PIPELINE COMPANY", "COMPID": "55", "OPERATOR": "QUESTAR PIPELINE COMPANY", "POSREL": "WITHIN 40 FEET", "NUM_UNITS": 3, "CERT_HP": 1040, "PLANT_COST": 19761, "EXP_FUEL": 0, "EXP_OTHER": 3419, "GAS_COMPRE": 0, "OP_COMP_HR": 0, "OP_NUM_COM": 0, "OP_DATE_PE": "Wed, 19 Aug 2020 00:00:00 GMT", "EXP_POWER": 0, "ELEC_COMPR": 0 }, "geometry": { "type": "Point", "coordinates": [ -109.121209, 41.364814000000102 ] } },
{ "type": "Feature", "properties": { "OBJECTID": 392, "GCOMPID": "GCOMP1351", "NAME": "UTAH - KASTLER DEW POINT PLT FG", "ADDRESS": "WELL ROAD 430093001565", "CITY": "DUTCH JOHN", "STATE": "UT", "ZIP": "84023", "ZIP4": "NOT AVAILABLE", "TYPE": "NATURAL GAS COMPRESSOR STATION", "STATUS": "IN SERVICE", "COUNTY": "DAGGETT", "COUNTYFIPS": "49009", "COUNTRY": "USA", "LATITUDE": 40.984172, "LONGITUDE": -109.217152, "NAICS_CODE": "486210", "NAICS_DESC": "BOOSTER PUMPING STATION, NATURAL GAS TRANSPORTATION", "SOURCE": "EPA ENVIROFACTS, FERC FORM 2, CORPORATE WEBSITE", "SOURCEDATE": "Fri, 11 Sep 2015 00:00:00 GMT", "VAL_METHOD": "IMAGERY/OTHER", "VAL_DATE": "Fri, 17 Jun 2022 00:00:00 GMT", "WEBSITE": "http://www.questarpipeline.com/", "PIPECO": "QUESTAR PIPELINE COMPANY", "COMPID": "55", "OPERATOR": "QUESTAR PIPELINE COMPANY", "POSREL": "WITHIN 40 FEET", "NUM_UNITS": 2, "CERT_HP": 1200, "PLANT_COST": 19805709, "EXP_FUEL": 21347, "EXP_OTHER": 133323, "GAS_COMPRE": 8172, "OP_COMP_HR": 2813, "OP_NUM_COM": 1, "OP_DATE_PE": "Thu, 23 Feb 2012 00:00:00 GMT", "EXP_POWER": 0, "ELEC_COMPR": 0 }, "geometry": { "type": "Point", "coordinates": [ -109.217152, 40.9841720000001 ] } },
{ "type": "Feature", "properties": { "OBJECTID": 407, "GCOMPID": "GCOMP1365", "NAME": "WYOMING - SKULL CREEK", "ADDRESS": "WY-62/61 MILES SE OF ROCK SPRINGS; SEC 14,T12N,R97W", "CITY": "ROCK SPRINGS", "STATE": "WY", "ZIP": "82902", "ZIP4": "NOT AVAILABLE", "TYPE": "NATURAL GAS COMPRESSOR STATION", "STATUS": "IN SERVICE", "COUNTY": "SWEETWATER", "COUNTYFIPS": "56037", "COUNTRY": "USA", "LATITUDE": 41.011440215999997, "LONGITUDE": -108.298083085, "NAICS_CODE": "486210", "NAICS_DESC": "BOOSTER PUMPING STATION, NATURAL GAS TRANSPORTATION", "SOURCE": "FERC FORM 2, CORPORATE WEBSITE", "SOURCEDATE": "Fri, 11 Sep 2015 00:00:00 GMT", "VAL_METHOD": "IMAGERY/OTHER", "VAL_DATE": "Fri, 17 Jun 2022 00:00:00 GMT", "WEBSITE": "http://www.questarpipeline.com/", "PIPECO": "QUESTAR PIPELINE COMPANY", "COMPID": "55", "OPERATOR": "QUESTAR PIPELINE COMPANY", "POSREL": "WITHIN 40 FEET", "NUM_UNITS": 2, "CERT_HP": 2464, "PLANT_COST": 3771210, "EXP_FUEL": 22734, "EXP_OTHER": 181308, "GAS_COMPRE": 8932, "OP_COMP_HR": 0, "OP_NUM_COM": 0, "OP_DATE_PE": "Wed, 15 Jul 2020 00:00:00 GMT", "EXP_POWER": 0, "ELEC_COMPR": 0 }, "geometry": { "type": "Point", "coordinates": [ -108.298083085, 41.011440216 ] } },
{ "type": "Feature", "properties": { "OBJECTID": 596, "GCOMPID": "GCOMP304", "NAME": "WYOMING - SIMON", "ADDRESS": "2 MILES EAST OF WY-430", "CITY": "ROCK SPRINGS", "STATE": "WY", "ZIP": "82902", "ZIP4": "NOT AVAILABLE", "TYPE": "NATURAL GAS COMPRESSOR STATION", "STATUS": "IN SERVICE", "COUNTY": "SWEETWATER", "COUNTYFIPS": "56037", "COUNTRY": "USA", "LATITUDE": 41.0586123243515, "LONGITUDE": -108.761647233895, "NAICS_CODE": "486210", "NAICS_DESC": "BOOSTER PUMPING STATION, NATURAL GAS TRANSPORTATION", "SOURCE": "FERC FORM 2, CORPORATE WEBSITE", "SOURCEDATE": "Wed, 15 Jul 2020 00:00:00 GMT", "VAL_METHOD": "IMAGERY/OTHER", "VAL_DATE": "Fri, 24 Jun 2022 00:00:00 GMT", "WEBSITE": "http://www.questarpipeline.com/", "PIPECO": "QUESTAR PIPELINE COMPANY", "COMPID": "55", "OPERATOR": "QUESTAR PIPELINE COMPANY", "POSREL": "WITHIN 40 FEET", "NUM_UNITS": 1, "CERT_HP": 3350, "PLANT_COST": 1948979, "EXP_FUEL": 0, "EXP_OTHER": 169559, "GAS_COMPRE": 0, "OP_COMP_HR": 7065, "OP_NUM_COM": 1, "OP_DATE_PE": "Sun, 04 Nov 2012 00:00:00 GMT", "EXP_POWER": 0, "ELEC_COMPR": 0 }, "geometry": { "type": "Point", "coordinates": [ -108.761647234, 41.058612324000102 ] } },
{ "type": "Feature", "properties": { "OBJECTID": 597, "GCOMPID": "GCOMP305", "NAME": "WYOMING - COLEMAN", "ADDRESS": "2.5 MILE S. OF I-80 ON HIGHWAY 191; I-80 AND HIGHWAY 191 SOUTH --> SIDE STREET FROM 50262 US-191", "CITY": "GREEN RIVER", "STATE": "WY", "ZIP": "82935", "ZIP4": "NOT AVAILABLE", "TYPE": "NATURAL GAS COMPRESSOR STATION", "STATUS": "IN SERVICE", "COUNTY": "SWEETWATER", "COUNTYFIPS": "56037", "COUNTRY": "USA", "LATITUDE": 41.524031, "LONGITUDE": -109.319129, "NAICS_CODE": "486210", "NAICS_DESC": "BOOSTER PUMPING STATION, NATURAL GAS TRANSPORTATION", "SOURCE": "EPA ENVIROFACTS, FERC FORM 2, CORPORATE WEBSITE", "SOURCEDATE": "Wed, 15 Jul 2020 00:00:00 GMT", "VAL_METHOD": "IMAGERY/OTHER", "VAL_DATE": "Fri, 17 Jun 2022 00:00:00 GMT", "WEBSITE": "http://www.questarpipeline.com/", "PIPECO": "QUESTAR PIPELINE COMPANY", "COMPID": "55", "OPERATOR": "QUESTAR PIPELINE COMPANY", "POSREL": "WITHIN 40 FEET", "NUM_UNITS": 2, "CERT_HP": 6530, "PLANT_COST": 20188341, "EXP_FUEL": 682470, "EXP_OTHER": 450968, "GAS_COMPRE": 263106, "OP_COMP_HR": 8819, "OP_NUM_COM": 2, "OP_DATE_PE": "Sat, 12 May 2012 00:00:00 GMT", "EXP_POWER": 0, "ELEC_COMPR": 0 }, "geometry": { "type": "Point", "coordinates": [ -109.319129, 41.524031 ] } },
{ "type": "Feature", "properties": { "OBJECTID": 598, "GCOMPID": "GCOMP306", "NAME": "WYOMING - KANDA", "ADDRESS": "2.5 MILE S. OF I-80 ON HIGHWAY 191; I-80 AND HIGHWAY 191 SOUTH --> SIDE STREET FROM 50262 US-191", "CITY": "GREEN RIVER", "STATE": "WY", "ZIP": "82935", "ZIP4": "NOT AVAILABLE", "TYPE": "NATURAL GAS COMPRESSOR STATION", "STATUS": "IN SERVICE", "COUNTY": "SWEETWATER", "COUNTYFIPS": "56037", "COUNTRY": "USA", "LATITUDE": 41.521451, "LONGITUDE": -109.311286, "NAICS_CODE": "486210", "NAICS_DESC": "BOOSTER PUMPING STATION, NATURAL GAS TRANSPORTATION", "SOURCE": "EPA ENVIROFACTS, FERC FORM 2, CORPORATE WEBSITE", "SOURCEDATE": "Wed, 15 Jul 2020 00:00:00 GMT", "VAL_METHOD": "IMAGERY/OTHER", "VAL_DATE": "Fri, 17 Jun 2022 00:00:00 GMT", "WEBSITE": "http://www.questarpipeline.com/", "PIPECO": "QUESTAR PIPELINE COMPANY", "COMPID": "55", "OPERATOR": "QUESTAR PIPELINE COMPANY", "POSREL": "WITHIN 40 FEET", "NUM_UNITS": 4, "CERT_HP": 7160, "PLANT_COST": 9781764, "EXP_FUEL": 538889, "EXP_OTHER": 136434, "GAS_COMPRE": 209128, "OP_COMP_HR": 8019, "OP_NUM_COM": 4, "OP_DATE_PE": "Fri, 11 May 2012 00:00:00 GMT", "EXP_POWER": 0, "ELEC_COMPR": 0 }, "geometry": { "type": "Point", "coordinates": [ -109.311286, 41.521451 ] } },
{ "type": "Feature", "properties": { "OBJECTID": 599, "GCOMPID": "GCOMP307", "NAME": "WYOMING - NIGHTINGALE", "ADDRESS": "2.5 MILE S. OF I-80 ON HIGHWAY 191; I-80 AND HIGHWAY 191 SOUTH --> SIDE STREET FROM 50262 US-191", "CITY": "GREEN RIVER", "STATE": "WY", "ZIP": "82935", "ZIP4": "NOT AVAILABLE", "TYPE": "NATURAL GAS COMPRESSOR STATION", "STATUS": "IN SERVICE", "COUNTY": "SWEETWATER", "COUNTYFIPS": "56037", "COUNTRY": "USA", "LATITUDE": 41.522621, "LONGITUDE": -109.319475, "NAICS_CODE": "486210", "NAICS_DESC": "BOOSTER PUMPING STATION, NATURAL GAS TRANSPORTATION", "SOURCE": "EPA ENVIROFACTS, FERC FORM 2, CORPORATE WEBSITE", "SOURCEDATE": "Wed, 15 Jul 2020 00:00:00 GMT", "VAL_METHOD": "IMAGERY/OTHER", "VAL_DATE": "Fri, 17 Jun 2022 00:00:00 GMT", "WEBSITE": "http://www.questarpipeline.com/", "PIPECO": "QUESTAR PIPELINE COMPANY", "COMPID": "55", "OPERATOR": "QUESTAR PIPELINE COMPANY", "POSREL": "WITHIN 40 FEET", "NUM_UNITS": 3, "CERT_HP": 6140, "PLANT_COST": 8771977, "EXP_FUEL": 965071, "EXP_OTHER": 305824, "GAS_COMPRE": 366268, "OP_COMP_HR": 16578, "OP_NUM_COM": 3, "OP_DATE_PE": "Thu, 03 May 2012 00:00:00 GMT", "EXP_POWER": 0, "ELEC_COMPR": 0 }, "geometry": { "type": "Point", "coordinates": [ -109.319475, 41.5226210000001 ] } },
{ "type": "Feature", "properties": { "OBJECTID": 703, "GCOMPID": "GCOMP400", "NAME": "UTAH - BLIND CANYON", "ADDRESS": "24 MILES SE OF DUCHESNE", "CITY": "DUCHESNE", "STATE": "UT", "ZIP": "84021", "ZIP4": "NOT AVAILABLE", "TYPE": "NATURAL GAS COMPRESSOR STATION", "STATUS": "IN SERVICE", "COUNTY": "DUCHESNE", "COUNTYFIPS": "49013", "COUNTRY": "USA", "LATITUDE": 39.847908, "LONGITUDE": -110.205913, "NAICS_CODE": "486210", "NAICS_DESC": "BOOSTER PUMPING STATION, NATURAL GAS TRANSPORTATION", "SOURCE": "FERC FORM 2, CORPORATE WEBSITE", "SOURCEDATE": "Wed, 15 Jul 2020 00:00:00 GMT", "VAL_METHOD": "IMAGERY/OTHER", "VAL_DATE": "Fri, 17 Jun 2022 00:00:00 GMT", "WEBSITE": "http://www.questarpipeline.com/", "PIPECO": "QUESTAR PIPELINE COMPANY", "COMPID": "55", "OPERATOR": "QUESTAR PIPELINE COMPANY", "POSREL": "WITHIN 40 FEET", "NUM_UNITS": 2, "CERT_HP": 11878, "PLANT_COST": 25877633, "EXP_FUEL": 891418, "EXP_OTHER": 300272, "GAS_COMPRE": 342210, "OP_COMP_HR": 8822, "OP_NUM_COM": 2, "OP_DATE_PE": "Fri, 09 Mar 2012 00:00:00 GMT", "EXP_POWER": 0, "ELEC_COMPR": 0 }, "geometry": { "type": "Point", "coordinates": [ -110.205913, 39.847908000000103 ] } },
{ "type": "Feature", "properties": { "OBJECTID": 763, "GCOMPID": "GCOMP455", "NAME": "UTAH - FIDLAR", "ADDRESS": "28637 S GLEN BENCH ROAD", "CITY": "VERNAL", "STATE": "UT", "ZIP": "84078", "ZIP4": "NOT AVAILABLE", "TYPE": "NATURAL GAS COMPRESSOR STATION", "STATUS": "IN SERVICE", "COUNTY": "UINTAH", "COUNTYFIPS": "49047", "COUNTRY": "USA", "LATITUDE": 40.040203874, "LONGITUDE": -109.45594752300001, "NAICS_CODE": "486210", "NAICS_DESC": "BOOSTER PUMPING STATION, NATURAL GAS TRANSPORTATION", "SOURCE": "EPA ENVIROFACTS, FERC FORM 2, CORPORATE WEBSITE", "SOURCEDATE": "Wed, 15 Jul 2020 00:00:00 GMT", "VAL_METHOD": "IMAGERY/OTHER", "VAL_DATE": "Fri, 17 Jun 2022 00:00:00 GMT", "WEBSITE": "http://www.questarpipeline.com/", "PIPECO": "QUESTAR PIPELINE COMPANY", "COMPID": "55", "OPERATOR": "QUESTAR PIPELINE COMPANY", "POSREL": "WITHIN 40 FEET", "NUM_UNITS": 5, "CERT_HP": 37300, "PLANT_COST": 210518724, "EXP_FUEL": 2509688, "EXP_OTHER": 0, "GAS_COMPRE": 1195819, "OP_COMP_HR": 14380, "OP_NUM_COM": 0, "OP_DATE_PE": "Mon, 12 Nov 2012 00:00:00 GMT", "EXP_POWER": 0, "ELEC_COMPR": 0 }, "geometry": { "type": "Point", "coordinates": [ -109.455947523, 40.040203874 ] } },
{ "type": "Feature", "properties": { "OBJECTID": 820, "GCOMPID": "GCOMP506", "NAME": "UTAH - PRICE DEWPOINT PLANT", "ADDRESS": "320 W 1100 N", "CITY": "PRICE", "STATE": "UT", "ZIP": "84501", "ZIP4": "NOT AVAILABLE", "TYPE": "NATURAL GAS COMPRESSOR STATION", "STATUS": "IN SERVICE", "COUNTY": "CARBON", "COUNTYFIPS": "49007", "COUNTRY": "USA", "LATITUDE": 39.617492524, "LONGITUDE": -110.82113335, "NAICS_CODE": "486210", "NAICS_DESC": "BOOSTER PUMPING STATION, NATURAL GAS TRANSPORTATION", "SOURCE": "EPA ENVIROFACTS, FERC FORM 2, CORPORATE WEBSITE", "SOURCEDATE": "Wed, 15 Jul 2020 00:00:00 GMT", "VAL_METHOD": "IMAGERY/OTHER", "VAL_DATE": "Fri, 17 Jun 2022 00:00:00 GMT", "WEBSITE": "http://www.questarpipeline.com/", "PIPECO": "QUESTAR PIPELINE COMPANY", "COMPID": "55", "OPERATOR": "QUESTAR PIPELINE COMPANY", "POSREL": "WITHIN 40 FEET", "NUM_UNITS": 4, "CERT_HP": 45400, "PLANT_COST": 127350667, "EXP_FUEL": 1802108, "EXP_OTHER": 0, "GAS_COMPRE": 778108, "OP_COMP_HR": 9046, "OP_NUM_COM": 0, "OP_DATE_PE": "Sat, 03 Nov 2012 00:00:00 GMT", "EXP_POWER": 0, "ELEC_COMPR": 0 }, "geometry": { "type": "Point", "coordinates": [ -110.82113335, 39.617492524000099 ] } },
{ "type": "Feature", "properties": { "OBJECTID": 1068, "GCOMPID": "GCOMP731", "NAME": "UTAH - CASH (WAS COALVILLE) (UNDERGROUND STORAGE)", "ADDRESS": "599 BORDER STATION ROAD", "CITY": "COALVILLE", "STATE": "UT", "ZIP": "84017", "ZIP4": "NOT AVAILABLE", "TYPE": "NATURAL GAS COMPRESSOR STATION", "STATUS": "IN SERVICE", "COUNTY": "SUMMIT", "COUNTYFIPS": "49043", "COUNTRY": "USA", "LATITUDE": 40.913908100999997, "LONGITUDE": -111.368408872, "NAICS_CODE": "486210", "NAICS_DESC": "BOOSTER PUMPING STATION, NATURAL GAS TRANSPORTATION", "SOURCE": "EPA ENVIROFACTS, FERC FORM 2, CORPORATE WEBSITE", "SOURCEDATE": "Wed, 15 Jul 2020 00:00:00 GMT", "VAL_METHOD": "IMAGERY/OTHER", "VAL_DATE": "Fri, 17 Jun 2022 00:00:00 GMT", "WEBSITE": "http://www.questarpipeline.com/", "PIPECO": "QUESTAR PIPELINE COMPANY", "COMPID": "55", "OPERATOR": "QUESTAR PIPELINE COMPANY", "POSREL": "WITHIN 40 FEET", "NUM_UNITS": 1, "CERT_HP": 1600, "PLANT_COST": 5236104, "EXP_FUEL": 68939, "EXP_OTHER": 114907, "GAS_COMPRE": 25899, "OP_COMP_HR": 2039, "OP_NUM_COM": 0, "OP_DATE_PE": "Mon, 10 Dec 2012 00:00:00 GMT", "EXP_POWER": 0, "ELEC_COMPR": 0 }, "geometry": { "type": "Point", "coordinates": [ -111.368408872, 40.913908101000096 ] } },
{ "type": "Feature", "properties": { "OBJECTID": 1080, "GCOMPID": "GCOMP742", "NAME": "COLORADO - RIFLE", "ADDRESS": "613 COUNTY ROAD 264", "CITY": "RIFLE", "STATE": "CO", "ZIP": "81650", "ZIP4": "NOT AVAILABLE", "TYPE": "NATURAL GAS COMPRESSOR STATION", "STATUS": "IN SERVICE", "COUNTY": "GARFIELD", "COUNTYFIPS": "08045", "COUNTRY": "USA", "LATITUDE": 39.532844077, "LONGITUDE": -107.833804567, "NAICS_CODE": "486210", "NAICS_DESC": "BOOSTER PUMPING STATION, NATURAL GAS TRANSPORTATION", "SOURCE": "FERC FORM 2, CORPORATE WEBSITE", "SOURCEDATE": "Wed, 15 Jul 2020 00:00:00 GMT", "VAL_METHOD": "IMAGERY/OTHER", "VAL_DATE": "Fri, 17 Jun 2022 00:00:00 GMT", "WEBSITE": "http://www.questarpipeline.com/", "PIPECO": "QUESTAR PIPELINE COMPANY", "COMPID": "55", "OPERATOR": "QUESTAR PIPELINE COMPANY", "POSREL": "WITHIN 40 FEET", "NUM_UNITS": 2, "CERT_HP": 650, "PLANT_COST": 1038984, "EXP_FUEL": 0, "EXP_OTHER": 10473, "GAS_COMPRE": 0, "OP_COMP_HR": 0, "OP_NUM_COM": 0, "OP_DATE_PE": "Wed, 15 Jul 2020 00:00:00 GMT", "EXP_POWER": 0, "ELEC_COMPR": 0 }, "geometry": { "type": "Point", "coordinates": [ -107.833804567, 39.532844077 ] } },
{ "type": "Feature", "properties": { "OBJECTID": 1320, "GCOMPID": "GCOMP959", "NAME": "UTAH - KASTLER", "ADDRESS": "CLAY BASIN ROAD/WELL ROAD 4300915627", "CITY": "DUTCH JOHN", "STATE": "UT", "ZIP": "84023", "ZIP4": "NOT AVAILABLE", "TYPE": "NATURAL GAS COMPRESSOR STATION", "STATUS": "IN SERVICE", "COUNTY": "DAGGETT", "COUNTYFIPS": "49009", "COUNTRY": "USA", "LATITUDE": 40.991506, "LONGITUDE": -109.212842, "NAICS_CODE": "486210", "NAICS_DESC": "BOOSTER PUMPING STATION, NATURAL GAS TRANSPORTATION", "SOURCE": "FERC FORM 2, CORPORATE WEBSITE, IMAGERY", "SOURCEDATE": "Wed, 15 Jul 2020 00:00:00 GMT", "VAL_METHOD": "IMAGERY/OTHER", "VAL_DATE": "Fri, 17 Jun 2022 00:00:00 GMT", "WEBSITE": "http://www.questarpipeline.com/", "PIPECO": "QUESTAR PIPELINE COMPANY", "COMPID": "55", "OPERATOR": "QUESTAR PIPELINE COMPANY", "POSREL": "WITHIN 40 FEET", "NUM_UNITS": 8, "CERT_HP": 32500, "PLANT_COST": 64130747, "EXP_FUEL": 3269972, "EXP_OTHER": 1898941, "GAS_COMPRE": 1275785, "OP_COMP_HR": 18730, "OP_NUM_COM": 0, "OP_DATE_PE": "Tue, 27 Nov 2012 00:00:00 GMT", "EXP_POWER": 0, "ELEC_COMPR": 0 }, "geometry": { "type": "Point", "coordinates": [ -109.212842, 40.991506000000101 ] } },
{ "type": "Feature", "properties": { "OBJECTID": 1342, "GCOMPID": "GCOMP979", "NAME": "UTAH - MAIN LINE 104 (LOCATED AT OAK SPRING) 2&3", "ADDRESS": "CONSUMERS ROAD; 6.5 MILES WEST OF SPRING GLEN", "CITY": "HELPER", "STATE": "UT", "ZIP": "84526", "ZIP4": "NOT AVAILABLE", "TYPE": "NATURAL GAS COMPRESSOR STATION", "STATUS": "IN SERVICE", "COUNTY": "CARBON", "COUNTYFIPS": "49007", "COUNTRY": "USA", "LATITUDE": 39.653286762999997, "LONGITUDE": -110.979640684, "NAICS_CODE": "486210", "NAICS_DESC": "BOOSTER PUMPING STATION, NATURAL GAS TRANSPORTATION", "SOURCE": "FERC FORM 2, CORPORATE WEBSITE", "SOURCEDATE": "Wed, 15 Jul 2020 00:00:00 GMT", "VAL_METHOD": "IMAGERY/OTHER", "VAL_DATE": "Fri, 17 Jun 2022 00:00:00 GMT", "WEBSITE": "http://www.questarpipeline.com/", "PIPECO": "QUESTAR PIPELINE COMPANY", "COMPID": "55", "OPERATOR": "QUESTAR PIPELINE COMPANY", "POSREL": "WITHIN 40 FEET", "NUM_UNITS": 2, "CERT_HP": 15600, "PLANT_COST": 13850940, "EXP_FUEL": 2251371, "EXP_OTHER": 373771, "GAS_COMPRE": 867864, "OP_COMP_HR": 16910, "OP_NUM_COM": 2, "OP_DATE_PE": "Tue, 17 Jan 2012 00:00:00 GMT", "EXP_POWER": 0, "ELEC_COMPR": 0 }, "geometry": { "type": "Point", "coordinates": [ -110.979640684, 39.653286763 ] } },
{ "type": "Feature", "properties": { "OBJECTID": 1344, "GCOMPID": "GCOMP980", "NAME": "UTAH - OAK SPRING 1", "ADDRESS": "CONSUMERS ROAD; 6.5 MILES WEST OF SPRING GLEN", "CITY": "HELPER", "STATE": "UT", "ZIP": "84526", "ZIP4": "NOT AVAILABLE", "TYPE": "NATURAL GAS COMPRESSOR STATION", "STATUS": "IN SERVICE", "COUNTY": "CARBON", "COUNTYFIPS": "49007", "COUNTRY": "USA", "LATITUDE": 39.6533, "LONGITUDE": -110.9801, "NAICS_CODE": "486210", "NAICS_DESC": "BOOSTER PUMPING STATION, NATURAL GAS TRANSPORTATION", "SOURCE": "EPA ENVIROFACTS, FERC FORM 2, CORPORATE WEBSITE", "SOURCEDATE": "Wed, 15 Jul 2020 00:00:00 GMT", "VAL_METHOD": "IMAGERY/OTHER", "VAL_DATE": "Fri, 17 Jun 2022 00:00:00 GMT", "WEBSITE": "http://www.questarpipeline.com/", "PIPECO": "QUESTAR PIPELINE COMPANY", "COMPID": "55", "OPERATOR": "QUESTAR PIPELINE COMPANY", "POSREL": "WITHIN 40 FEET", "NUM_UNITS": 1, "CERT_HP": 5939, "PLANT_COST": 18971450, "EXP_FUEL": 961461, "EXP_OTHER": 139592, "GAS_COMPRE": 371623, "OP_COMP_HR": 8690, "OP_NUM_COM": 1, "OP_DATE_PE": "Thu, 20 Dec 2012 00:00:00 GMT", "EXP_POWER": 0, "ELEC_COMPR": 0 }, "geometry": { "type": "Point", "coordinates": [ -110.9801, 39.653300000000101 ] } },
{ "type": "Feature", "properties": { "OBJECTID": 1360, "GCOMPID": "GCOMP995", "NAME": "COLORADO - STATE LINE", "ADDRESS": "COUNTY ROAD 21N; SEC 21 T12N R95W", "CITY": "MAYBELL", "STATE": "CO", "ZIP": "81640", "ZIP4": "NOT AVAILABLE", "TYPE": "NATURAL GAS COMPRESSOR STATION", "STATUS": "IN SERVICE", "COUNTY": "MOFFAT", "COUNTYFIPS": "08081", "COUNTRY": "USA", "LATITUDE": 40.991170725000003, "LONGITUDE": -108.073787564, "NAICS_CODE": "486210", "NAICS_DESC": "BOOSTER PUMPING STATION, NATURAL GAS TRANSPORTATION", "SOURCE": "EPA ENVIROFACTS, FERC FORM 2, CORPORATE WEBSITE", "SOURCEDATE": "Wed, 15 Jul 2020 00:00:00 GMT", "VAL_METHOD": "IMAGERY/OTHER", "VAL_DATE": "Thu, 19 May 2022 00:00:00 GMT", "WEBSITE": "http://www.questarpipeline.com/", "PIPECO": "QUESTAR PIPELINE COMPANY", "COMPID": "55", "OPERATOR": "QUESTAR PIPELINE COMPANY", "POSREL": "WITHIN 40 FEET", "NUM_UNITS": 1, "CERT_HP": 1085, "PLANT_COST": 1073119, "EXP_FUEL": 686986, "EXP_OTHER": 65438, "GAS_COMPRE": 263671, "OP_COMP_HR": 20, "OP_NUM_COM": 0, "OP_DATE_PE": null, "EXP_POWER": 0, "ELEC_COMPR": 0 }, "geometry": { "type": "Point", "coordinates": [ -108.073787564, 40.991170725000103 ] } },
{ "type": "Feature", "properties": { "OBJECTID": null, "GCOMPID": null, "NAME": null, "ADDRESS": null, "CITY": null, "STATE": null, "ZIP": null, "ZIP4": null, "TYPE": null, "STATUS": null, "COUNTY": null, "COUNTYFIPS": null, "COUNTRY": null, "LATITUDE": null, "LONGITUDE": null, "NAICS_CODE": null, "NAICS_DESC": null, "SOURCE": null, "SOURCEDATE": null, "VAL_METHOD": null, "VAL_DATE": null, "WEBSITE": null, "PIPECO": null, "COMPID": null, "OPERATOR": null, "POSREL": null, "NUM_UNITS": null, "CERT_HP": null, "PLANT_COST": null, "EXP_FUEL": null, "EXP_OTHER": null, "GAS_COMPRE": null, "OP_COMP_HR": null, "OP_NUM_COM": null, "OP_DATE_PE": null, "EXP_POWER": null, "ELEC_COMPR": null }, "geometry": { "type": "Point", "coordinates": [ -110.362596583780189, 41.691695474502552 ] } }
]
}
