{
"type": "FeatureCollection",
"name": "P6895-compressor-stations",
"crs": { "type": "name", "properties": { "name": "urn:ogc:def:crs:OGC:1.3:CRS84" } },
"features": [
{ "type": "Feature", "properties": { "OBJECTID": 36, "GCOMPID": "GCOMP103", "NAME": "MOUNT MORRIS", "ADDRESS": "1182-US-19", "CITY": "MOUNT MORRIS", "STATE": "PA", "ZIP": "15349", "ZIP4": "NOT AVAILABLE", "TYPE": "NATURAL GAS COMPRESSOR STATION", "STATUS": "IN SERVICE", "COUNTY": "GREENE", "COUNTYFIPS": "42059", "COUNTRY": "USA", "LATITUDE": 39.8137692, "LONGITUDE": -80.117074071999994, "NAICS_CODE": "486210", "NAICS_DESC": "BOOSTER PUMPING STATION, NATURAL GAS TRANSPORTATION", "SOURCE": "FERC FORM 2, CORPORATE WEBSITE", "SOURCEDATE": "Wed, 15 Jul 2020 00:00:00 GMT", "VAL_METHOD": "IMAGERY/OTHER", "VAL_DATE": "Fri, 17 Jun 2022 00:00:00 GMT", "WEBSITE": "https://www.equitransmidstream.com/", "PIPECO": "EQUITRANS L.P.", "COMPID": "24", "OPERATOR": "EQUITRANS L.P.", "POSREL": "WITHIN 40 FEET", "NUM_UNITS": 2, "CERT_HP": 220, "PLANT_COST": 665946, "EXP_FUEL": 0, "EXP_OTHER": 0, "GAS_COMPRE": 0, "OP_COMP_HR": 0, "OP_NUM_COM": 0, "OP_DATE_PE": "Wed, 18 Mar 2020 00:00:00 GMT", "EXP_POWER": 16892, "ELEC_COMPR": 0 }, "geometry": null },
{ "type": "Feature", "properties": { "OBJECTID": 143, "GCOMPID": "GCOMP1127", "NAME": "BURNSVILLE", "ADDRESS": "KANAWHA AND SARTOAGO STS", "CITY": "BURNSVILLE", "STATE": "WV", "ZIP": "26335", "ZIP4": "NOT AVAILABLE", "TYPE": "NATURAL GAS COMPRESSOR STATION", "STATUS": "IN SERVICE", "COUNTY": "BRAXTON", "COUNTYFIPS": "54007", "COUNTRY": "USA", "LATITUDE": 38.8627, "LONGITUDE": -80.658833, "NAICS_CODE": "486210", "NAICS_DESC": "BOOSTER PUMPING STATION, NATURAL GAS TRANSPORTATION", "SOURCE": "EPA ENVIROFACTS, FERC FORM 2, CORPORATE WEBSITE", "SOURCEDATE": "Wed, 15 Jul 2020 00:00:00 GMT", "VAL_METHOD": "IMAGERY/OTHER", "VAL_DATE": "Fri, 17 Jun 2022 00:00:00 GMT", "WEBSITE": "https://www.equitransmidstream.com/", "PIPECO": "EQUITRANS L.P.", "COMPID": "24", "OPERATOR": "EQUITRANS L.P.", "POSREL": "WITHIN 40 FEET", "NUM_UNITS": 3, "CERT_HP": 3300, "PLANT_COST": 8804265, "EXP_FUEL": 406745, "EXP_OTHER": 222692, "GAS_COMPRE": 145272, "OP_COMP_HR": 16434, "OP_NUM_COM": 2, "OP_DATE_PE": "Tue, 18 Sep 2012 00:00:00 GMT", "EXP_POWER": 36111, "ELEC_COMPR": 0 }, "geometry": null },
{ "type": "Feature", "properties": { "OBJECTID": 163, "GCOMPID": "GCOMP1145", "NAME": "CURTISVILLE", "ADDRESS": "LAUREL RUN LEFT/N OF CURTISVILLE PIKE", "CITY": "MANNINGTON", "STATE": "WV", "ZIP": "26582", "ZIP4": "NOT AVAILABLE", "TYPE": "NATURAL GAS COMPRESSOR STATION", "STATUS": "IN SERVICE", "COUNTY": "MARION", "COUNTYFIPS": "54049", "COUNTRY": "USA", "LATITUDE": 39.52353, "LONGITUDE": -80.4398, "NAICS_CODE": "486210", "NAICS_DESC": "BOOSTER PUMPING STATION, NATURAL GAS TRANSPORTATION", "SOURCE": "EPA ENVIROFACTS, FERC FORM 2, CORPORATE WEBSITE", "SOURCEDATE": "Wed, 15 Jul 2020 00:00:00 GMT", "VAL_METHOD": "IMAGERY/OTHER", "VAL_DATE": "Fri, 17 Jun 2022 00:00:00 GMT", "WEBSITE": "https://www.equitransmidstream.com/", "PIPECO": "EQUITRANS L.P.", "COMPID": "24", "OPERATOR": "EQUITRANS L.P.", "POSREL": "WITHIN 40 FEET", "NUM_UNITS": 1, "CERT_HP": 1100, "PLANT_COST": 3355723, "EXP_FUEL": 20635, "EXP_OTHER": 64220, "GAS_COMPRE": 17630, "OP_COMP_HR": 2207, "OP_NUM_COM": 0, "OP_DATE_PE": "Mon, 07 Dec 2020 00:00:00 GMT", "EXP_POWER": 10494, "ELEC_COMPR": 0 }, "geometry": { "type": "Point", "coordinates": [ -80.4398, 39.5235300000001 ] } },
{ "type": "Feature", "properties": { "OBJECTID": 164, "GCOMPID": "GCOMP1146", "NAME": "LEASON", "ADDRESS": "LEASON RUN(WV-19)/SOUTH OF WV-36/4", "CITY": "GREENWOOD", "STATE": "WV", "ZIP": "26415", "ZIP4": "NOT AVAILABLE", "TYPE": "NATURAL GAS COMPRESSOR STATION", "STATUS": "IN SERVICE", "COUNTY": "DODDRIDGE", "COUNTYFIPS": "54017", "COUNTRY": "USA", "LATITUDE": 39.261814776261602, "LONGITUDE": -80.866644472801994, "NAICS_CODE": "486210", "NAICS_DESC": "BOOSTER PUMPING STATION, NATURAL GAS TRANSPORTATION", "SOURCE": "FERC FORM 2, CORPORATE WEBSITE, IMAGERY", "SOURCEDATE": "Wed, 15 Jul 2020 00:00:00 GMT", "VAL_METHOD": "IMAGERY/OTHER", "VAL_DATE": "Fri, 24 Jun 2022 00:00:00 GMT", "WEBSITE": "https://www.equitransmidstream.com/", "PIPECO": "EQUITRANS L.P.", "COMPID": "24", "OPERATOR": "EQUITRANS L.P.", "POSREL": "WITHIN 40 FEET", "NUM_UNITS": 1, "CERT_HP": 140, "PLANT_COST": 238008, "EXP_FUEL": 0, "EXP_OTHER": 0, "GAS_COMPRE": 0, "OP_COMP_HR": 0, "OP_NUM_COM": 0, "OP_DATE_PE": "Sun, 02 Feb 2020 00:00:00 GMT", "EXP_POWER": 861, "ELEC_COMPR": 0 }, "geometry": null },
{ "type": "Feature", "properties": { "OBJECTID": 175, "GCOMPID": "GCOMP1156", "NAME": "GLENVILLE", "ADDRESS": "LITTLE KANAWHA PARWAY (WV-5)", "CITY": "GLENVILLE", "STATE": "WV", "ZIP": "26351", "ZIP4": "1306", "TYPE": "NATURAL GAS COMPRESSOR STATION", "STATUS": "IN SERVICE", "COUNTY": "GILMER", "COUNTYFIPS": "54021", "COUNTRY": "USA", "LATITUDE": 38.939498638942403, "LONGITUDE": -80.820636326862498, "NAICS_CODE": "486210", "NAICS_DESC": "BOOSTER PUMPING STATION, NATURAL GAS TRANSPORTATION", "SOURCE": "FERC FORM 2, IMAGERY", "SOURCEDATE": "Wed, 15 Jul 2020 00:00:00 GMT", "VAL_METHOD": "IMAGERY/OTHER", "VAL_DATE": "Fri, 24 Jun 2022 00:00:00 GMT", "WEBSITE": "https://www.equitransmidstream.com/", "PIPECO": "EQUITRANS L.P.", "COMPID": "24", "OPERATOR": "EQUITRANS L.P.", "POSREL": "WITHIN 40 FEET", "NUM_UNITS": 3, "CERT_HP": 900, "PLANT_COST": 697588, "EXP_FUEL": 135994, "EXP_OTHER": 48741, "GAS_COMPRE": 49641, "OP_COMP_HR": 17440, "OP_NUM_COM": 2, "OP_DATE_PE": "Fri, 27 Jul 2012 00:00:00 GMT", "EXP_POWER": 10383, "ELEC_COMPR": 0 }, "geometry": null },
{ "type": "Feature", "properties": { "OBJECTID": 216, "GCOMPID": "GCOMP1193", "NAME": "LOGANSPORT", "ADDRESS": "NORTH FORK ROAD/MOBLEY RUN", "CITY": "BIG RUN", "STATE": "WV", "ZIP": "26561", "ZIP4": "NOT AVAILABLE", "TYPE": "NATURAL GAS COMPRESSOR STATION", "STATUS": "IN SERVICE", "COUNTY": "WETZEL", "COUNTYFIPS": "54103", "COUNTRY": "USA", "LATITUDE": 39.557174752000002, "LONGITUDE": -80.549888085999996, "NAICS_CODE": "486210", "NAICS_DESC": "BOOSTER PUMPING STATION, NATURAL GAS TRANSPORTATION", "SOURCE": "EPA ENVIROFACTS, FERC FORM 2, CORPORATE WEBSITE", "SOURCEDATE": "Wed, 15 Jul 2020 00:00:00 GMT", "VAL_METHOD": "IMAGERY/OTHER", "VAL_DATE": "Fri, 17 Jun 2022 00:00:00 GMT", "WEBSITE": "https://www.equitransmidstream.com/", "PIPECO": "EQUITRANS L.P.", "COMPID": "24", "OPERATOR": "EQUITRANS L.P.", "POSREL": "WITHIN 40 FEET", "NUM_UNITS": 2, "CERT_HP": 1600, "PLANT_COST": 12903560, "EXP_FUEL": 88, "EXP_OTHER": 2674345, "GAS_COMPRE": 74, "OP_COMP_HR": 1, "OP_NUM_COM": 0, "OP_DATE_PE": "Tue, 05 May 2020 00:00:00 GMT", "EXP_POWER": 4532, "ELEC_COMPR": 0 }, "geometry": { "type": "Point", "coordinates": [ -80.549888086, 39.557174752 ] } },
{ "type": "Feature", "properties": { "OBJECTID": 264, "GCOMPID": "GCOMP1236", "NAME": "RYERSON", "ADDRESS": "PA-3022 (BRISTORIA ROAD)/EAST OF PA-21", "CITY": "WIND RIDGE", "STATE": "PA", "ZIP": "15380", "ZIP4": "NOT AVAILABLE", "TYPE": "NATURAL GAS COMPRESSOR STATION", "STATUS": "IN SERVICE", "COUNTY": "GREENE", "COUNTYFIPS": "42059", "COUNTRY": "USA", "LATITUDE": 39.8916386176233, "LONGITUDE": -80.453363389627796, "NAICS_CODE": "486210", "NAICS_DESC": "BOOSTER PUMPING STATION, NATURAL GAS TRANSPORTATION", "SOURCE": "FERC FORM 2, CORPORATE WEBSITE", "SOURCEDATE": "Wed, 15 Jul 2020 00:00:00 GMT", "VAL_METHOD": "IMAGERY/OTHER", "VAL_DATE": "Fri, 24 Jun 2022 00:00:00 GMT", "WEBSITE": "https://www.equitransmidstream.com/", "PIPECO": "EQUITRANS L.P.", "COMPID": "24", "OPERATOR": "EQUITRANS L.P.", "POSREL": "WITHIN 40 FEET", "NUM_UNITS": 1, "CERT_HP": 41, "PLANT_COST": 127884, "EXP_FUEL": 0, "EXP_OTHER": 271, "GAS_COMPRE": 0, "OP_COMP_HR": 0, "OP_NUM_COM": 0, "OP_DATE_PE": "Wed, 15 Jul 2020 00:00:00 GMT", "EXP_POWER": 20, "ELEC_COMPR": 0 }, "geometry": null },
{ "type": "Feature", "properties": { "OBJECTID": 297, "GCOMPID": "GCOMP1266", "NAME": "PIERCE", "ADDRESS": "ROUNDBOTTOM ROAD AND WV-23", "CITY": "SEDALIA", "STATE": "WV", "ZIP": "26448", "ZIP4": "NOT AVAILABLE", "TYPE": "NATURAL GAS COMPRESSOR STATION", "STATUS": "IN SERVICE", "COUNTY": "DODDRIDGE", "COUNTYFIPS": "54017", "COUNTRY": "USA", "LATITUDE": 39.369917776319902, "LONGITUDE": -80.599611106887295, "NAICS_CODE": "486210", "NAICS_DESC": "BOOSTER PUMPING STATION, NATURAL GAS TRANSPORTATION", "SOURCE": "FERC FORM 2, IMAGERY", "SOURCEDATE": "Wed, 15 Jul 2020 00:00:00 GMT", "VAL_METHOD": "IMAGERY/OTHER", "VAL_DATE": "Fri, 24 Jun 2022 00:00:00 GMT", "WEBSITE": "https://www.equitransmidstream.com/", "PIPECO": "EQUITRANS L.P.", "COMPID": "24", "OPERATOR": "EQUITRANS L.P.", "POSREL": "WITHIN 40 FEET", "NUM_UNITS": 1, "CERT_HP": 140, "PLANT_COST": 600193, "EXP_FUEL": 0, "EXP_OTHER": 0, "GAS_COMPRE": 0, "OP_COMP_HR": 0, "OP_NUM_COM": 0, "OP_DATE_PE": "Wed, 02 Dec 2020 00:00:00 GMT", "EXP_POWER": 817, "ELEC_COMPR": 0 }, "geometry": null },
{ "type": "Feature", "properties": { "OBJECTID": 300, "GCOMPID": "GCOMP1269", "NAME": "HASTINGS", "ADDRESS": "ROUTE 20", "CITY": "PINE GROVE", "STATE": "WV", "ZIP": "26419", "ZIP4": "NOT AVAILABLE", "TYPE": "NATURAL GAS COMPRESSOR STATION", "STATUS": "IN SERVICE", "COUNTY": "WETZEL", "COUNTYFIPS": "54103", "COUNTRY": "USA", "LATITUDE": 39.550351, "LONGITUDE": -80.672869, "NAICS_CODE": "486210", "NAICS_DESC": "BOOSTER PUMPING STATION, NATURAL GAS TRANSPORTATION", "SOURCE": "EPA ENVIROFACTS, FERC FORM 2, CORPORATE WEBSITE", "SOURCEDATE": "Wed, 15 Jul 2020 00:00:00 GMT", "VAL_METHOD": "IMAGERY/OTHER", "VAL_DATE": "Fri, 17 Jun 2022 00:00:00 GMT", "WEBSITE": "https://www.equitransmidstream.com/", "PIPECO": "EQUITRANS L.P.", "COMPID": "24", "OPERATOR": "EQUITRANS L.P.", "POSREL": "WITHIN 40 FEET", "NUM_UNITS": 2, "CERT_HP": 760, "PLANT_COST": 3805754, "EXP_FUEL": 0, "EXP_OTHER": 0, "GAS_COMPRE": 0, "OP_COMP_HR": 0, "OP_NUM_COM": 0, "OP_DATE_PE": "Mon, 01 Jan 2001 00:00:00 GMT", "EXP_POWER": 5144, "ELEC_COMPR": 0 }, "geometry": null },
{ "type": "Feature", "properties": { "OBJECTID": 340, "GCOMPID": "GCOMP1304", "NAME": "ROGERSVILLE", "ADDRESS": "SOUTHEAST OF INTERSECTION W ROY FURMAN HIGHWAY/PARK ROAD", "CITY": "ROGERSVILLE", "STATE": "PA", "ZIP": "15359", "ZIP4": "NOT AVAILABLE", "TYPE": "NATURAL GAS COMPRESSOR STATION", "STATUS": "IN SERVICE", "COUNTY": "GREENE", "COUNTYFIPS": "42059", "COUNTRY": "USA", "LATITUDE": 39.877197, "LONGITUDE": -80.266461, "NAICS_CODE": "486210", "NAICS_DESC": "BOOSTER PUMPING STATION, NATURAL GAS TRANSPORTATION", "SOURCE": "EPA ENVIROFACTS, FERC FORM 2, CORPORATE WEBSITE, IMAGERY", "SOURCEDATE": "Wed, 15 Jul 2020 00:00:00 GMT", "VAL_METHOD": "IMAGERY/OTHER", "VAL_DATE": "Fri, 17 Jun 2022 00:00:00 GMT", "WEBSITE": "https://www.equitransmidstream.com/", "PIPECO": "EQUITRANS L.P.", "COMPID": "24", "OPERATOR": "EQUITRANS L.P.", "POSREL": "WITHIN 40 FEET", "NUM_UNITS": 1, "CERT_HP": -999, "PLANT_COST": -999, "EXP_FUEL": 0, "EXP_OTHER": 0, "GAS_COMPRE": 0, "OP_COMP_HR": 0, "OP_NUM_COM": 0, "OP_DATE_PE": "Sat, 12 Dec 2020 00:00:00 GMT", "EXP_POWER": 0, "ELEC_COMPR": 0 }, "geometry": { "type": "Point", "coordinates": [ -80.266460999999893, 39.877197000000102 ] } },
{ "type": "Feature", "properties": { "OBJECTID": 402, "GCOMPID": "GCOMP1360", "NAME": "CENTRAL", "ADDRESS": "WV-18/SOUTH OF WV 28; NORTH OF OLD US-50", "CITY": "WEST UNION", "STATE": "WV", "ZIP": "26456", "ZIP4": "NOT AVAILABLE", "TYPE": "NATURAL GAS COMPRESSOR STATION", "STATUS": "IN SERVICE", "COUNTY": "DODDRIDGE", "COUNTYFIPS": "54017", "COUNTRY": "USA", "LATITUDE": 39.324178, "LONGITUDE": -80.809179, "NAICS_CODE": "486210", "NAICS_DESC": "BOOSTER PUMPING STATION, NATURAL GAS TRANSPORTATION", "SOURCE": "FERC FORM 2, IMAGERY", "SOURCEDATE": "Wed, 15 Jul 2020 00:00:00 GMT", "VAL_METHOD": "IMAGERY/OTHER", "VAL_DATE": "Fri, 17 Jun 2022 00:00:00 GMT", "WEBSITE": "https://www.equitransmidstream.com/", "PIPECO": "EQUITRANS L.P.", "COMPID": "24", "OPERATOR": "EQUITRANS L.P.", "POSREL": "WITHIN 40 FEET", "NUM_UNITS": 1, "CERT_HP": 600, "PLANT_COST": 588533, "EXP_FUEL": 0, "EXP_OTHER": 13292, "GAS_COMPRE": 0, "OP_COMP_HR": 0, "OP_NUM_COM": 0, "OP_DATE_PE": "Wed, 15 Jul 2020 00:00:00 GMT", "EXP_POWER": 183, "ELEC_COMPR": 0 }, "geometry": { "type": "Point", "coordinates": [ -80.809179, 39.324178000000103 ] } },
{ "type": "Feature", "properties": { "OBJECTID": 404, "GCOMPID": "GCOMP1362", "NAME": "SMITHBURG", "ADDRESS": "WV-50/16 AND SNOWBIRD ROAD", "CITY": "SMITHBURG", "STATE": "WV", "ZIP": "26411", "ZIP4": "NOT AVAILABLE", "TYPE": "NATURAL GAS COMPRESSOR STATION", "STATUS": "IN SERVICE", "COUNTY": "DODDRIDGE", "COUNTYFIPS": "54017", "COUNTRY": "USA", "LATITUDE": 39.282208, "LONGITUDE": -80.734188, "NAICS_CODE": "486210", "NAICS_DESC": "BOOSTER PUMPING STATION, NATURAL GAS TRANSPORTATION", "SOURCE": "FERC FORM 2, IMAGERY", "SOURCEDATE": "Wed, 15 Jul 2020 00:00:00 GMT", "VAL_METHOD": "IMAGERY/OTHER", "VAL_DATE": "Fri, 17 Jun 2022 00:00:00 GMT", "WEBSITE": "https://www.equitransmidstream.com/", "PIPECO": "EQUITRANS L.P.", "COMPID": "24", "OPERATOR": "EQUITRANS L.P.", "POSREL": "WITHIN 40 FEET", "NUM_UNITS": 1, "CERT_HP": 318, "PLANT_COST": 557150, "EXP_FUEL": 0, "EXP_OTHER": 0, "GAS_COMPRE": 0, "OP_COMP_HR": 0, "OP_NUM_COM": 0, "OP_DATE_PE": "Fri, 22 May 2020 00:00:00 GMT", "EXP_POWER": 101, "ELEC_COMPR": 0 }, "geometry": null },
{ "type": "Feature", "properties": { "OBJECTID": 405, "GCOMPID": "GCOMP1363", "NAME": "COMET", "ADDRESS": "WV-8 AND WV-3", "CITY": "FLEMINGTON", "STATE": "WV", "ZIP": "26347", "ZIP4": "NOT AVAILABLE", "TYPE": "NATURAL GAS COMPRESSOR STATION", "STATUS": "IN SERVICE", "COUNTY": "TAYLOR", "COUNTYFIPS": "54091", "COUNTRY": "USA", "LATITUDE": 39.317291, "LONGITUDE": -80.158105, "NAICS_CODE": "486210", "NAICS_DESC": "BOOSTER PUMPING STATION, NATURAL GAS TRANSPORTATION", "SOURCE": "EPA ENVIROFACTS, FERC FORM 2, CORPORATE WEBSITE", "SOURCEDATE": "Wed, 15 Jul 2020 00:00:00 GMT", "VAL_METHOD": "IMAGERY/OTHER", "VAL_DATE": "Fri, 17 Jun 2022 00:00:00 GMT", "WEBSITE": "https://www.equitransmidstream.com/", "PIPECO": "EQUITRANS L.P.", "COMPID": "24", "OPERATOR": "EQUITRANS L.P.", "POSREL": "WITHIN 40 FEET", "NUM_UNITS": 5, "CERT_HP": 1800, "PLANT_COST": 5646410, "EXP_FUEL": 25883, "EXP_OTHER": 96194, "GAS_COMPRE": 18972, "OP_COMP_HR": 5938, "OP_NUM_COM": 0, "OP_DATE_PE": "Thu, 09 Apr 2020 00:00:00 GMT", "EXP_POWER": 15575, "ELEC_COMPR": 0 }, "geometry": { "type": "Point", "coordinates": [ -80.158105, 39.317291 ] } },
{ "type": "Feature", "properties": { "OBJECTID": 537, "GCOMPID": "GCOMP251", "NAME": "WAYNESBURG", "ADDRESS": "177 ELM ROAD", "CITY": "WAYNESBURG", "STATE": "PA", "ZIP": "15370", "ZIP4": "7001", "TYPE": "NATURAL GAS COMPRESSOR STATION", "STATUS": "IN SERVICE", "COUNTY": "GREENE", "COUNTYFIPS": "42059", "COUNTRY": "USA", "LATITUDE": 39.90503584, "LONGITUDE": -80.152420430999996, "NAICS_CODE": "486210", "NAICS_DESC": "BOOSTER PUMPING STATION, NATURAL GAS TRANSPORTATION", "SOURCE": "EPA ENVIROFACTS, FERC FORM 2, CORPORATE WEBSITE", "SOURCEDATE": "Wed, 15 Jul 2020 00:00:00 GMT", "VAL_METHOD": "IMAGERY/OTHER", "VAL_DATE": "Fri, 17 Jun 2022 00:00:00 GMT", "WEBSITE": "https://www.equitransmidstream.com/", "PIPECO": "EQUITRANS L.P.", "COMPID": "24", "OPERATOR": "EQUITRANS L.P.", "POSREL": "WITHIN 40 FEET", "NUM_UNITS": 2, "CERT_HP": 3600, "PLANT_COST": 9514244, "EXP_FUEL": 110241, "EXP_OTHER": 5693148, "GAS_COMPRE": 84748, "OP_COMP_HR": 7640, "OP_NUM_COM": 1, "OP_DATE_PE": "Thu, 03 Sep 2020 00:00:00 GMT", "EXP_POWER": 40586, "ELEC_COMPR": 0 }, "geometry": { "type": "Point", "coordinates": [ -80.152420430999896, 39.90503584 ] } },
{ "type": "Feature", "properties": { "OBJECTID": 580, "GCOMPID": "GCOMP290", "NAME": "CROOKED CREEK", "ADDRESS": "1942 PA-66", "CITY": "FORD CITY", "STATE": "PA", "ZIP": "16226", "ZIP4": "NOT AVAILABLE", "TYPE": "NATURAL GAS COMPRESSOR STATION", "STATUS": "IN SERVICE", "COUNTY": "ARMSTRONG", "COUNTYFIPS": "42005", "COUNTRY": "USA", "LATITUDE": 40.716455254570697, "LONGITUDE": -79.528481108363806, "NAICS_CODE": "486210", "NAICS_DESC": "BOOSTER PUMPING STATION, NATURAL GAS TRANSPORTATION", "SOURCE": "EPA ENVIROFACTS, FERC FORM 2, CORPORATE WEBSITE", "SOURCEDATE": "Wed, 15 Jul 2020 00:00:00 GMT", "VAL_METHOD": "IMAGERY/OTHER", "VAL_DATE": "Fri, 24 Jun 2022 00:00:00 GMT", "WEBSITE": "https://www.natfuel.com/", "PIPECO": "EQUITRANS L.P.", "COMPID": "24", "OPERATOR": "EQUITRANS L.P.", "POSREL": "WITHIN 40 FEET", "NUM_UNITS": 2, "CERT_HP": 500, "PLANT_COST": -999, "EXP_FUEL": 0, "EXP_OTHER": 0, "GAS_COMPRE": 0, "OP_COMP_HR": 0, "OP_NUM_COM": 0, "OP_DATE_PE": "Wed, 15 Jul 2020 00:00:00 GMT", "EXP_POWER": 0, "ELEC_COMPR": 0 }, "geometry": { "type": "Point", "coordinates": [ -79.528481107999895, 40.716455255 ] } },
{ "type": "Feature", "properties": { "OBJECTID": 709, "GCOMPID": "GCOMP406", "NAME": "JEFFERSON", "ADDRESS": "243 DENNY HILL", "CITY": "JEFFERSON", "STATE": "PA", "ZIP": "15344", "ZIP4": "NOT AVAILABLE", "TYPE": "NATURAL GAS COMPRESSOR STATION", "STATUS": "IN SERVICE", "COUNTY": "GREENE", "COUNTYFIPS": "42059", "COUNTRY": "USA", "LATITUDE": 39.909609, "LONGITUDE": -80.074432, "NAICS_CODE": "486210", "NAICS_DESC": "BOOSTER PUMPING STATION, NATURAL GAS TRANSPORTATION", "SOURCE": "FERC FORM 2, IMAGERY", "SOURCEDATE": "Wed, 15 Jul 2020 00:00:00 GMT", "VAL_METHOD": "IMAGERY/OTHER", "VAL_DATE": "Fri, 17 Jun 2022 00:00:00 GMT", "WEBSITE": "https://www.equitransmidstream.com/", "PIPECO": "EQUITRANS L.P.", "COMPID": "24", "OPERATOR": "EQUITRANS L.P.", "POSREL": "WITHIN 40 FEET", "NUM_UNITS": 4, "CERT_HP": 30105, "PLANT_COST": 74324011, "EXP_FUEL": 213144, "EXP_OTHER": 0, "GAS_COMPRE": 199234, "OP_COMP_HR": 15238, "OP_NUM_COM": 2, "OP_DATE_PE": "Tue, 23 Jun 2020 00:00:00 GMT", "EXP_POWER": 32350, "ELEC_COMPR": 0 }, "geometry": { "type": "Point", "coordinates": [ -80.074432, 39.909609 ] } },
{ "type": "Feature", "properties": { "OBJECTID": 886, "GCOMPID": "GCOMP566", "NAME": "HUNDRED", "ADDRESS": "3805 US 250", "CITY": "HUNDRED", "STATE": "WV", "ZIP": "26575", "ZIP4": "NOT AVAILABLE", "TYPE": "NATURAL GAS COMPRESSOR STATION", "STATUS": "IN SERVICE", "COUNTY": "WETZEL", "COUNTYFIPS": "54103", "COUNTRY": "USA", "LATITUDE": 39.690638, "LONGITUDE": -80.469721, "NAICS_CODE": "486210", "NAICS_DESC": "BOOSTER PUMPING STATION, NATURAL GAS TRANSPORTATION", "SOURCE": "FERC FORM 2, IMAGERY", "SOURCEDATE": "Wed, 15 Jul 2020 00:00:00 GMT", "VAL_METHOD": "IMAGERY/OTHER", "VAL_DATE": "Fri, 17 Jun 2022 00:00:00 GMT", "WEBSITE": "https://www.equitransmidstream.com/", "PIPECO": "EQUITRANS L.P.", "COMPID": "24", "OPERATOR": "EQUITRANS L.P.", "POSREL": "WITHIN 40 FEET", "NUM_UNITS": 2, "CERT_HP": 937, "PLANT_COST": 1159037, "EXP_FUEL": 656, "EXP_OTHER": 656, "GAS_COMPRE": 641, "OP_COMP_HR": 3135, "OP_NUM_COM": 1, "OP_DATE_PE": "Thu, 03 Sep 2020 00:00:00 GMT", "EXP_POWER": 1216, "ELEC_COMPR": 0 }, "geometry": null },
{ "type": "Feature", "properties": { "OBJECTID": 981, "GCOMPID": "GCOMP653", "NAME": "BLACKSVILLE", "ADDRESS": "4960 MASON DIXON HIGHWAY; OFF OF ROUTE 7 WEST OF ROGERS AVENUE", "CITY": "BLACKSVILLE", "STATE": "WV", "ZIP": "26521", "ZIP4": "NOT AVAILABLE", "TYPE": "NATURAL GAS COMPRESSOR STATION", "STATUS": "IN SERVICE", "COUNTY": "MONONGALIA", "COUNTYFIPS": "54061", "COUNTRY": "USA", "LATITUDE": 39.719366, "LONGITUDE": -80.184433, "NAICS_CODE": "486210", "NAICS_DESC": "BOOSTER PUMPING STATION, NATURAL GAS TRANSPORTATION", "SOURCE": "FERC FORM 2, CORPORATE WEBSITE", "SOURCEDATE": "Wed, 15 Jul 2020 00:00:00 GMT", "VAL_METHOD": "IMAGERY/OTHER", "VAL_DATE": "Fri, 24 Jun 2022 00:00:00 GMT", "WEBSITE": "https://www.equitransmidstream.com/", "PIPECO": "EQUITRANS L.P.", "COMPID": "24", "OPERATOR": "EQUITRANS L.P.", "POSREL": "WITHIN 40 FEET", "NUM_UNITS": 4, "CERT_HP": 18940, "PLANT_COST": 46567055, "EXP_FUEL": 215533, "EXP_OTHER": 442808, "GAS_COMPRE": 160014, "OP_COMP_HR": 5589, "OP_NUM_COM": 1, "OP_DATE_PE": "Fri, 18 Dec 2020 00:00:00 GMT", "EXP_POWER": 214, "ELEC_COMPR": 0 }, "geometry": { "type": "Point", "coordinates": [ -80.184433, 39.719366 ] } },
{ "type": "Feature", "properties": { "OBJECTID": 986, "GCOMPID": "GCOMP658", "NAME": "PENNVIEW", "ADDRESS": "500 INDIAN PINE LANE", "CITY": "WEXFORD", "STATE": "PA", "ZIP": "15090", "ZIP4": "NOT AVAILABLE", "TYPE": "NATURAL GAS COMPRESSOR STATION", "STATUS": "IN SERVICE", "COUNTY": "ALLEGHENY", "COUNTYFIPS": "42003", "COUNTRY": "USA", "LATITUDE": 40.632566, "LONGITUDE": -80.093456, "NAICS_CODE": "486210", "NAICS_DESC": "BOOSTER PUMPING STATION, NATURAL GAS TRANSPORTATION", "SOURCE": "EPA ENVIROFACTS, FERC FORM 2, CORPORATE WEBSITE, IMAGERY", "SOURCEDATE": "Wed, 15 Jul 2020 00:00:00 GMT", "VAL_METHOD": "IMAGERY/OTHER", "VAL_DATE": "Fri, 17 Jun 2022 00:00:00 GMT", "WEBSITE": "https://www.equitransmidstream.com/", "PIPECO": "EQUITRANS L.P.", "COMPID": "24", "OPERATOR": "EQUITRANS L.P.", "POSREL": "WITHIN 40 FEET", "NUM_UNITS": 2, "CERT_HP": 2940, "PLANT_COST": -999, "EXP_FUEL": 0, "EXP_OTHER": 0, "GAS_COMPRE": 0, "OP_COMP_HR": 0, "OP_NUM_COM": 0, "OP_DATE_PE": "Wed, 15 Jul 2020 00:00:00 GMT", "EXP_POWER": 0, "ELEC_COMPR": 0 }, "geometry": { "type": "Point", "coordinates": [ -80.093456, 40.632566 ] } },
{ "type": "Feature", "properties": { "OBJECTID": 1013, "GCOMPID": "GCOMP682", "NAME": "PRATT", "ADDRESS": "532 JEFFERSON ROAD", "CITY": "WAYNESBURG", "STATE": "PA", "ZIP": "15370", "ZIP4": "NOT AVAILABLE", "TYPE": "NATURAL GAS COMPRESSOR STATION", "STATUS": "IN SERVICE", "COUNTY": "GREENE", "COUNTYFIPS": "42059", "COUNTRY": "USA", "LATITUDE": 39.912716046, "LONGITUDE": -80.12820189, "NAICS_CODE": "486210", "NAICS_DESC": "BOOSTER PUMPING STATION, NATURAL GAS TRANSPORTATION", "SOURCE": "EPA ENVIROFACTS, FERC FORM 2, CORPORATE WEBSITE", "SOURCEDATE": "Wed, 15 Jul 2020 00:00:00 GMT", "VAL_METHOD": "IMAGERY/OTHER", "VAL_DATE": "Fri, 17 Jun 2022 00:00:00 GMT", "WEBSITE": "https://www.equitransmidstream.com/", "PIPECO": "EQUITRANS L.P.", "COMPID": "24", "OPERATOR": "EQUITRANS L.P.", "POSREL": "WITHIN 40 FEET", "NUM_UNITS": 5, "CERT_HP": 4800, "PLANT_COST": 16105458, "EXP_FUEL": 616595, "EXP_OTHER": 733726, "GAS_COMPRE": 229033, "OP_COMP_HR": 30978, "OP_NUM_COM": 5, "OP_DATE_PE": "Thu, 09 Feb 2012 00:00:00 GMT", "EXP_POWER": 42703, "ELEC_COMPR": 0 }, "geometry": { "type": "Point", "coordinates": [ -80.12820189, 39.912716046000099 ] } },
{ "type": "Feature", "properties": { "OBJECTID": 1024, "GCOMPID": "GCOMP692", "NAME": "COPLEY RUN", "ADDRESS": "544 COPLEY RUN ROAD", "CITY": "WESTON", "STATE": "WV", "ZIP": "26452", "ZIP4": "NOT AVAILABLE", "TYPE": "NATURAL GAS COMPRESSOR STATION", "STATUS": "IN SERVICE", "COUNTY": "LEWIS", "COUNTYFIPS": "54041", "COUNTRY": "USA", "LATITUDE": 38.980936694, "LONGITUDE": -80.522230113999996, "NAICS_CODE": "486210", "NAICS_DESC": "BOOSTER PUMPING STATION, NATURAL GAS TRANSPORTATION", "SOURCE": "EPA ENVIROFACTS, FERC FORM 2, CORPORATE WEBSITE", "SOURCEDATE": "Wed, 15 Jul 2020 00:00:00 GMT", "VAL_METHOD": "IMAGERY/OTHER", "VAL_DATE": "Fri, 17 Jun 2022 00:00:00 GMT", "WEBSITE": "https://www.equitransmidstream.com/", "PIPECO": "EQUITRANS L.P.", "COMPID": "24", "OPERATOR": "EQUITRANS L.P.", "POSREL": "WITHIN 40 FEET", "NUM_UNITS": 2, "CERT_HP": 3150, "PLANT_COST": 8575254, "EXP_FUEL": 102558, "EXP_OTHER": 0, "GAS_COMPRE": 80052, "OP_COMP_HR": 8790, "OP_NUM_COM": 2, "OP_DATE_PE": "Sat, 19 Dec 2020 00:00:00 GMT", "EXP_POWER": 29462, "ELEC_COMPR": 15391728 }, "geometry": { "type": "Point", "coordinates": [ -80.522230114, 38.980936694 ] } },
{ "type": "Feature", "properties": { "OBJECTID": 1211, "GCOMPID": "GCOMP860", "NAME": "UNDERWOOD", "ADDRESS": "8 TOOTH HOLLOW ROAD/NORTH OF FAIRVIEW ROAD (HIGHWAY 17)", "CITY": "GRANT TOWN", "STATE": "WV", "ZIP": "26574", "ZIP4": "NOT AVAILABLE", "TYPE": "NATURAL GAS COMPRESSOR STATION", "STATUS": "IN SERVICE", "COUNTY": "MARION", "COUNTYFIPS": "54049", "COUNTRY": "USA", "LATITUDE": 39.577534, "LONGITUDE": -80.202764, "NAICS_CODE": "486210", "NAICS_DESC": "BOOSTER PUMPING STATION, NATURAL GAS TRANSPORTATION", "SOURCE": "FERC FORM 2, IMAGERY", "SOURCEDATE": "Wed, 15 Jul 2020 00:00:00 GMT", "VAL_METHOD": "IMAGERY/OTHER", "VAL_DATE": "Fri, 17 Jun 2022 00:00:00 GMT", "WEBSITE": "https://www.equitransmidstream.com/", "PIPECO": "EQUITRANS L.P.", "COMPID": "24", "OPERATOR": "EQUITRANS L.P.", "POSREL": "WITHIN 40 FEET", "NUM_UNITS": 2, "CERT_HP": 900, "PLANT_COST": 1085646, "EXP_FUEL": 0, "EXP_OTHER": 0, "GAS_COMPRE": 0, "OP_COMP_HR": 0, "OP_NUM_COM": 0, "OP_DATE_PE": "Sat, 16 May 2020 00:00:00 GMT", "EXP_POWER": 165096, "ELEC_COMPR": 1424522 }, "geometry": { "type": "Point", "coordinates": [ -80.202764, 39.577534 ] } },
{ "type": "Feature", "properties": { "OBJECTID": 1323, "GCOMPID": "GCOMP961", "NAME": "WEST UNION", "ADDRESS": "CNG ROAD/WV-18", "CITY": "WEST UNION", "STATE": "WV", "ZIP": "26456", "ZIP4": "NOT AVAILABLE", "TYPE": "NATURAL GAS COMPRESSOR STATION", "STATUS": "IN SERVICE", "COUNTY": "DODDRIDGE", "COUNTYFIPS": "54017", "COUNTRY": "USA", "LATITUDE": 39.310464, "LONGITUDE": -80.781029, "NAICS_CODE": "486210", "NAICS_DESC": "BOOSTER PUMPING STATION, NATURAL GAS TRANSPORTATION", "SOURCE": "FERC FORM 2, IMAGERY", "SOURCEDATE": "Wed, 15 Jul 2020 00:00:00 GMT", "VAL_METHOD": "IMAGERY/OTHER", "VAL_DATE": "Fri, 17 Jun 2022 00:00:00 GMT", "WEBSITE": "https://www.equitransmidstream.com/", "PIPECO": "EQUITRANS L.P.", "COMPID": "24", "OPERATOR": "EQUITRANS L.P.", "POSREL": "WITHIN 40 FEET", "NUM_UNITS": 2, "CERT_HP": 2160, "PLANT_COST": 4378674, "EXP_FUEL": 4, "EXP_OTHER": 911633, "GAS_COMPRE": 3, "OP_COMP_HR": 0, "OP_NUM_COM": 0, "OP_DATE_PE": "Mon, 01 Jan 2001 00:00:00 GMT", "EXP_POWER": 811, "ELEC_COMPR": 0 }, "geometry": null },
{ "type": "Feature", "properties": { "OBJECTID": 1331, "GCOMPID": "GCOMP969", "NAME": "ROSEDALE", "ADDRESS": "COUNTY ROUTE 9/SOUTH OF 2 MILE FOX ROAD", "CITY": "ROSEDALE", "STATE": "WV", "ZIP": "26636", "ZIP4": "NOT AVAILABLE", "TYPE": "NATURAL GAS COMPRESSOR STATION", "STATUS": "IN SERVICE", "COUNTY": "BRAXTON", "COUNTYFIPS": "54007", "COUNTRY": "USA", "LATITUDE": 38.715798, "LONGITUDE": -80.922422, "NAICS_CODE": "486210", "NAICS_DESC": "BOOSTER PUMPING STATION, NATURAL GAS TRANSPORTATION", "SOURCE": "EPA ENVIROFACTS, FERC FORM 2, CORPORATE WEBSITE", "SOURCEDATE": "Wed, 15 Jul 2020 00:00:00 GMT", "VAL_METHOD": "IMAGERY/OTHER", "VAL_DATE": "Fri, 17 Jun 2022 00:00:00 GMT", "WEBSITE": "https://www.equitransmidstream.com/", "PIPECO": "EQUITRANS L.P.", "COMPID": "24", "OPERATOR": "EQUITRANS L.P.", "POSREL": "WITHIN 40 FEET", "NUM_UNITS": 2, "CERT_HP": 310, "PLANT_COST": 376115, "EXP_FUEL": 26246, "EXP_OTHER": 10807, "GAS_COMPRE": 9390, "OP_COMP_HR": 8757, "OP_NUM_COM": 1, "OP_DATE_PE": "Mon, 16 Jul 2012 00:00:00 GMT", "EXP_POWER": 4696, "ELEC_COMPR": 0 }, "geometry": null },
{ "type": "Feature", "properties": { "OBJECTID": 1357, "GCOMPID": "GCOMP992", "NAME": "TOLL GATE", "ADDRESS": "COUNTY ROAD 50/30 (SUNNYSIDE ROAD)/EAST OF SUGAR RUN", "CITY": "TOLL GATE", "STATE": "WV", "ZIP": "26415", "ZIP4": "NOT AVAILABLE", "TYPE": "NATURAL GAS COMPRESSOR STATION", "STATUS": "IN SERVICE", "COUNTY": "DODDRIDGE", "COUNTYFIPS": "54017", "COUNTRY": "USA", "LATITUDE": 39.27709, "LONGITUDE": -80.908282, "NAICS_CODE": "486210", "NAICS_DESC": "BOOSTER PUMPING STATION, NATURAL GAS TRANSPORTATION", "SOURCE": "FERC FORM 2, IMAGERY", "SOURCEDATE": "Wed, 15 Jul 2020 00:00:00 GMT", "VAL_METHOD": "IMAGERY/OTHER", "VAL_DATE": "Fri, 17 Jun 2022 00:00:00 GMT", "WEBSITE": "https://www.equitransmidstream.com/", "PIPECO": "EQUITRANS L.P.", "COMPID": "24", "OPERATOR": "EQUITRANS L.P.", "POSREL": "WITHIN 40 FEET", "NUM_UNITS": 1, "CERT_HP": 300, "PLANT_COST": 1031834, "EXP_FUEL": 17645, "EXP_OTHER": 20892, "GAS_COMPRE": 13065, "OP_COMP_HR": 8741, "OP_NUM_COM": 1, "OP_DATE_PE": "Fri, 11 Dec 2020 00:00:00 GMT", "EXP_POWER": 7448, "ELEC_COMPR": 0 }, "geometry": null },
{ "type": "Feature", "properties": { "OBJECTID": 1770, "GCOMPID": "GCOMP597", "NAME": "HARTSON", "ADDRESS": "4111-4139 FINLEYVILLE ELRAMA ROAD; FINLEYVILLE", "CITY": "FINLEYVILLE", "STATE": "PA", "ZIP": "01533", "ZIP4": "3124", "TYPE": "NATURAL GAS COMPRESSOR STATION", "STATUS": "IN SERVICE", "COUNTY": "WASHINGTON", "COUNTYFIPS": "42125", "COUNTRY": "USA", "LATITUDE": 40.25565871, "LONGITUDE": -79.961222214000003, "NAICS_CODE": "486210", "NAICS_DESC": "BOOSTER PUMPING STATION, NATURAL GAS TRANSPORTATION", "SOURCE": "EPA ENVIROFACTS, FERC FORM 2, CORPORATE WEBSITE, IMAGERY", "SOURCEDATE": "Wed, 15 Jul 2020 00:00:00 GMT", "VAL_METHOD": "IMAGERY/OTHER", "VAL_DATE": "Fri, 17 Jun 2022 00:00:00 GMT", "WEBSITE": "https://www.equitransmidstream.com/", "PIPECO": "EQUITRANS L.P.", "COMPID": "24", "OPERATOR": "EQUITRANS L.P.", "POSREL": "WITHIN 40 FEET", "NUM_UNITS": 3, "CERT_HP": 3300, "PLANT_COST": 22504032, "EXP_FUEL": 7378, "EXP_OTHER": 68850, "GAS_COMPRE": 6039, "OP_COMP_HR": 4065, "OP_NUM_COM": 0, "OP_DATE_PE": "Fri, 17 Jan 2020 00:00:00 GMT", "EXP_POWER": 27009, "ELEC_COMPR": 0 }, "geometry": { "type": "Point", "coordinates": [ -79.961222214, 40.25565871 ] } },
{ "type": "Feature", "properties": { "OBJECTID": null, "GCOMPID": null, "NAME": null, "ADDRESS": null, "CITY": null, "STATE": null, "ZIP": null, "ZIP4": null, "TYPE": null, "STATUS": null, "COUNTY": null, "COUNTYFIPS": null, "COUNTRY": null, "LATITUDE": null, "LONGITUDE": null, "NAICS_CODE": null, "NAICS_DESC": null, "SOURCE": null, "SOURCEDATE": null, "VAL_METHOD": null, "VAL_DATE": null, "WEBSITE": null, "PIPECO": null, "COMPID": null, "OPERATOR": null, "POSREL": null, "NUM_UNITS": null, "CERT_HP": null, "PLANT_COST": null, "EXP_FUEL": null, "EXP_OTHER": null, "GAS_COMPRE": null, "OP_COMP_HR": null, "OP_NUM_COM": null, "OP_DATE_PE": null, "EXP_POWER": null, "ELEC_COMPR": null }, "geometry": { "type": "Point", "coordinates": [ -80.502172734445551, 39.542521751559512 ] } },
{ "type": "Feature", "properties": { "OBJECTID": null, "GCOMPID": null, "NAME": null, "ADDRESS": null, "CITY": null, "STATE": null, "ZIP": null, "ZIP4": null, "TYPE": null, "STATUS": null, "COUNTY": null, "COUNTYFIPS": null, "COUNTRY": null, "LATITUDE": null, "LONGITUDE": null, "NAICS_CODE": null, "NAICS_DESC": null, "SOURCE": null, "SOURCEDATE": null, "VAL_METHOD": null, "VAL_DATE": null, "WEBSITE": null, "PIPECO": null, "COMPID": null, "OPERATOR": null, "POSREL": null, "NUM_UNITS": null, "CERT_HP": null, "PLANT_COST": null, "EXP_FUEL": null, "EXP_OTHER": null, "GAS_COMPRE": null, "OP_COMP_HR": null, "OP_NUM_COM": null, "OP_DATE_PE": null, "EXP_POWER": null, "ELEC_COMPR": null }, "geometry": { "type": "Point", "coordinates": [ -80.883422973349525, 39.823668587788333 ] } },
{ "type": "Feature", "properties": { "OBJECTID": null, "GCOMPID": null, "NAME": null, "ADDRESS": null, "CITY": null, "STATE": null, "ZIP": null, "ZIP4": null, "TYPE": null, "STATUS": null, "COUNTY": null, "COUNTYFIPS": null, "COUNTRY": null, "LATITUDE": null, "LONGITUDE": null, "NAICS_CODE": null, "NAICS_DESC": null, "SOURCE": null, "SOURCEDATE": null, "VAL_METHOD": null, "VAL_DATE": null, "WEBSITE": null, "PIPECO": null, "COMPID": null, "OPERATOR": null, "POSREL": null, "NUM_UNITS": null, "CERT_HP": null, "PLANT_COST": null, "EXP_FUEL": null, "EXP_OTHER": null, "GAS_COMPRE": null, "OP_COMP_HR": null, "OP_NUM_COM": null, "OP_DATE_PE": null, "EXP_POWER": null, "ELEC_COMPR": null }, "geometry": { "type": "Point", "coordinates": [ -79.88107570791766, 40.229438749125357 ] } },
{ "type": "Feature", "properties": { "OBJECTID": null, "GCOMPID": null, "NAME": null, "ADDRESS": null, "CITY": null, "STATE": null, "ZIP": null, "ZIP4": null, "TYPE": null, "STATUS": null, "COUNTY": null, "COUNTYFIPS": null, "COUNTRY": null, "LATITUDE": null, "LONGITUDE": null, "NAICS_CODE": null, "NAICS_DESC": null, "SOURCE": null, "SOURCEDATE": null, "VAL_METHOD": null, "VAL_DATE": null, "WEBSITE": null, "PIPECO": null, "COMPID": null, "OPERATOR": null, "POSREL": null, "NUM_UNITS": null, "CERT_HP": null, "PLANT_COST": null, "EXP_FUEL": null, "EXP_OTHER": null, "GAS_COMPRE": null, "OP_COMP_HR": null, "OP_NUM_COM": null, "OP_DATE_PE": null, "EXP_POWER": null, "ELEC_COMPR": null }, "geometry": { "type": "Point", "coordinates": [ -78.934203142963469, 40.417916330587204 ] } },
{ "type": "Feature", "properties": { "OBJECTID": null, "GCOMPID": null, "NAME": null, "ADDRESS": null, "CITY": null, "STATE": null, "ZIP": null, "ZIP4": null, "TYPE": null, "STATUS": null, "COUNTY": null, "COUNTYFIPS": null, "COUNTRY": null, "LATITUDE": null, "LONGITUDE": null, "NAICS_CODE": null, "NAICS_DESC": null, "SOURCE": null, "SOURCEDATE": null, "VAL_METHOD": null, "VAL_DATE": null, "WEBSITE": null, "PIPECO": null, "COMPID": null, "OPERATOR": null, "POSREL": null, "NUM_UNITS": null, "CERT_HP": null, "PLANT_COST": null, "EXP_FUEL": null, "EXP_OTHER": null, "GAS_COMPRE": null, "OP_COMP_HR": null, "OP_NUM_COM": null, "OP_DATE_PE": null, "EXP_POWER": null, "ELEC_COMPR": null }, "geometry": { "type": "Point", "coordinates": [ -79.281659572949593, 41.074064952822148 ] } },
{ "type": "Feature", "properties": { "OBJECTID": null, "GCOMPID": null, "NAME": null, "ADDRESS": null, "CITY": null, "STATE": null, "ZIP": null, "ZIP4": null, "TYPE": null, "STATUS": null, "COUNTY": null, "COUNTYFIPS": null, "COUNTRY": null, "LATITUDE": null, "LONGITUDE": null, "NAICS_CODE": null, "NAICS_DESC": null, "SOURCE": null, "SOURCEDATE": null, "VAL_METHOD": null, "VAL_DATE": null, "WEBSITE": null, "PIPECO": null, "COMPID": null, "OPERATOR": null, "POSREL": null, "NUM_UNITS": null, "CERT_HP": null, "PLANT_COST": null, "EXP_FUEL": null, "EXP_OTHER": null, "GAS_COMPRE": null, "OP_COMP_HR": null, "OP_NUM_COM": null, "OP_DATE_PE": null, "EXP_POWER": null, "ELEC_COMPR": null }, "geometry": { "type": "Point", "coordinates": [ -79.12071193532681, 40.342661545176881 ] } }
]
}
