{
"type": "FeatureCollection",
"name": "P6900",
"crs": { "type": "name", "properties": { "name": "urn:ogc:def:crs:OGC:1.3:CRS84" } },
"features": [
{ "type": "Feature", "properties": { "OBJECTID": 33, "GCOMPID": "GCOMP1027", "NAME": "ELLIS COUNTY 1", "ADDRESS": "E0360 ROAD", "CITY": "SHATTUCK", "STATE": "OK", "ZIP": "73858", "ZIP4": "NOT AVAILABLE", "TYPE": "NATURAL GAS COMPRESSOR STATION", "STATUS": "IN SERVICE", "COUNTY": "ELLIS", "COUNTYFIPS": "40045", "COUNTRY": "USA", "LATITUDE": 36.48768, "LONGITUDE": -99.920021, "NAICS_CODE": "486210", "NAICS_DESC": "BOOSTER PUMPING STATION, NATURAL GAS TRANSPORTATION", "SOURCE": "EPA ENVIROFACTS, FERC FORM 2, CORPORATE WEBSITE", "SOURCEDATE": "Wed, 15 Jul 2020 00:00:00 GMT", "VAL_METHOD": "IMAGERY/OTHER", "VAL_DATE": "Fri, 17 Jun 2022 00:00:00 GMT", "WEBSITE": "http://www.dcpmidstream.com/", "PIPECO": "CIMARRON RIVER PIPELINE L.L.C.", "COMPID": "575", "OPERATOR": "CIMARRON RIVER PIPELINE L.L.C.", "POSREL": "WITHIN 40 FEET", "NUM_UNITS": 4, "CERT_HP": 3231, "PLANT_COST": 3006451, "EXP_FUEL": 0, "EXP_OTHER": 103139, "GAS_COMPRE": 143399, "OP_COMP_HR": 47190, "OP_NUM_COM": 4, "OP_DATE_PE": "Sat, 28 Apr 2012 00:00:00 GMT", "EXP_POWER": 8817, "ELEC_COMPR": 81979 }, "geometry": { "type": "Point", "coordinates": [ -99.920021, 36.48768 ] } },
{ "type": "Feature", "properties": { "OBJECTID": 34, "GCOMPID": "GCOMP1028", "NAME": "WOODWARD COUNTY 3", "ADDRESS": "E0450 ROAD", "CITY": "MOORELAND", "STATE": "OK", "ZIP": "73852", "ZIP4": "NOT AVAILABLE", "TYPE": "NATURAL GAS COMPRESSOR STATION", "STATUS": "IN SERVICE", "COUNTY": "WOODWARD", "COUNTYFIPS": "40153", "COUNTRY": "USA", "LATITUDE": 36.363074, "LONGITUDE": -99.088911, "NAICS_CODE": "486210", "NAICS_DESC": "BOOSTER PUMPING STATION, NATURAL GAS TRANSPORTATION", "SOURCE": "EPA ENVIROFACTS, FERC FORM 2, CORPORATE WEBSITE", "SOURCEDATE": "Wed, 15 Jul 2020 00:00:00 GMT", "VAL_METHOD": "IMAGERY/OTHER", "VAL_DATE": "Fri, 17 Jun 2022 00:00:00 GMT", "WEBSITE": "http://www.dcpmidstream.com/", "PIPECO": "CIMARRON RIVER PIPELINE L.L.C.", "COMPID": "575", "OPERATOR": "CIMARRON RIVER PIPELINE L.L.C.", "POSREL": "WITHIN 40 FEET", "NUM_UNITS": 1, "CERT_HP": 526, "PLANT_COST": 470093, "EXP_FUEL": 0, "EXP_OTHER": 573, "GAS_COMPRE": 0, "OP_COMP_HR": 0, "OP_NUM_COM": 0, "OP_DATE_PE": "Wed, 15 Jul 2020 00:00:00 GMT", "EXP_POWER": 728, "ELEC_COMPR": 0 }, "geometry": { "type": "Point", "coordinates": [ -99.088910999999896, 36.363074 ] } },
{ "type": "Feature", "properties": { "OBJECTID": 59, "GCOMPID": "GCOMP1050", "NAME": "SPEARMAN PLANT", "ADDRESS": "FM-281", "CITY": "PERRYTON", "STATE": "TX", "ZIP": "79070", "ZIP4": "NOT AVAILABLE", "TYPE": "NATURAL GAS COMPRESSOR STATION", "STATUS": "IN SERVICE", "COUNTY": "OCHILTREE", "COUNTYFIPS": "48357", "COUNTRY": "USA", "LATITUDE": 36.085993611, "LONGITUDE": -101.04807404500001, "NAICS_CODE": "486210", "NAICS_DESC": "BOOSTER PUMPING STATION, NATURAL GAS TRANSPORTATION", "SOURCE": "EPA ENVIROFACTS, FERC FORM 2, CORPORATE WEBSITE", "SOURCEDATE": "Wed, 15 Jul 2020 00:00:00 GMT", "VAL_METHOD": "IMAGERY/OTHER", "VAL_DATE": "Fri, 17 Jun 2022 00:00:00 GMT", "WEBSITE": "http://www.dcpmidstream.com/", "PIPECO": "CIMARRON RIVER PIPELINE L.L.C.", "COMPID": "575", "OPERATOR": "CIMARRON RIVER PIPELINE L.L.C.", "POSREL": "WITHIN 40 FEET", "NUM_UNITS": 5, "CERT_HP": 12050, "PLANT_COST": 12392502, "EXP_FUEL": 0, "EXP_OTHER": 1964741, "GAS_COMPRE": 551245, "OP_COMP_HR": 32411, "OP_NUM_COM": 5, "OP_DATE_PE": "Thu, 18 Oct 2012 00:00:00 GMT", "EXP_POWER": 115672, "ELEC_COMPR": 2096528 }, "geometry": { "type": "Point", "coordinates": [ -101.048074045, 36.085993611 ] } },
{ "type": "Feature", "properties": { "OBJECTID": 66, "GCOMPID": "GCOMP1057", "NAME": "WOODWARD COUNTY 2", "ADDRESS": "0.2 MI S OF N2030 AND E0500 ROADS", "CITY": "SHARON", "STATE": "OK", "ZIP": "73840", "ZIP4": "NOT AVAILABLE", "TYPE": "NATURAL GAS COMPRESSOR STATION", "STATUS": "IN SERVICE", "COUNTY": "WOODWARD", "COUNTYFIPS": "40153", "COUNTRY": "USA", "LATITUDE": 36.286453483000003, "LONGITUDE": -99.388086712000003, "NAICS_CODE": "486210", "NAICS_DESC": "BOOSTER PUMPING STATION, NATURAL GAS TRANSPORTATION", "SOURCE": "EPA ENVIROFACTS, FERC FORM 2, U.S. FEDERAL REGISTER", "SOURCEDATE": "Wed, 15 Jul 2020 00:00:00 GMT", "VAL_METHOD": "IMAGERY/OTHER", "VAL_DATE": "Fri, 17 Jun 2022 00:00:00 GMT", "WEBSITE": "http://www.dcpmidstream.com/", "PIPECO": "CIMARRON RIVER PIPELINE L.L.C.", "COMPID": "575", "OPERATOR": "CIMARRON RIVER PIPELINE L.L.C.", "POSREL": "WITHIN 40 FEET", "NUM_UNITS": 4, "CERT_HP": 1134, "PLANT_COST": 4352691, "EXP_FUEL": 0, "EXP_OTHER": 54723, "GAS_COMPRE": 43957, "OP_COMP_HR": 16375, "OP_NUM_COM": 4, "OP_DATE_PE": "Thu, 28 Jun 2012 00:00:00 GMT", "EXP_POWER": 7676, "ELEC_COMPR": 77200 }, "geometry": { "type": "Point", "coordinates": [ -99.388086712, 36.286453483000102 ] } },
{ "type": "Feature", "properties": { "OBJECTID": 100, "GCOMPID": "GCOMP1088", "NAME": "BEAVER COUNTY 1", "ADDRESS": "HOLLOW E0060", "CITY": "GATE", "STATE": "OK", "ZIP": "73844", "ZIP4": "NOT AVAILABLE", "TYPE": "NATURAL GAS COMPRESSOR STATION", "STATUS": "IN SERVICE", "COUNTY": "BEAVER", "COUNTYFIPS": "40007", "COUNTRY": "USA", "LATITUDE": 36.921061, "LONGITUDE": -100.007491, "NAICS_CODE": "486210", "NAICS_DESC": "BOOSTER PUMPING STATION, NATURAL GAS TRANSPORTATION", "SOURCE": "EPA ENVIROFACTS, FERC FORM 2, CORPORATE WEBSITE", "SOURCEDATE": "Wed, 15 Jul 2020 00:00:00 GMT", "VAL_METHOD": "IMAGERY/OTHER", "VAL_DATE": "Mon, 06 Jun 2022 00:00:00 GMT", "WEBSITE": "http://www.dcpmidstream.com/", "PIPECO": "CIMARRON RIVER PIPELINE L.L.C.", "COMPID": "575", "OPERATOR": "CIMARRON RIVER PIPELINE L.L.C.", "POSREL": "WITHIN 40 FEET", "NUM_UNITS": 5, "CERT_HP": 3840, "PLANT_COST": 3660007, "EXP_FUEL": 0, "EXP_OTHER": 241453, "GAS_COMPRE": 141288, "OP_COMP_HR": 34922, "OP_NUM_COM": 5, "OP_DATE_PE": "Fri, 07 Sep 2012 00:00:00 GMT", "EXP_POWER": 6764, "ELEC_COMPR": 80735 }, "geometry": { "type": "Point", "coordinates": [ -100.007491, 36.921061000000101 ] } },
{ "type": "Feature", "properties": { "OBJECTID": 101, "GCOMPID": "GCOMP1089", "NAME": "BEAVER COUNTY 2", "ADDRESS": "HOLLOW E0130", "CITY": "GATE", "STATE": "OK", "ZIP": "73844", "ZIP4": "NOT AVAILABLE", "TYPE": "NATURAL GAS COMPRESSOR STATION", "STATUS": "IN SERVICE", "COUNTY": "BEAVER", "COUNTYFIPS": "40007", "COUNTRY": "USA", "LATITUDE": 36.819207, "LONGITUDE": -100.188995, "NAICS_CODE": "486210", "NAICS_DESC": "BOOSTER PUMPING STATION, NATURAL GAS TRANSPORTATION", "SOURCE": "EPA ENVIROFACTS, FERC FORM 2, CORPORATE WEBSITE", "SOURCEDATE": "Wed, 15 Jul 2020 00:00:00 GMT", "VAL_METHOD": "IMAGERY/OTHER", "VAL_DATE": "Mon, 06 Jun 2022 00:00:00 GMT", "WEBSITE": "http://www.dcpmidstream.com/", "PIPECO": "CIMARRON RIVER PIPELINE L.L.C.", "COMPID": "575", "OPERATOR": "CIMARRON RIVER PIPELINE L.L.C.", "POSREL": "WITHIN 40 FEET", "NUM_UNITS": 4, "CERT_HP": 3344, "PLANT_COST": 3125489, "EXP_FUEL": 0, "EXP_OTHER": 97987, "GAS_COMPRE": 133518, "OP_COMP_HR": 23737, "OP_NUM_COM": 4, "OP_DATE_PE": "Mon, 19 Mar 2012 00:00:00 GMT", "EXP_POWER": 13645, "ELEC_COMPR": 178364 }, "geometry": { "type": "Point", "coordinates": [ -100.188995, 36.819207 ] } },
{ "type": "Feature", "properties": { "OBJECTID": 103, "GCOMPID": "GCOMP1090", "NAME": "BEAVER COUNTY 12", "ADDRESS": "HOLLOW E0175", "CITY": "BEAVER", "STATE": "OK", "ZIP": "73932", "ZIP4": "NOT AVAILABLE", "TYPE": "NATURAL GAS COMPRESSOR STATION", "STATUS": "IN SERVICE", "COUNTY": "BEAVER", "COUNTYFIPS": "40007", "COUNTRY": "USA", "LATITUDE": 36.754591, "LONGITUDE": -100.583047, "NAICS_CODE": "486210", "NAICS_DESC": "BOOSTER PUMPING STATION, NATURAL GAS TRANSPORTATION", "SOURCE": "EPA ENVIROFACTS, FERC FORM 2, CORPORATE WEBSITE", "SOURCEDATE": "Wed, 15 Jul 2020 00:00:00 GMT", "VAL_METHOD": "IMAGERY/OTHER", "VAL_DATE": "Mon, 06 Jun 2022 00:00:00 GMT", "WEBSITE": "http://www.dcpmidstream.com/", "PIPECO": "CIMARRON RIVER PIPELINE L.L.C.", "COMPID": "575", "OPERATOR": "CIMARRON RIVER PIPELINE L.L.C.", "POSREL": "WITHIN 40 FEET", "NUM_UNITS": 4, "CERT_HP": 2921, "PLANT_COST": 2761968, "EXP_FUEL": 0, "EXP_OTHER": 51342, "GAS_COMPRE": 60137, "OP_COMP_HR": 15600, "OP_NUM_COM": 3, "OP_DATE_PE": "Mon, 23 Apr 2012 00:00:00 GMT", "EXP_POWER": 10052, "ELEC_COMPR": 84033 }, "geometry": { "type": "Point", "coordinates": [ -100.583047, 36.754591 ] } },
{ "type": "Feature", "properties": { "OBJECTID": 104, "GCOMPID": "GCOMP1092", "NAME": "BEAVER COUNTY 5", "ADDRESS": "HOLLOW E0280", "CITY": "LOGAN", "STATE": "OK", "ZIP": "73848", "ZIP4": "NOT AVAILABLE", "TYPE": "NATURAL GAS COMPRESSOR STATION", "STATUS": "IN SERVICE", "COUNTY": "BEAVER", "COUNTYFIPS": "40007", "COUNTRY": "USA", "LATITUDE": 36.601406, "LONGITUDE": -100.3672, "NAICS_CODE": "486210", "NAICS_DESC": "BOOSTER PUMPING STATION, NATURAL GAS TRANSPORTATION", "SOURCE": "EPA ENVIROFACTS, FERC FORM 2, CORPORATE WEBSITE", "SOURCEDATE": "Wed, 15 Jul 2020 00:00:00 GMT", "VAL_METHOD": "IMAGERY/OTHER", "VAL_DATE": "Mon, 06 Jun 2022 00:00:00 GMT", "WEBSITE": "http://www.dcpmidstream.com/", "PIPECO": "CIMARRON RIVER PIPELINE L.L.C.", "COMPID": "575", "OPERATOR": "CIMARRON RIVER PIPELINE L.L.C.", "POSREL": "WITHIN 40 FEET", "NUM_UNITS": 2, "CERT_HP": 310, "PLANT_COST": 277051, "EXP_FUEL": 0, "EXP_OTHER": 0, "GAS_COMPRE": 0, "OP_COMP_HR": 0, "OP_NUM_COM": 0, "OP_DATE_PE": "Wed, 15 Jul 2020 00:00:00 GMT", "EXP_POWER": 688, "ELEC_COMPR": 1438 }, "geometry": { "type": "Point", "coordinates": [ -100.3672, 36.601406 ] } },
{ "type": "Feature", "properties": { "OBJECTID": 105, "GCOMPID": "GCOMP1093", "NAME": "BEAVER COUNTY 6", "ADDRESS": "HOLLOW E0340", "CITY": "LOGAN", "STATE": "OK", "ZIP": "73848", "ZIP4": "NOT AVAILABLE", "TYPE": "NATURAL GAS COMPRESSOR STATION", "STATUS": "IN SERVICE", "COUNTY": "BEAVER", "COUNTYFIPS": "40007", "COUNTRY": "USA", "LATITUDE": 36.514648, "LONGITUDE": -100.044398, "NAICS_CODE": "486210", "NAICS_DESC": "BOOSTER PUMPING STATION, NATURAL GAS TRANSPORTATION", "SOURCE": "EPA ENVIROFACTS, FERC FORM 2, CORPORATE WEBSITE", "SOURCEDATE": "Wed, 15 Jul 2020 00:00:00 GMT", "VAL_METHOD": "IMAGERY/OTHER", "VAL_DATE": "Mon, 06 Jun 2022 00:00:00 GMT", "WEBSITE": "http://www.dcpmidstream.com/", "PIPECO": "CIMARRON RIVER PIPELINE L.L.C.", "COMPID": "575", "OPERATOR": "CIMARRON RIVER PIPELINE L.L.C.", "POSREL": "WITHIN 40 FEET", "NUM_UNITS": 3, "CERT_HP": 2201, "PLANT_COST": 1822153, "EXP_FUEL": 0, "EXP_OTHER": 40720, "GAS_COMPRE": 89503, "OP_COMP_HR": 16523, "OP_NUM_COM": 3, "OP_DATE_PE": "Sat, 28 Apr 2012 00:00:00 GMT", "EXP_POWER": 6746, "ELEC_COMPR": 62524 }, "geometry": { "type": "Point", "coordinates": [ -100.044398, 36.514648000000101 ] } },
{ "type": "Feature", "properties": { "OBJECTID": 107, "GCOMPID": "GCOMP1095", "NAME": "BEAVER COUNTY 3", "ADDRESS": "HOLLOW N1420", "CITY": "ELMWOOD", "STATE": "OK", "ZIP": "73932", "ZIP4": "NOT AVAILABLE", "TYPE": "NATURAL GAS COMPRESSOR STATION", "STATUS": "IN SERVICE", "COUNTY": "BEAVER", "COUNTYFIPS": "40007", "COUNTRY": "USA", "LATITUDE": 36.644338, "LONGITUDE": -100.470172, "NAICS_CODE": "486210", "NAICS_DESC": "BOOSTER PUMPING STATION, NATURAL GAS TRANSPORTATION", "SOURCE": "EPA ENVIROFACTS, FERC FORM 2, CORPORATE WEBSITE", "SOURCEDATE": "Wed, 15 Jul 2020 00:00:00 GMT", "VAL_METHOD": "IMAGERY/OTHER", "VAL_DATE": "Mon, 06 Jun 2022 00:00:00 GMT", "WEBSITE": "http://www.dcpmidstream.com/", "PIPECO": "CIMARRON RIVER PIPELINE L.L.C.", "COMPID": "575", "OPERATOR": "CIMARRON RIVER PIPELINE L.L.C.", "POSREL": "WITHIN 40 FEET", "NUM_UNITS": 1, "CERT_HP": 407, "PLANT_COST": 402171, "EXP_FUEL": 0, "EXP_OTHER": 18541, "GAS_COMPRE": 10796, "OP_COMP_HR": 8234, "OP_NUM_COM": 1, "OP_DATE_PE": "Mon, 22 Oct 2012 00:00:00 GMT", "EXP_POWER": 2506, "ELEC_COMPR": 16195 }, "geometry": { "type": "Point", "coordinates": [ -100.470172, 36.644338 ] } },
{ "type": "Feature", "properties": { "OBJECTID": 108, "GCOMPID": "GCOMP1096", "NAME": "BEAVER COUNTY 13", "ADDRESS": "HOLLOW N1443", "CITY": "BEAVER", "STATE": "OK", "ZIP": "73932", "ZIP4": "NOT AVAILABLE", "TYPE": "NATURAL GAS COMPRESSOR STATION", "STATUS": "IN SERVICE", "COUNTY": "BEAVER", "COUNTYFIPS": "40007", "COUNTRY": "USA", "LATITUDE": 36.710834502301601, "LONGITUDE": -100.428868658079, "NAICS_CODE": "486210", "NAICS_DESC": "BOOSTER PUMPING STATION, NATURAL GAS TRANSPORTATION", "SOURCE": "EPA ENVIROFACTS, FERC FORM 2, CORPORATE WEBSITE", "SOURCEDATE": "Wed, 15 Jul 2020 00:00:00 GMT", "VAL_METHOD": "IMAGERY/OTHER", "VAL_DATE": "Fri, 24 Jun 2022 00:00:00 GMT", "WEBSITE": "http://www.dcpmidstream.com/", "PIPECO": "CIMARRON RIVER PIPELINE L.L.C.", "COMPID": "575", "OPERATOR": "CIMARRON RIVER PIPELINE L.L.C.", "POSREL": "WITHIN 40 FEET", "NUM_UNITS": 7, "CERT_HP": 13279, "PLANT_COST": 17739717, "EXP_FUEL": 0, "EXP_OTHER": 0, "GAS_COMPRE": 478434, "OP_COMP_HR": 32226, "OP_NUM_COM": 4, "OP_DATE_PE": "Wed, 01 Jan 2020 00:00:00 GMT", "EXP_POWER": 1918, "ELEC_COMPR": 4084800 }, "geometry": { "type": "Point", "coordinates": [ -100.428868658, 36.710834502000097 ] } },
{ "type": "Feature", "properties": { "OBJECTID": 109, "GCOMPID": "GCOMP1097", "NAME": "BEAVER STATION", "ADDRESS": "HOLLOW N1445 /HIGHWAY 3", "CITY": "BALKO", "STATE": "OK", "ZIP": "73931", "ZIP4": "NOT AVAILABLE", "TYPE": "NATURAL GAS COMPRESSOR STATION", "STATUS": "IN SERVICE", "COUNTY": "BEAVER", "COUNTYFIPS": "40007", "COUNTRY": "USA", "LATITUDE": 36.616535, "LONGITUDE": -100.419835, "NAICS_CODE": "486210", "NAICS_DESC": "BOOSTER PUMPING STATION, NATURAL GAS TRANSPORTATION", "SOURCE": "EPA ENVIROFACTS, FERC FORM 2, CORPORATE WEBSITE", "SOURCEDATE": "Wed, 15 Jul 2020 00:00:00 GMT", "VAL_METHOD": "IMAGERY/OTHER", "VAL_DATE": "Mon, 06 Jun 2022 00:00:00 GMT", "WEBSITE": "http://www.dcpmidstream.com/", "PIPECO": "CIMARRON RIVER PIPELINE L.L.C.", "COMPID": "575", "OPERATOR": "CIMARRON RIVER PIPELINE L.L.C.", "POSREL": "WITHIN 40 FEET", "NUM_UNITS": 7, "CERT_HP": 13279, "PLANT_COST": 17843636, "EXP_FUEL": 0, "EXP_OTHER": 2549276, "GAS_COMPRE": 607501, "OP_COMP_HR": 39305, "OP_NUM_COM": 6, "OP_DATE_PE": "Thu, 19 Jul 2012 00:00:00 GMT", "EXP_POWER": 306059, "ELEC_COMPR": 4311000 }, "geometry": { "type": "Point", "coordinates": [ -100.422225566024096, 36.618616104892844 ] } },
{ "type": "Feature", "properties": { "OBJECTID": 110, "GCOMPID": "GCOMP1098", "NAME": "BEAVER COUNTY 9", "ADDRESS": "HOLLOW N1510", "CITY": "LAVERNE", "STATE": "OK", "ZIP": "73848", "ZIP4": "NOT AVAILABLE", "TYPE": "NATURAL GAS COMPRESSOR STATION", "STATUS": "IN SERVICE", "COUNTY": "BEAVER", "COUNTYFIPS": "40007", "COUNTRY": "USA", "LATITUDE": 36.58819, "LONGITUDE": -100.307613, "NAICS_CODE": "486210", "NAICS_DESC": "BOOSTER PUMPING STATION, NATURAL GAS TRANSPORTATION", "SOURCE": "FERC FORM 2, CORPORATE WEBSITE", "SOURCEDATE": "Wed, 15 Jul 2020 00:00:00 GMT", "VAL_METHOD": "IMAGERY/OTHER", "VAL_DATE": "Mon, 06 Jun 2022 00:00:00 GMT", "WEBSITE": "http://www.dcpmidstream.com/", "PIPECO": "CIMARRON RIVER PIPELINE L.L.C.", "COMPID": "575", "OPERATOR": "CIMARRON RIVER PIPELINE L.L.C.", "POSREL": "WITHIN 40 FEET", "NUM_UNITS": 1, "CERT_HP": -999, "PLANT_COST": -999, "EXP_FUEL": 0, "EXP_OTHER": 0, "GAS_COMPRE": 0, "OP_COMP_HR": 0, "OP_NUM_COM": 0, "OP_DATE_PE": "Wed, 15 Jul 2020 00:00:00 GMT", "EXP_POWER": 0, "ELEC_COMPR": 0 }, "geometry": { "type": "Point", "coordinates": [ -100.307613, 36.58819 ] } },
{ "type": "Feature", "properties": { "OBJECTID": 111, "GCOMPID": "GCOMP1099", "NAME": "BEAVER COUNTY 7", "ADDRESS": "HOLLOW N1540", "CITY": "LOGAN", "STATE": "OK", "ZIP": "73848", "ZIP4": "NOT AVAILABLE", "TYPE": "NATURAL GAS COMPRESSOR STATION", "STATUS": "IN SERVICE", "COUNTY": "BEAVER", "COUNTYFIPS": "40007", "COUNTRY": "USA", "LATITUDE": 36.569776, "LONGITUDE": -100.253677, "NAICS_CODE": "486210", "NAICS_DESC": "BOOSTER PUMPING STATION, NATURAL GAS TRANSPORTATION", "SOURCE": "EPA ENVIROFACTS, FERC FORM 2, CORPORATE WEBSITE", "SOURCEDATE": "Wed, 15 Jul 2020 00:00:00 GMT", "VAL_METHOD": "IMAGERY/OTHER", "VAL_DATE": "Mon, 06 Jun 2022 00:00:00 GMT", "WEBSITE": "http://www.dcpmidstream.com/", "PIPECO": "CIMARRON RIVER PIPELINE L.L.C.", "COMPID": "575", "OPERATOR": "CIMARRON RIVER PIPELINE L.L.C.", "POSREL": "WITHIN 40 FEET", "NUM_UNITS": 3, "CERT_HP": 2619, "PLANT_COST": 2557263, "EXP_FUEL": 0, "EXP_OTHER": 65951, "GAS_COMPRE": 92569, "OP_COMP_HR": 20828, "OP_NUM_COM": 3, "OP_DATE_PE": "Thu, 14 Jun 2012 00:00:00 GMT", "EXP_POWER": 3083, "ELEC_COMPR": 24915 }, "geometry": { "type": "Point", "coordinates": [ -100.253677, 36.569776 ] } },
{ "type": "Feature", "properties": { "OBJECTID": 114, "GCOMPID": "GCOMP1100", "NAME": "BEAVER COUNTY 11", "ADDRESS": "HOLLOW N1600", "CITY": "LAVERNE", "STATE": "OK", "ZIP": "73848", "ZIP4": "NOT AVAILABLE", "TYPE": "NATURAL GAS COMPRESSOR STATION", "STATUS": "IN SERVICE", "COUNTY": "BEAVER", "COUNTYFIPS": "40007", "COUNTRY": "USA", "LATITUDE": 36.545717, "LONGITUDE": -100.144673, "NAICS_CODE": "486210", "NAICS_DESC": "BOOSTER PUMPING STATION, NATURAL GAS TRANSPORTATION", "SOURCE": "FERC FORM 2, CORPORATE WEBSITE", "SOURCEDATE": "Wed, 15 Jul 2020 00:00:00 GMT", "VAL_METHOD": "IMAGERY/OTHER", "VAL_DATE": "Mon, 20 Jun 2022 00:00:00 GMT", "WEBSITE": "http://www.dcpmidstream.com/", "PIPECO": "CIMARRON RIVER PIPELINE L.L.C.", "COMPID": "575", "OPERATOR": "CIMARRON RIVER PIPELINE L.L.C.", "POSREL": "WITHIN 40 FEET", "NUM_UNITS": 1, "CERT_HP": -999, "PLANT_COST": -999, "EXP_FUEL": 0, "EXP_OTHER": 0, "GAS_COMPRE": 0, "OP_COMP_HR": 0, "OP_NUM_COM": 0, "OP_DATE_PE": null, "EXP_POWER": 0, "ELEC_COMPR": 0 }, "geometry": { "type": "Point", "coordinates": [ -100.144673, 36.545717 ] } },
{ "type": "Feature", "properties": { "OBJECTID": 121, "GCOMPID": "GCOMP1107", "NAME": "PERRYTON-BARLOW", "ADDRESS": "HIGHWAY 20/ K ROAD", "CITY": "PERRYTON", "STATE": "TX", "ZIP": "79070", "ZIP4": "NOT AVAILABLE", "TYPE": "NATURAL GAS COMPRESSOR STATION", "STATUS": "IN SERVICE", "COUNTY": "OCHILTREE", "COUNTYFIPS": "48357", "COUNTRY": "USA", "LATITUDE": 36.361722444000002, "LONGITUDE": -100.727332749, "NAICS_CODE": "486210", "NAICS_DESC": "BOOSTER PUMPING STATION, NATURAL GAS TRANSPORTATION", "SOURCE": "EPA ENVIROFACTS, FERC FORM 2, CORPORATE WEBSITE, IMAGERY", "SOURCEDATE": "Wed, 15 Jul 2020 00:00:00 GMT", "VAL_METHOD": "IMAGERY/OTHER", "VAL_DATE": "Mon, 20 Jun 2022 00:00:00 GMT", "WEBSITE": "http://www.dcpmidstream.com/", "PIPECO": "CIMARRON RIVER PIPELINE L.L.C.", "COMPID": "575", "OPERATOR": "CIMARRON RIVER PIPELINE L.L.C.", "POSREL": "WITHIN 40 FEET", "NUM_UNITS": 3, "CERT_HP": 2475, "PLANT_COST": 2284969, "EXP_FUEL": 0, "EXP_OTHER": 175497, "GAS_COMPRE": 83080, "OP_COMP_HR": 15251, "OP_NUM_COM": 3, "OP_DATE_PE": "Tue, 18 Dec 2012 00:00:00 GMT", "EXP_POWER": 14980, "ELEC_COMPR": 244758 }, "geometry": { "type": "Point", "coordinates": [ -100.727332749, 36.361722444000101 ] } },
{ "type": "Feature", "properties": { "OBJECTID": 195, "GCOMPID": "GCOMP1174", "NAME": "ELLIS COUNTY 4", "ADDRESS": "N1710 ROAD/SOUTH OF E0350 ROAD", "CITY": "SHATTUCK", "STATE": "OK", "ZIP": "73858", "ZIP4": "NOT AVAILABLE", "TYPE": "NATURAL GAS COMPRESSOR STATION", "STATUS": "NOT AVAILABLE", "COUNTY": "ELLIS", "COUNTYFIPS": "40045", "COUNTRY": "USA", "LATITUDE": 36.499771490999997, "LONGITUDE": -99.973766526999995, "NAICS_CODE": "486210", "NAICS_DESC": "BOOSTER PUMPING STATION, NATURAL GAS TRANSPORTATION", "SOURCE": "EPA ENVIROFACTS, FERC FORM 2, CORPORATE WEBSITE, IMAGERY", "SOURCEDATE": "Tue, 27 Oct 2015 00:00:00 GMT", "VAL_METHOD": "IMAGERY/OTHER", "VAL_DATE": "Wed, 15 Jun 2022 00:00:00 GMT", "WEBSITE": "http://www.dcpmidstream.com/", "PIPECO": "CIMARRON RIVER PIPELINE L.L.C.", "COMPID": "575", "OPERATOR": "CIMARRON RIVER PIPELINE L.L.C.", "POSREL": "WITHIN 40 FEET", "NUM_UNITS": 2, "CERT_HP": -999, "PLANT_COST": -999, "EXP_FUEL": 0, "EXP_OTHER": 0, "GAS_COMPRE": 0, "OP_COMP_HR": 0, "OP_NUM_COM": 0, "OP_DATE_PE": "Wed, 15 Jul 2020 00:00:00 GMT", "EXP_POWER": 0, "ELEC_COMPR": 0 }, "geometry": { "type": "Point", "coordinates": [ -99.973766527, 36.499771491 ] } },
{ "type": "Feature", "properties": { "OBJECTID": 196, "GCOMPID": "GCOMP1175", "NAME": "ELLIS COUNTY 3", "ADDRESS": "N1770 ROAD/NORTH OF E0390 ROAD", "CITY": "SHATTUCK", "STATE": "OK", "ZIP": "73858", "ZIP4": "NOT AVAILABLE", "TYPE": "NATURAL GAS COMPRESSOR STATION", "STATUS": "IN SERVICE", "COUNTY": "ELLIS", "COUNTYFIPS": "40045", "COUNTRY": "USA", "LATITUDE": 36.455850208000001, "LONGITUDE": -99.85539312, "NAICS_CODE": "486210", "NAICS_DESC": "BOOSTER PUMPING STATION, NATURAL GAS TRANSPORTATION", "SOURCE": "FERC FORM 2, CORPORATE WEBSITE", "SOURCEDATE": "Wed, 15 Jul 2020 00:00:00 GMT", "VAL_METHOD": "IMAGERY/OTHER", "VAL_DATE": "Thu, 16 Jun 2022 00:00:00 GMT", "WEBSITE": "http://www.dcpmidstream.com/", "PIPECO": "CIMARRON RIVER PIPELINE L.L.C.", "COMPID": "575", "OPERATOR": "CIMARRON RIVER PIPELINE L.L.C.", "POSREL": "WITHIN 40 FEET", "NUM_UNITS": 2, "CERT_HP": 927, "PLANT_COST": 873322, "EXP_FUEL": 0, "EXP_OTHER": 31084, "GAS_COMPRE": 48888, "OP_COMP_HR": 16338, "OP_NUM_COM": 2, "OP_DATE_PE": "Tue, 27 Mar 2012 00:00:00 GMT", "EXP_POWER": 5032, "ELEC_COMPR": 37670 }, "geometry": { "type": "Point", "coordinates": [ -99.85539312, 36.455850208000101 ] } },
{ "type": "Feature", "properties": { "OBJECTID": 197, "GCOMPID": "GCOMP1176", "NAME": "ELLIS COUNTY 2", "ADDRESS": "N1880 ROAD", "CITY": "FARGO", "STATE": "OK", "ZIP": "73840", "ZIP4": "NOT AVAILABLE", "TYPE": "NATURAL GAS COMPRESSOR STATION", "STATUS": "IN SERVICE", "COUNTY": "ELLIS", "COUNTYFIPS": "40045", "COUNTRY": "USA", "LATITUDE": 36.358957330734597, "LONGITUDE": -99.660713707031107, "NAICS_CODE": "486210", "NAICS_DESC": "BOOSTER PUMPING STATION, NATURAL GAS TRANSPORTATION", "SOURCE": "EPA ENVIROFACTS, FERC FORM 2, CORPORATE WEBSITE", "SOURCEDATE": "Wed, 15 Jul 2020 00:00:00 GMT", "VAL_METHOD": "IMAGERY/OTHER", "VAL_DATE": "Fri, 24 Jun 2022 00:00:00 GMT", "WEBSITE": "http://www.dcpmidstream.com/", "PIPECO": "CIMARRON RIVER PIPELINE L.L.C.", "COMPID": "575", "OPERATOR": "CIMARRON RIVER PIPELINE L.L.C.", "POSREL": "WITHIN 40 FEET", "NUM_UNITS": 3, "CERT_HP": 3889, "PLANT_COST": 2474692, "EXP_FUEL": 0, "EXP_OTHER": 0, "GAS_COMPRE": 99359, "OP_COMP_HR": 10894, "OP_NUM_COM": 2, "OP_DATE_PE": "Wed, 01 Jan 2020 00:00:00 GMT", "EXP_POWER": 18896, "ELEC_COMPR": 525040 }, "geometry": { "type": "Point", "coordinates": [ -99.660713707, 36.358957331 ] } },
{ "type": "Feature", "properties": { "OBJECTID": 198, "GCOMPID": "GCOMP1177", "NAME": "WOODWARD COUNTY 1", "ADDRESS": "0.2 MILE N OF ROADS N1940 AND E0470", "CITY": "FARGO", "STATE": "OK", "ZIP": "73857", "ZIP4": "NOT AVAILABLE", "TYPE": "NATURAL GAS COMPRESSOR STATION", "STATUS": "IN SERVICE", "COUNTY": "WOODWARD", "COUNTYFIPS": "40153", "COUNTRY": "USA", "LATITUDE": 36.337312, "LONGITUDE": -99.551321, "NAICS_CODE": "486210", "NAICS_DESC": "BOOSTER PUMPING STATION, NATURAL GAS TRANSPORTATION", "SOURCE": "EPA ENVIROFACTS, FERC FORM 2, CORPORATE WEBSITE", "SOURCEDATE": "Wed, 15 Jul 2020 00:00:00 GMT", "VAL_METHOD": "IMAGERY/OTHER", "VAL_DATE": "Sat, 18 Jun 2022 00:00:00 GMT", "WEBSITE": "http://www.dcpmidstream.com/", "PIPECO": "CIMARRON RIVER PIPELINE L.L.C.", "COMPID": "575", "OPERATOR": "CIMARRON RIVER PIPELINE L.L.C.", "POSREL": "WITHIN 40 FEET", "NUM_UNITS": 2, "CERT_HP": 1291, "PLANT_COST": 1212411, "EXP_FUEL": 0, "EXP_OTHER": 32330, "GAS_COMPRE": 18372, "OP_COMP_HR": 9538, "OP_NUM_COM": 2, "OP_DATE_PE": "Thu, 22 Mar 2012 00:00:00 GMT", "EXP_POWER": 2695, "ELEC_COMPR": 21644 }, "geometry": { "type": "Point", "coordinates": [ -99.551321, 36.337312 ] } },
{ "type": "Feature", "properties": { "OBJECTID": 457, "GCOMPID": "GCOMP18", "NAME": "NORTHRUP", "ADDRESS": "1 MILE SOUTH OF FM-759", "CITY": "PERRYTON", "STATE": "TX", "ZIP": "79070", "ZIP4": "NOT AVAILABLE", "TYPE": "NATURAL GAS COMPRESSOR STATION", "STATUS": "IN SERVICE", "COUNTY": "OCHILTREE", "COUNTYFIPS": "48357", "COUNTRY": "USA", "LATITUDE": 36.173008, "LONGITUDE": -100.927613, "NAICS_CODE": "486210", "NAICS_DESC": "BOOSTER PUMPING STATION, NATURAL GAS TRANSPORTATION", "SOURCE": "EPA ENVIROFACTS, FERC FORM 2, CORPORATE WEBSITE", "SOURCEDATE": "Wed, 15 Jul 2020 00:00:00 GMT", "VAL_METHOD": "IMAGERY/OTHER", "VAL_DATE": "Fri, 17 Jun 2022 00:00:00 GMT", "WEBSITE": "http://www.dcpmidstream.com/", "PIPECO": "CIMARRON RIVER PIPELINE L.L.C.", "COMPID": "575", "OPERATOR": "CIMARRON RIVER PIPELINE L.L.C.", "POSREL": "WITHIN 40 FEET", "NUM_UNITS": 2, "CERT_HP": 2084, "PLANT_COST": 2831487, "EXP_FUEL": 0, "EXP_OTHER": 138565, "GAS_COMPRE": 47204, "OP_COMP_HR": 8835, "OP_NUM_COM": 2, "OP_DATE_PE": "Mon, 02 Jul 2012 00:00:00 GMT", "EXP_POWER": 11931, "ELEC_COMPR": 195016 }, "geometry": { "type": "Point", "coordinates": [ -100.927613, 36.173008 ] } },
{ "type": "Feature", "properties": { "OBJECTID": 569, "GCOMPID": "GCOMP280", "NAME": "CLARK COUNTY 2", "ADDRESS": "1895 COUNTY ROAD 30", "CITY": "ASHLAND", "STATE": "KS", "ZIP": "67831", "ZIP4": "NOT AVAILABLE", "TYPE": "NATURAL GAS COMPRESSOR STATION", "STATUS": "IN SERVICE", "COUNTY": "CLARK", "COUNTYFIPS": "20025", "COUNTRY": "USA", "LATITUDE": 37.207458, "LONGITUDE": -99.5814, "NAICS_CODE": "486210", "NAICS_DESC": "BOOSTER PUMPING STATION, NATURAL GAS TRANSPORTATION", "SOURCE": "EPA ENVIROFACTS, FERC FORM 2, CORPORATE WEBSITE", "SOURCEDATE": "Wed, 15 Jul 2020 00:00:00 GMT", "VAL_METHOD": "IMAGERY/OTHER", "VAL_DATE": "Fri, 17 Jun 2022 00:00:00 GMT", "WEBSITE": "http://www.dcpmidstream.com/", "PIPECO": "CIMARRON RIVER PIPELINE L.L.C.", "COMPID": "575", "OPERATOR": "CIMARRON RIVER PIPELINE L.L.C.", "POSREL": "WITHIN 40 FEET", "NUM_UNITS": 2, "CERT_HP": 1300, "PLANT_COST": 7037940, "EXP_FUEL": 0, "EXP_OTHER": 53079, "GAS_COMPRE": 142127, "OP_COMP_HR": 20006, "OP_NUM_COM": 4, "OP_DATE_PE": "Wed, 19 Dec 2012 00:00:00 GMT", "EXP_POWER": 12141, "ELEC_COMPR": 34773 }, "geometry": { "type": "Point", "coordinates": [ -99.5814, 37.207458 ] } },
{ "type": "Feature", "properties": { "OBJECTID": 1283, "GCOMPID": "GCOMP925", "NAME": "CLARK COUNTY 1", "ADDRESS": "989 ANGLE ROAD", "CITY": "ASHLAND", "STATE": "KS", "ZIP": "67831", "ZIP4": "NOT AVAILABLE", "TYPE": "NATURAL GAS COMPRESSOR STATION", "STATUS": "IN SERVICE", "COUNTY": "CLARK", "COUNTYFIPS": "20025", "COUNTRY": "USA", "LATITUDE": 37.058791, "LONGITUDE": -99.946701, "NAICS_CODE": "486210", "NAICS_DESC": "BOOSTER PUMPING STATION, NATURAL GAS TRANSPORTATION", "SOURCE": "EPA ENVIROFACTS, FERC FORM 2, CORPORATE WEBSITE", "SOURCEDATE": "Wed, 15 Jul 2020 00:00:00 GMT", "VAL_METHOD": "IMAGERY/OTHER", "VAL_DATE": "Fri, 17 Jun 2022 00:00:00 GMT", "WEBSITE": "http://www.dcpmidstream.com/", "PIPECO": "CIMARRON RIVER PIPELINE L.L.C.", "COMPID": "575", "OPERATOR": "CIMARRON RIVER PIPELINE L.L.C.", "POSREL": "WITHIN 40 FEET", "NUM_UNITS": 3, "CERT_HP": 1840, "PLANT_COST": 1100708, "EXP_FUEL": 0, "EXP_OTHER": 80297, "GAS_COMPRE": 107215, "OP_COMP_HR": 25898, "OP_NUM_COM": 3, "OP_DATE_PE": "Sat, 07 Jan 2012 00:00:00 GMT", "EXP_POWER": 0, "ELEC_COMPR": 81137 }, "geometry": { "type": "Point", "coordinates": [ -99.946701, 37.058791 ] } }
]
}
